     2.11           OBSERVATION DATA    M (MIXED)           RINEX VERSION / TYPE
GPP.DLL V3.2.21                         18 - MAR - 24 07:42 PGM / RUN BY / DATE 
                                                            MARKER NAME         
                                                            MARKER NUMBER       
                                                            OBSERVER / AGENCY   
6028C00128          APX-15v3 AV         5.50                REC # / TYPE / VERS 
                    E                                       ANT # / TYPE        
 -4668096.3691  2554474.5283 -3504571.8551                  APPROX POSITION XYZ 
        0.0000       -0.0000       -0.0000                  ANTENNA: DELTA H/E/N
     1     1                                                WAVELENGTH FACT L1/2
     9    L1    L2    C1    P2    C2    D1    D2    S1    S2# / TYPES OF OBSERV 
     0.100                                                  INTERVAL            
  2024     1    10     3    15    0.0000000     GPS         TIME OF FIRST OBS   
  2024     1    10     3    15   59.9000000     GPS         TIME OF LAST OBS    
    18                                                      LEAP SECONDS        
     7                                                      # OF SATELLITES     
   G10   600   600   600     0   600   600   600   600   600PRN / # OF OBS      
   G15   596   596   596     0   596   596   596   596   596PRN / # OF OBS      
   G16   112   112   112   112     0   112   112   112   112PRN / # OF OBS      
   G18   600   600   600     0   600   600   600   600   600PRN / # OF OBS      
   G23   600   600   600     0   600   600   600   600   600PRN / # OF OBS      
   G24   574   574   574     0   574   574   574   574   574PRN / # OF OBS      
   G32   600   600   600     0   600   600   600   600   600PRN / # OF OBS      
                                                            END OF HEADER       
 24  1 10  3 15  0.0000000  0  6G24G10G18G23G32G15
 129701877.996 6 101066490.185 6  24681446.576                    24681468.458  
       560.375         436.879          40.000          40.000  
 109126798.467 7  85033937.044 7  20766140.336                    20766157.289  
       339.914         264.430          44.000          43.000  
 113955383.121 7  88796467.357 7  21684988.952                    21685004.315  
     -1549.523       -1207.375          45.000          44.000  
 110629809.535 7  86205104.645 7  21052154.012                    21052168.605  
     -1592.102       -1240.293          44.000          42.000  
 117827164.789 6  91813460.902 6  22421764.404                    22421784.445  
      3121.930        2432.504          41.000          41.000  
 127435222.622 7  99300251.410 6  24250119.393                    24250137.285  
     -3138.066       -2444.742          44.000          41.000  
 24  1 10  3 15  0.1000000  0  6G24G10G18G23G32G15
 129701821.887 6 101066446.501 6  24681435.899                    24681457.790  
       560.719         436.609          39.000          40.000  
 109126764.553 7  85033910.606 7  20766133.882                    20766150.833  
       339.367         264.242          44.000          43.000  
 113955538.048 7  88796588.080 7  21685018.433                    21685033.797  
     -1549.406       -1207.184          45.000          44.000  
 110629968.742 7  86205228.637 7  21052184.308                    21052198.885  
     -1592.141       -1240.062          43.000          42.000  
 117826852.630 6  91813217.705 6  22421705.002                    22421725.053  
      3121.633        2431.812          41.000          41.000  
 127435536.361 7  99300495.924 6  24250179.095                    24250196.998  
     -3137.645       -2445.000          44.000          41.000  
 24  1 10  3 15  0.2000000  0  6G24G10G18G23G32G15
 129701765.777 6 101066402.783 6  24681425.058                    24681447.630  
       561.020         437.473          39.000          40.000  
 109126730.631 7  85033884.124 7  20766127.560                    20766144.186  
       339.152         264.434          44.000          43.000  
 113955692.947 7  88796708.783 7  21685048.191                    21685063.235  
     -1549.203       -1206.973          45.000          44.000  
 110630127.891 7  86205352.632 7  21052213.898                    21052228.752  
     -1591.809       -1240.340          43.000          42.000  
 117826540.562 6  91812974.538 6  22421645.813                    22421665.552  
      3121.227        2431.910          41.000          41.000  
 127435850.075 7  99300740.369 6  24250238.699                    24250256.780  
     -3137.355       -2444.551          44.000          41.000  
 24  1 10  3 15  0.3000000  0  6G24G10G18G23G32G15
 129701709.639 6 101066358.991 6  24681414.375                    24681436.935  
       561.082         437.391          38.000          40.000  
 109126696.736 7  85033857.718 7  20766121.110                    20766137.737  
       339.195         264.422          44.000          43.000  
 113955847.836 7  88796829.450 7  21685077.665                    21685092.703  
     -1549.020       -1206.828          45.000          44.000  
 110630287.022 7  86205476.676 7  21052244.179                    21052259.045  
     -1591.637       -1240.242          42.000          42.000  
 117826228.498 6  91812731.352 6  22421586.429                    22421606.164  
      3120.762        2431.535          41.000          41.000  
 127436163.717 7  99300984.760 6  24250298.383                    24250316.463  
     -3136.965       -2444.125          44.000          41.000  
 24  1 10  3 15  0.4000000  0  6G24G10G18G23G32G15
 129701653.490 6 101066315.285 6  24681403.979                    24681426.277  
       561.277         437.477          38.000          41.000  
 109126662.780 7  85033831.304 7  20766114.546                    20766131.161  
       339.422         264.008          43.000          43.000  
 113956002.711 7  88796950.145 7  21685107.473                    21685122.482  
     -1548.922       -1207.059          45.000          44.000  
 110630446.158 7  86205600.682 7  21052274.134                    21052289.414  
     -1591.320       -1239.945          42.000          42.000  
 117825916.505 6  91812488.267 6  22421526.996                    22421546.675  
      3120.398        2431.176          41.000          41.000  
 127436477.382 7  99301229.175 7  24250358.369                    24250376.112  
     -3136.688       -2444.008          44.000          42.000  
 24  1 10  3 15  0.5000000  0  6G24G10G18G23G32G15
 129701597.363 6 101066271.516 6  24681393.299                    24681415.588  
       561.359         437.406          39.000          41.000  
 109126628.957 7  85033804.963 7  20766108.110                    20766124.729  
       338.859         263.922          43.000          43.000  
 113956157.624 7  88797070.864 7  21685136.952                    21685151.963  
     -1548.992       -1207.008          45.000          44.000  
 110630605.330 7  86205724.682 7  21052304.423                    21052319.697  
     -1591.691       -1240.293          42.000          42.000  
 117825604.536 6  91812245.132 6  22421467.631                    22421487.299  
      3120.102        2431.027          41.000          41.000  
 127436791.024 7  99301473.546 7  24250418.053                    24250435.790  
     -3136.605       -2443.805          44.000          42.000  
 24  1 10  3 15  0.6000000  0  6G24G10G18G23G32G15
 129701541.218 6 101066227.798 6  24681382.513                    24681405.139  
       561.395         437.145          39.000          40.000  
 109126595.148 7  85033778.540 7  20766101.458                    20766118.846  
       338.172         263.477          44.000          43.000  
 113956312.558 7  88797191.596 7  21685166.771                    21685181.346  
     -1549.246       -1207.481          45.000          44.000  
 110630764.540 7  86205848.748 7  21052334.977                    21052350.174  
     -1591.672       -1239.957          43.000          42.000  
 117825292.627 7  91812002.116 6  22421408.347                    22421428.046  
      3119.473        2430.500          42.000          41.000  
 127437104.686 7  99301717.939 7  24250477.834                    24250495.677  
     -3136.547       -2443.883          44.000          42.000  
 24  1 10  3 15  0.7000000  0  6G24G10G18G23G32G15
 129701485.121 6 101066184.090 6  24681371.838                    24681394.465  
       561.121         437.227          39.000          40.000  
 109126561.416 7  85033752.258 7  20766095.039                    20766112.428  
       337.730         263.023          44.000          43.000  
 113956467.535 7  88797312.359 7  21685196.262                    21685210.837  
     -1549.496       -1207.582          45.000          44.000  
 110630923.712 7  86205972.764 7  21052365.267                    21052380.460  
     -1591.898       -1240.852          44.000          42.000  
 117824980.748 7  91811759.088 6  22421348.998                    22421368.696  
      3118.938        2429.691          42.000          41.000  
 127437418.331 7  99301962.348 6  24250537.519                    24250555.364  
     -3136.562       -2444.160          44.000          41.000  
 24  1 10  3 15  0.8000000  0  6G24G10G18G23G32G15
 129701428.999 6 101066140.384 6  24681360.971                    24681383.627  
       561.262         437.246          40.000          40.000  
 109126527.601 7  85033725.964 7  20766088.526                    20766105.936  
       337.996         262.957          44.000          43.000  
 113956622.496 7  88797433.100 7  21685225.531                    21685240.979  
     -1549.641       -1207.461          46.000          45.000  
 110631082.902 7  86206096.849 7  21052396.114                    21052410.193  
     -1591.887       -1240.570          44.000          42.000  
 117824668.912 7  91811516.119 6  22421289.908                    22421309.704  
      3118.715        2429.910          42.000          41.000  
 127437731.961 7  99302206.761 6  24250597.404                    24250614.950  
     -3136.434       -2444.117          43.000          41.000  
 24  1 10  3 15  0.9000000  0  6G24G10G18G23G32G15
 129701372.825 6 101066096.655 6  24681350.282                    24681372.948  
       561.617         437.582          40.000          40.000  
 109126493.846 7  85033699.662 7  20766082.103                    20766099.513  
       337.891         263.113          45.000          43.000  
 113956777.429 7  88797553.806 7  21685255.014                    21685270.457  
     -1549.434       -1207.219          46.000          45.000  
 110631242.061 7  86206220.911 7  21052426.401                    21052440.490  
     -1591.660       -1240.398          44.000          42.000  
 117824357.078 7  91811273.112 7  22421230.568                    22421250.359  
      3118.344        2429.785          42.000          42.000  
 127438045.573 7  99302451.129 6  24250657.082                    24250674.628  
     -3136.152       -2443.633          42.000          41.000  
 24  1 10  3 15  1.0000000  0  6G24G10G18G23G32G15
 129701316.684 6 101066052.890 6  24681339.926                    24681362.487  
       561.445         437.555          40.000          40.000  
 109126460.136 7  85033673.350 7  20766075.907                    20766092.759  
       337.379         262.984          45.000          43.000  
 113956932.437 7  88797674.591 7  21685284.761                    21685300.157  
     -1549.695       -1207.625          45.000          45.000  
 110631401.272 7  86206344.937 7  21052457.066                    21052470.630  
     -1592.000       -1240.586          44.000          42.000  
 117824045.341 7  91811030.222 7  22421171.355                    22421190.785  
      3118.145        2429.199          42.000          42.000  
 127438359.205 6  99302695.511 6  24250716.639                    24250733.832  
     -3136.223       -2443.805          41.000          41.000  
 24  1 10  3 15  1.1000000  0  6G24G10G18G23G32G15
 129701260.628 6 101066009.129 6  24681329.259                    24681351.800  
       560.852         437.203          40.000          40.000  
 109126426.406 7  85033647.080 7  20766069.488                    20766086.344  
       337.246         262.633          44.000          43.000  
 113957087.394 7  88797795.371 7  21685314.248                    21685329.653  
     -1549.828       -1207.992          45.000          45.000  
 110631560.510 7  86206469.011 7  21052487.368                    21052500.930  
     -1592.402       -1240.738          44.000          43.000  
 117823733.570 6  91810787.270 7  22421112.027                    22421131.454  
      3117.695        2429.355          41.000          42.000  
 127438672.888 6  99302939.917 6  24250776.331                    24250793.518  
     -3136.738       -2443.969          39.000          41.000  
 24  1 10  3 15  1.2000000  0  6G24G10G18G23G32G15
 129701204.531 6 101065965.405 6  24681318.694                    24681341.364  
       560.812         437.312          39.000          40.000  
 109126392.705 7  85033620.835 7  20766063.137                    20766079.927  
       337.223         262.609          45.000          43.000  
 113957242.421 7  88797916.187 7  21685343.718                    21685358.486  
     -1549.859       -1208.051          45.000          44.000  
 110631719.774 7  86206593.109 7  21052517.237                    21052531.603  
     -1592.223       -1240.820          43.000          42.000  
 117823421.779 7  91810544.330 7  22421052.602                    22421071.883  
      3117.848        2429.270          42.000          42.000  
 127438987.42536  99303184.322 6  24250835.256                    24250853.212  
     -3138.574       -2444.301          36.000          40.000  
 24  1 10  3 15  1.3000000  0  6G24G10G18G23G32G15
 129701148.512 6 101065921.718 6  24681308.034                    24681330.695  
       560.523         436.746          38.000          40.000  
 109126359.024 7  85033594.621 7  20766056.728                    20766073.525  
       336.988         262.211          45.000          43.000  
 113957397.474 7  88798037.003 7  21685373.223                    21685387.990  
     -1550.309       -1208.109          45.000          44.000  
 110631879.048 7  86206717.193 7  21052547.546                    21052561.906  
     -1592.777       -1241.016          43.000          42.000  
 117823110.007 7  91810301.415 6  22420993.273                    22421012.561  
      3117.797        2429.309          43.000          41.000  
 127439301.10825  99303428.785 6  24250894.948                    24250912.912  
     -3137.324       -2444.531          35.000          40.000  
 24  1 10  3 15  1.4000000  0  6G24G10G18G23G32G15
 129701092.549 6 101065878.087 6  24681297.408                    24681320.376  
       559.875         436.387          38.000          40.000  
 109126325.383 7  85033568.382 7  20766050.209                    20766066.750  
       336.453         262.219          45.000          43.000  
 113957552.611 7  88798157.883 7  21685402.284                    21685417.510  
     -1551.606       -1208.883          45.000          44.000  
 110632038.422 7  86206841.389 7  21052577.538                    21052592.080  
     -1593.570       -1241.648          43.000          42.000  
 117822798.275 7  91810058.479 6  22420933.601                    22420953.366  
      3117.227        2429.152          42.000          41.000  
 127439614.73926  99303673.316 6  24250954.458                    24250972.504  
     -3136.969       -2444.977          38.000          39.000  
 24  1 10  3 15  1.5000000  0  6G24G10G18G23G32G15
 129701036.619 6 101065834.515 6  24681286.765                    24681309.736  
       559.273         435.770          39.000          39.000  
 109126291.753 7  85033542.174 7  20766043.810                    20766060.350  
       336.281         262.004          45.000          43.000  
 113957707.793 7  88798278.785 7  21685431.814                    21685447.036  
     -1551.582       -1209.231          45.000          44.000  
 110632197.778 7  86206965.559 7  21052607.862                    21052622.403  
     -1593.707       -1242.113          43.000          43.000  
 117822486.585 7  91809815.587 6  22420874.289                    22420894.050  
      3116.961        2429.125          42.000          41.000  
 127439928.57126  99303917.890 6  24251014.178                    24251032.232  
     -3137.875       -2445.910          40.000          39.000  
 24  1 10  3 15  1.6000000  0  6G24G10G18G23G32G15
 129700980.721 6 101065791.011 6  24681276.338                    24681299.088  
       559.273         435.164          40.000          39.000  
 109126258.119 7  85033515.965 7  20766037.355                    20766053.957  
       336.348         262.184          45.000          43.000  
 113957863.035 7  88798399.797 7  21685461.418                    21685476.580  
     -1551.949       -1209.676          45.000          44.000  
 110632357.231 7  86207089.837 7  21052638.502                    21052653.097  
     -1593.867       -1242.137          43.000          43.000  
 117822174.833 7  91809572.646 6  22420814.511                    22420835.073  
      3117.320        2429.012          43.000          41.000  
 127440242.39727  99304162.601 6  24251074.819                    24251091.407  
     -3138.082       -2446.719          42.000          38.000  
 24  1 10  3 15  1.7000000  0  6G24G10G18G23G32G15
 129700924.874 6 101065747.559 6  24681265.711                    24681288.477  
       558.859         434.652          40.000          38.000  
 109126224.460 7  85033489.740 7  20766030.950                    20766047.553  
       336.543         262.184          45.000          43.000  
 113958018.235 7  88798520.674 7  21685490.952                    21685506.100  
     -1552.152       -1209.648          44.000          44.000  
 110632516.650 7  86207214.005 7  21052668.838                    21052683.420  
     -1594.258       -1242.191          43.000          43.000  
 117821863.088 7  91809329.768 6  22420755.188                    22420775.759  
      3117.648        2429.195          43.000          41.000  
 127440556.26727  99304407.158 6  24251134.547                    24251151.130  
     -3138.359       -2445.832          43.000          38.000  
 24  1 10  3 15  1.8000000  0  6G24G10G18G23G32G15
 129700869.071 6 101065704.124 6  24681255.006                    24681277.955  
       558.316         434.340          40.000          38.000  
 109126190.817 7  85033463.545 7  20766024.610                    20766041.140  
       336.480         262.109          45.000          43.000  
 113958173.523 7  88798641.720 7  21685520.440                    21685535.785  
     -1552.301       -1209.856          44.000          44.000  
 110632676.078 7  86207338.239 7  21052698.966                    21052713.830  
     -1594.180       -1242.395          43.000          43.000  
 117821551.327 7  91809086.869 6  22420696.479                    22420716.175  
      3117.504        2429.094          43.000          41.000  
 127440870.20027  99304651.780 6  24251194.864                    24251210.830  
     -3138.902       -2446.355          44.000          38.000  
 24  1 10  3 15  1.9000000  0  6G24G10G18G23G32G15
 129700813.393 6 101065660.659 6  24681244.411                    24681267.341  
       557.613         434.512          39.000          38.000  
 109126157.130 7  85033437.294 7  20766018.200                    20766034.729  
       336.668         262.352          45.000          43.000  
 113958328.765 7  88798762.688 7  21685549.981                    21685565.327  
     -1552.641       -1210.066          45.000          44.000  
 110632835.499 7  86207462.504 7  21052729.302                    21052744.176  
     -1594.215       -1242.492          44.000          43.000  
 117821239.546 7  91808843.925 6  22420637.149                    22420656.846  
      3117.773        2429.473          43.000          41.000  
 127441183.651 7  99304896.410 6  24251254.512                    24251270.571  
     -3139.355       -2446.375          44.000          39.000  
 24  1 10  3 15  2.0000000  0  6G24G10G18G23G32G15
 129700757.726 6 101065617.270 6  24681233.693                    24681256.659  
       557.043         434.027          38.000          38.000  
 109126123.459 7  85033411.059 7  20766011.948                    20766028.291  
       336.809         262.566          45.000          43.000  
 113958484.127 7  88798883.725 7  21685579.655                    21685595.182  
     -1553.008       -1209.984          44.000          44.000  
 110632994.975 7  86207586.789 7  21052759.829                    21052774.778  
     -1594.324       -1242.629          44.000          43.000  
 117820927.764 7  91808600.915 6  22420577.741                    22420597.547  
      3117.723        2429.672          43.000          41.000  
 127441497.642 7  99305141.086 6  24251314.536                    24251330.878  
     -3139.590       -2446.797          43.000          40.000  
 24  1 10  3 15  2.1000000  0  6G24G10G18G23G32G15
 129700702.125 6 101065573.866 6  24681223.113                    24681246.059  
       556.535         434.086          37.000          38.000  
 109126089.767 7  85033384.772 7  20766005.537                    20766021.872  
       336.758         262.574          45.000          43.000  
 113958639.457 7  88799004.708 7  21685609.213                    21685624.728  
     -1553.231       -1210.352          44.000          44.000  
 110633154.502 7  86207711.077 7  21052790.186                    21052805.130  
     -1594.910       -1242.656          44.000          43.000  
 117820615.952 7  91808357.982 6  22420518.405                    22420538.220  
      3118.023        2429.625          43.000          41.000  
 127441811.716 7  99305385.847 6  24251374.302                    24251390.652  
     -3140.066       -2447.203          43.000          41.000  
 24  1 10  3 15  2.2000000  0  6G24G10G18G23G32G15
 129700646.506 6 101065530.549 6  24681212.130                    24681234.973  
       556.352         433.363          37.000          38.000  
 109126056.094 7  85033358.551 7  20765999.364                    20766015.304  
       336.898         262.473          46.000          43.000  
 113958794.798 7  88799125.802 7  21685638.422                    21685653.917  
     -1553.312       -1210.652          45.000          44.000  
 110633314.009 7  86207835.307 7  21052820.774                    21052835.258  
     -1595.074       -1242.938          43.000          43.000  
 117820304.132 7  91808115.002 6  22420459.396                    22420478.124  
      3118.152        2429.848          43.000          41.000  
 127442125.850 6  99305630.571 6  24251433.986                    24251451.197  
     -3140.777       -2447.492          41.000          41.000  
 24  1 10  3 15  2.3000000  0  6G24G10G18G23G32G15
 129700590.948 6 101065487.282 6  24681201.558                    24681224.407  
       555.871         432.625          38.000          38.000  
 109126022.413 7  85033332.296 7  20765992.954                    20766008.892  
       336.707         262.473          45.000          43.000  
 113958950.178 7  88799246.924 7  21685667.990                    21685683.496  
     -1553.547       -1211.121          45.000          44.000  
 110633473.547 7  86207959.648 7  21052851.133                    21052865.623  
     -1595.320       -1243.152          43.000          43.000  
 117819992.310 7  91807872.011 6  22420400.058                    22420418.783  
      3118.180        2429.859          44.000          41.000  
 127442440.030 6  99305875.391 6  24251493.773                    24251510.984  
     -3141.297       -2448.156          39.000          41.000  
 24  1 10  3 15  2.4000000  0  6G24G10G18G23G32G15
 129700535.442 6 101065444.054 6  24681190.792                    24681213.561  
       555.496         432.516          38.000          38.000  
 109125988.707 7  85033306.037 7  20765986.407                    20766002.323  
       336.945         262.543          45.000          42.000  
 113959105.570 7  88799368.010 7  21685697.662                    21685712.872  
     -1553.793       -1210.945          45.000          43.000  
 110633633.085 7  86208083.957 7  21052881.453                    21052895.887  
     -1595.180       -1243.062          43.000          43.000  
 117819680.451 7  91807629.013 6  22420340.807                    22420359.785  
      3118.512        2429.996          44.000          41.000  
 127442754.293 6  99306120.234 7  24251552.747                    24251570.989  
     -3142.094       -2448.312          37.000          42.000  
 24  1 10  3 15  2.5000000  0  6G24G10G18G23G32G15
 129700479.944 6 101065400.801 6  24681180.231                    24681202.998  
       555.109         432.461          39.000          39.000  
 109125954.982 7  85033279.743 7  20765979.990                    20765995.902  
       337.172         262.852          46.000          42.000  
 113959260.993 7  88799489.108 7  21685727.238                    21685742.445  
     -1554.023       -1210.957          45.000          44.000  
 110633792.647 7  86208208.319 7  21052911.817                    21052926.257  
     -1595.383       -1243.250          44.000          43.000  
 117819368.549 7  91807385.982 6  22420281.454                    22420300.434  
      3118.848        2430.387          44.000          41.000  
 127443068.523 5  99306365.095 7  24251612.543                    24251630.786  
     -3142.137       -2448.703          35.000          42.000  
 24  1 10  3 15  2.6000000  0  6G24G10G18G23G32G15
 129700424.565 6 101065357.606 6  24681169.631                    24681192.543  
       554.500         431.727          39.000          39.000  
 109125921.291 7  85033253.490 7  20765973.680                    20765989.702  
       336.992         262.559          46.000          43.000  
 113959416.478 7  88799610.264 7  21685757.115                    21685772.407  
     -1554.527       -1211.492          45.000          43.000  
 110633952.252 7  86208332.663 7  21052942.180                    21052956.577  
     -1595.801       -1243.848          44.000          43.000  
 117819056.682 7  91807142.964 6  22420222.053                    22420241.368  
      3118.840        2430.242          44.000          41.000  
 127443382.879 5  99306610.022 7  24251671.488                    24251690.764  
     -3143.043       -2449.195          33.000          42.000  
 24  1 10  3 15  2.7000000  0  6G24G10G18G23G32G15
 129700369.206 6 101065314.507 6  24681159.096                    24681182.018  
       554.125         431.430          39.000          39.000  
 109125887.600 7  85033227.253 7  20765967.269                    20765983.294  
       336.969         262.383          46.000          43.000  
 113959571.973 7  88799731.408 7  21685786.704                    21685801.992  
     -1554.762       -1211.688          45.000          43.000  
 110634111.866 7  86208457.056 7  21052972.554                    21052986.955  
     -1596.031       -1243.856          44.000          43.000  
 117818744.761 7  91806899.916 7  22420162.696                    22420182.013  
      3118.852        2430.391          44.000          42.000  
 127443697.237 5  99306854.988 7  24251731.308                    24251750.587  
     -3142.996       -2449.590          32.000          42.000  
 24  1 10  3 15  2.8000000  0  6G24G10G18G23G32G15
 129700313.865 6 101065271.365 6  24681148.565                    24681171.506  
       553.668         431.137          39.000          39.000  
 109125853.903 7  85033200.996 7  20765960.849                    20765976.968  
       336.961         262.559          46.000          43.000  
 113959727.533 7  88799852.644 7  21685816.463                    21685831.287  
     -1555.121       -1211.902          45.000          44.000  
 110634271.503 7  86208581.459 7  21053003.291                    21053017.030  
     -1596.231       -1244.066          44.000          43.000  
 117818432.868 7  91806656.866 6  22420102.876                    22420122.822  
      3118.941        2430.375          43.000          41.000  
 127444011.641 5  99307099.958 7  24251790.551                    24251810.552  
     -3143.664       -2449.590          31.000          42.000  
 24  1 10  3 15  2.9000000  0  6G24G10G18G23G32G15
 129700258.585 6 101065228.261 6  24681138.046                    24681160.979  
       553.191         431.160          39.000          39.000  
 109125820.225 7  85033174.757 7  20765954.440                    20765970.560  
       336.828         262.281          46.000          43.000  
 113959883.084 7  88799973.814 7  21685846.063                    21685860.878  
     -1555.418       -1211.898          44.000          44.000  
 110634431.158 7  86208705.871 7  21053033.673                    21053047.413  
     -1596.531       -1244.352          45.000          42.000  
 117818120.976 7  91806413.831 6  22420043.525                    22420063.470  
      3118.965        2430.176          43.000          41.000  
 127444326.049 5  99307344.944 7  24251850.381                    24251870.380  
     -3144.098       -2449.969          32.000          42.000  
 24  1 10  3 15  3.0000000  0  6G24G10G18G23G32G15
 129700203.288 6 101065185.201 6  24681127.140                    24681150.752  
       553.121         430.773          39.000          39.000  
 109125786.587 7  85033148.546 7  20765948.172                    20765964.066  
       336.582         262.164          46.000          43.000  
 113960038.652 7  88800095.036 7  21685875.503                    21685890.755  
     -1555.531       -1212.273          45.000          44.000  
 110634590.880 7  86208830.347 7  21053064.301                    21053077.725  
     -1596.754       -1244.336          44.000          42.000  
 117817809.108 7  91806170.812 6  22419984.108                    22420003.724  
      3118.746        2430.285          42.000          41.000  
 127444640.610 5  99307589.993 7  24251909.951                    24251930.552  
     -3144.637       -2450.328          33.000          42.000  
 24  1 10  3 15  3.1000000  0  6G24G10G18G23G32G15
 129700148.046 6 101065142.087 6  24681116.628                    24681140.224  
       552.746         430.996          39.000          40.000  
 109125752.949 7  85033122.346 7  20765941.771                    20765957.667  
       336.441         261.977          45.000          43.000  
 113960194.253 7  88800216.279 7  21685905.113                    21685920.363  
     -1555.695       -1212.289          45.000          44.000  
 110634750.560 7  86208954.792 7  21053094.687                    21053108.116  
     -1596.930       -1244.512          44.000          42.000  
 117817497.277 7  91805927.824 6  22419924.769                    22419944.384  
      3118.688        2429.930          42.000          41.000  
 127444955.021 5  99307835.004 7  24251969.782                    24251990.386  
     -3144.453       -2450.121          35.000          42.000  
 24  1 10  3 15  3.2000000  0  6G24G10G18G23G32G15
 129700092.770 6 101065099.044 6  24681106.258                    24681129.689  
       552.758         430.527          39.000          40.000  
 109125719.341 7  85033096.152 7  20765935.446                    20765951.520  
       336.316         261.953          45.000          43.000  
 113960349.835 7  88800337.505 7  21685934.602                    21685950.156  
     -1555.828       -1212.324          45.000          44.000  
 110634910.303 7  86209079.252 7  21053124.960                    21053138.464  
     -1597.074       -1244.648          44.000          42.000  
 117817185.436 7  91805684.872 6  22419865.334                    22419885.138  
      3118.449        2429.688          42.000          41.000  
 127445269.525 6  99308080.040 7  24252030.216                    24252050.179  
     -3144.801       -2450.348          36.000          42.000  
 24  1 10  3 15  3.3000000  0  6G24G10G18G23G32G15
 129700037.512 6 101065056.002 6  24681095.742                    24681119.177  
       552.652         430.465          40.000          40.000  
 109125685.758 7  85033069.970 7  20765929.055                    20765945.126  
       335.992         261.668          45.000          43.000  
 113960505.436 7  88800458.754 7  21685964.211                    21685979.766  
     -1555.965       -1212.481          45.000          45.000  
 110635070.025 7  86209203.731 7  21053155.354                    21053168.863  
     -1597.234       -1244.812          44.000          42.000  
 117816873.640 7  91805441.892 6  22419806.001                    22419825.800  
      3118.137        2429.699          42.000          41.000  
 127445584.013 6  99308325.092 7  24252090.061                    24252110.023  
     -3144.809       -2450.520          36.000          42.000  
 24  1 10  3 15  3.4000000  0  6G24G10G18G23G32G15
 129699982.230 6 101065012.937 6  24681085.559                    24681108.457  
       552.688         430.496          41.000          39.000  
 109125652.140 7  85033043.790 7  20765922.416                    20765938.889  
       336.125         261.988          45.000          43.000  
 113960661.006 7  88800579.969 7  21685993.714                    21686009.258  
     -1555.766       -1212.219          45.000          45.000  
 110635229.706 7  86209328.164 7  21053185.694                    21053199.407  
     -1597.039       -1244.406          43.000          42.000  
 117816561.808 7  91805198.892 6  22419746.763                    22419767.035  
      3118.191        2429.707          42.000          41.000  
 127445898.478 6  99308570.117 6  24252149.776                    24252169.330  
     -3144.707       -2450.273          36.000          41.000  
 24  1 10  3 15  3.5000000  0  6G24G10G18G23G32G15
 129699926.975 6 101064969.892 6  24681075.044                    24681097.945  
       552.785         430.586          41.000          39.000  
 109125618.531 7  85033017.604 7  20765916.020                    20765932.494  
       336.195         262.000          45.000          43.000  
 113960816.579 7  88800701.207 7  21686023.318                    21686038.866  
     -1555.633       -1212.129          45.000          45.000  
 110635389.414 7  86209452.609 7  21053216.085                    21053229.798  
     -1596.816       -1244.086          43.000          42.000  
 117816250.008 7  91804955.947 6  22419687.429                    22419707.706  
      3118.219        2429.594          42.000          41.000  
 127446212.889 5  99308815.137 6  24252209.607                    24252229.166  
     -3144.277       -2450.203          35.000          41.000  
 24  1 10  3 15  3.6000000  0  6G24G10G18G23G32G15
 129699871.695 6 101064926.832 6  24681064.806                    24681087.406  
       552.742         430.566          41.000          39.000  
 109125584.923 7  85032991.412 7  20765909.523                    20765925.848  
       336.102         261.793          45.000          43.000  
 113960972.127 7  88800822.415 7  21686053.035                    21686067.974  
     -1555.641       -1212.102          45.000          45.000  
 110635549.101 7  86209577.029 7  21053246.238                    21053260.198  
     -1596.953       -1244.297          43.000          42.000  
 117815938.220 7  91804712.987 6  22419628.207                    22419648.247  
      3117.930        2429.645          42.000          41.000  
 127446527.336 5  99309060.177 6  24252269.249                    24252288.664  
     -3144.473       -2450.305          35.000          41.000  
 24  1 10  3 15  3.7000000  0  6G24G10G18G23G32G15
 129699816.426 6 101064883.799 6  24681054.288                    24681076.897  
       552.703         430.438          41.000          39.000  
 109125551.324 7  85032965.231 7  20765903.129                    20765919.454  
       335.934         261.793          45.000          43.000  
 113961127.686 7  88800943.639 7  21686082.637                    21686097.578  
     -1555.594       -1212.285          44.000          45.000  
 110635708.796 7  86209701.442 7  21053276.627                    21053290.581  
     -1596.961       -1244.309          44.000          42.000  
 117815626.433 7  91804470.035 6  22419568.876                    22419588.916  
      3117.934        2429.344          42.000          41.000  
 127446841.713 5  99309305.188 6  24252329.073                    24252348.498  
     -3144.035       -2450.195          34.000          41.000  
 24  1 10  3 15  3.8000000  0  6G24G10G18G23G32G15
 129699761.116 6 101064840.659 6  24681043.857                    24681065.706  
       552.949         431.230          41.000          39.000  
 109125517.675 7  85032939.018 7  20765896.531                    20765912.873  
       336.289         262.273          45.000          43.000  
 113961283.171 7  88801064.803 7  21686112.069                    21686127.550  
     -1555.086       -1211.484          44.000          44.000  
 110635868.457 7  86209825.844 7  21053306.994                    21053320.914  
     -1596.656       -1243.520          44.000          42.000  
 117815314.641 7  91804227.074 6  22419509.146                    22419529.051  
      3117.992        2429.695          42.000          41.000  
 127447156.001 5  99309550.194 7  24252388.458                    24252408.589  
     -3143.398       -2450.043          34.000          42.000  
 24  1 10  3 15  3.9000000  0  6G24G10G18G23G32G15
 129699705.826 6 101064797.573 6  24681033.336                    24681055.184  
       552.926         430.871          40.000          38.000  
 109125484.027 7  85032912.773 7  20765890.128                    20765906.464  
       336.461         262.500          45.000          43.000  
 113961438.673 7  88801185.959 7  21686141.660                    21686157.138  
     -1555.020       -1211.422          45.000          44.000  
 110636028.059 7  86209950.152 7  21053337.365                    21053351.271  
     -1596.453       -1243.617          44.000          42.000  
 117815002.825 7  91803984.100 6  22419449.809                    22419469.714  
      3118.152        2429.797          43.000          41.000  
 127447470.396 6  99309795.205 7  24252448.285                    24252468.423  
     -3143.879       -2450.141          36.000          42.000  
 24  1 10  3 15  4.0000000  0  6G24G10G18G23G32G15
 129699650.519 6 101064754.472 6  24681022.623                    24681044.353  
       553.223         430.969          40.000          38.000  
 109125450.319 7  85032886.489 7  20765883.924                    20765899.998  
       337.047         262.605          45.000          43.000  
 113961594.105 7  88801307.061 7  21686171.363                    21686186.923  
     -1554.453       -1211.199          45.000          44.000  
 110636187.593 7  86210074.516 7  21053368.075                    21053381.658  
     -1594.941       -1243.387          43.000          42.000  
 117814690.980 7  91803741.089 6  22419390.897                    22419410.392  
      3118.109        2429.781          43.000          41.000  
 127447784.868 6  99310040.219 7  24252508.198                    24252528.344  
     -3144.527       -2450.148          40.000          42.000  
 24  1 10  3 15  4.1000000  0  6G24G10G18G23G32G15
 129699595.162 6 101064711.342 6  24681012.089                    24681033.820  
       553.406         431.430          39.000          38.000  
 109125416.550 7  85032860.176 7  20765877.499                    20765893.572  
       337.645         263.168          45.000          43.000  
 113961749.455 7  88801428.134 7  21686200.925                    21686216.491  
     -1553.609       -1210.879          45.000          45.000  
 110636347.161 7  86210198.875 7  21053398.440                    21053412.028  
     -1595.383       -1243.055          44.000          42.000  
 117814379.087 7  91803498.094 6  22419331.546                    22419351.050  
      3119.250        2430.453          43.000          41.000  
 127448099.297 7  99310285.197 7  24252568.031                    24252588.170  
     -3144.305       -2449.742          42.000          42.000  
 24  1 10  3 15  4.2000000  0  6G24G10G18G23G32G15
 129699539.865 6 101064668.193 6  24681001.504                    24681023.127  
       553.055         431.199          39.000          38.000  
 109125382.787 7  85032833.905 7  20765871.159                    20765886.993  
       337.938         262.930          45.000          43.000  
 113961904.885 7  88801549.254 7  21686230.432                    21686246.319  
     -1553.996       -1210.902          45.000          44.000  
 110636506.593 7  86210323.096 7  21053428.466                    21053442.879  
     -1594.750       -1242.875          43.000          42.000  
 117814067.235 7  91803255.063 6  22419272.124                    22419291.356  
      3118.598        2430.406          43.000          41.000  
 127448413.705 7  99310530.075 6  24252628.986                    24252647.589  
     -3144.035       -2448.691          42.000          41.000  
 24  1 10  3 15  4.3000000  0  6G24G10G18G23G32G15
 129699484.601 6 101064625.198 6  24680990.988                    24681012.627  
       552.754         430.117          40.000          39.000  
 109125349.095 7  85032807.650 7  20765864.748                    20765880.581  
       336.910         262.664          45.000          43.000  
 113962060.299 7  88801670.335 7  21686260.006                    21686275.888  
     -1554.195       -1210.957          45.000          44.000  
 110636666.193 7  86210447.438 7  21053458.837                    21053473.245  
     -1595.992       -1243.094          44.000          42.000  
 117813755.377 7  91803012.047 6  22419212.779                    22419232.009  
      3118.363        2429.891          43.000          41.000  
 127448728.093 6  99310775.002 6  24252688.812                    24252707.402  
     -3143.793       -2449.637          41.000          40.000  
 24  1 10  3 15  4.4000000  0  6G24G10G18G23G32G15
 129699429.397 6 101064582.186 6  24680980.491                    24681002.584  
       551.738         429.992          40.000          40.000  
 109125315.495 7  85032781.415 7  20765858.370                    20765873.908  
       335.391         262.211          46.000          43.000  
 113962215.830 7  88801791.528 7  21686289.361                    21686304.688  
     -1555.809       -1211.766          45.000          44.000  
 110636825.833 7  86210571.805 7  21053489.083                    21053503.038  
     -1596.231       -1244.102          44.000          42.000  
 117813443.597 7  91802769.161 6  22419153.153                    22419172.826  
      3117.359        2429.152          43.000          41.000  
 127449042.494 6  99311020.122 6  24252749.039                    24252766.505  
     -3144.441       -2450.977          40.000          40.000  
 24  1 10  3 15  4.5000000  0  6G24G10G18G23G32G15
 129699374.184 6 101064539.201 6  24680969.984                    24680992.086  
       551.883         429.934          40.000          40.000  
 109125281.983 7  85032755.303 7  20765851.993                    20765867.531  
       334.617         260.711          46.000          43.000  
 113962371.422 7  88801912.750 7  21686318.969                    21686334.292  
     -1556.477       -1212.668          45.000          44.000  
 110636985.511 7  86210696.302 7  21053519.469                    21053533.442  
     -1597.445       -1244.703          43.000          42.000  
 117813131.889 7  91802526.271 6  22419093.837                    22419113.510  
      3116.676        2429.000          42.000          41.000  
 127449357.013 6  99311265.253 6  24252808.890                    24252826.369  
     -3145.203       -2451.121          39.000          40.000  
 24  1 10  3 15  4.6000000  0  6G24G10G18G23G32G15
 129699319.005 6 101064496.197 6  24680959.726                    24680982.123  
       551.957         430.004          40.000          40.000  
 109125248.531 7  85032729.283 7  20765845.971                    20765861.466  
       334.215         260.426          45.000          43.000  
 113962527.070 7  88802034.041 7  21686348.884                    21686363.498  
     -1556.676       -1212.988          45.000          44.000  
 110637145.372 7  86210820.861 7  21053549.631                    21053563.595  
     -1599.090       -1245.332          43.000          42.000  
 117812820.195 7  91802283.372 6  22419034.453                    22419054.903  
      3116.250        2428.504          42.000          41.000  
 127449671.573 6  99311510.348 6  24252868.507                    24252886.716  
     -3145.801       -2451.199          39.000          40.000  
 24  1 10  3 15  4.7000000  0  6G24G10G18G23G32G15
 129699263.837 6 101064453.229 6  24680949.228                    24680971.630  
       551.707         429.836          40.000          40.000  
 109125215.134 7  85032703.271 7  20765839.616                    20765855.114  
       333.840         260.094          45.000          43.000  
 113962682.732 7  88802155.360 7  21686378.506                    21686393.125  
     -1556.922       -1213.156          45.000          44.000  
 110637305.227 7  86210945.388 7  21053580.051                    21053594.006  
     -1598.422       -1245.676          44.000          42.000  
 117812508.573 7  91802040.540 6  22418975.153                    22418995.601  
      3116.453        2428.344          42.000          41.000  
 127449986.156 6  99311755.493 6  24252928.370                    24252946.583  
     -3145.973       -2451.363          40.000          40.000  
 24  1 10  3 15  4.8000000  0  6G24G10G18G23G32G15
 129699208.697 6 101064410.246 6  24680938.766                    24680961.118  
       551.340         429.637          39.000          39.000  
 109125181.796 7  85032677.287 7  20765832.865                    20765849.073  
       333.035         259.820          44.000          43.000  
 113962838.484 7  88802276.707 7  21686408.144                    21686422.830  
     -1557.391       -1213.426          45.000          44.000  
 110637465.106 7  86211069.969 7  21053610.631                    21053624.578  
     -1599.231       -1246.059          44.000          42.000  
 117812196.979 7  91801797.740 6  22418916.078                    22418936.299  
      3115.961        2428.121          42.000          41.000  
 127450300.751 6  99312000.587 6  24252987.939                    24253007.086  
     -3145.902       -2451.004          40.000          40.000  
 24  1 10  3 15  4.9000000  0  6G24G10G18G23G32G15
 129699153.584 6 101064367.313 6  24680928.279                    24680950.633  
       550.867         429.613          40.000          39.000  
 109125148.527 7  85032651.343 7  20765826.534                    20765842.737  
       332.633         259.215          44.000          43.000  
 113962994.223 7  88802398.078 7  21686437.781                    21686452.470  
     -1557.699       -1213.645          45.000          44.000  
 110637625.044 7  86211194.654 7  21053641.066                    21053655.027  
     -1599.582       -1246.465          44.000          42.000  
 117811885.394 7  91801554.952 6  22418856.785                    22418877.007  
      3115.590        2427.859          42.000          41.000  
 127450615.378 6  99312245.770 6  24253047.810                    24253066.962  
     -3146.578       -2451.801          40.000          40.000  
 24  1 10  3 15  5.0000000  0  6G24G10G18G23G32G15
 129699098.493 6 101064324.400 6  24680917.522                    24680940.052  
       550.445         428.836          39.000          39.000  
 109125115.288 7  85032625.444 7  20765819.991                    20765836.194  
       332.383         259.215          44.000          43.000  
 113963150.058 7  88802519.490 7  21686467.380                    21686482.722  
     -1558.570       -1214.129          45.000          44.000  
 110637785.037 7  86211319.308 7  21053672.082                    21053685.407  
     -1600.258       -1246.777          44.000          42.000  
 117811573.855 7  91801312.175 6  22418797.837                    22418817.539  
      3115.297        2427.730          42.000          41.000  
 127450930.051 6  99312490.957 6  24253107.714                    24253126.933  
     -3146.840       -2451.770          39.000          41.000  
 24  1 10  3 15  5.1000000  0  6G24G10G18G23G32G15
 129699043.472 6 101064281.512 6  24680907.052                    24680929.578  
       550.324         428.977          39.000          38.000  
 109125082.073 7  85032599.548 7  20765813.670                    20765829.870  
       332.121         258.816          44.000          43.000  
 113963305.897 7  88802640.930 7  21686497.036                    21686512.378  
     -1558.395       -1214.414          45.000          44.000  
 110637945.088 7  86211444.024 7  21053702.539                    21053715.864  
     -1600.383       -1246.941          44.000          42.000  
 117811262.294 7  91801069.417 6  22418738.549                    22418758.255  
      3115.398        2427.629          42.000          41.000  
 127451244.749 6  99312736.141 6  24253167.599                    24253186.809  
     -3146.957       -2452.043          38.000          41.000  
 24  1 10  3 15  5.2000000  0  6G24G10G18G23G32G15
 129698988.443 6 101064238.626 6  24680896.205                    24680918.784  
       550.297         428.895          38.000          38.000  
 109125048.871 7  85032573.677 7  20765807.172                    20765823.802  
       332.098         258.906          44.000          43.000  
 113963461.731 7  88802762.378 7  21686526.830                    21686542.217  
     -1558.371       -1214.547          45.000          44.000  
 110638105.120 7  86211568.723 7  21053733.062                    21053746.324  
     -1600.481       -1247.102          44.000          42.000  
 117810950.740 7  91800826.660 6  22418679.317                    22418699.010  
      3115.582        2427.375          43.000          41.000  
 127451559.511 6  99312981.376 6  24253227.605                    24253246.846  
     -3147.441       -2452.223          37.000          41.000  
 24  1 10  3 15  5.3000000  0  6G24G10G18G23G32G15
 129698933.469 6 101064195.779 6  24680885.744                    24680908.321  
       549.812         428.406          38.000          38.000  
 109125015.669 7  85032547.803 7  20765800.854                    20765817.483  
       332.121         258.738          44.000          43.000  
 113963617.628 7  88802883.845 7  21686556.497                    21686571.881  
     -1558.812       -1214.539          45.000          44.000  
 110638265.224 7  86211693.460 7  21053763.529                    21053776.786  
     -1600.797       -1247.203          43.000          42.000  
 117810639.255 7  91800583.943 6  22418620.043                    22418639.736  
      3115.246        2427.676          43.000          41.000  
 127451874.280 6  99313226.627 6  24253287.504                    24253306.739  
     -3147.594       -2452.582          36.000          40.000  
 24  1 10  3 15  5.4000000  0  6G24G10G18G23G32G15
 129698878.473 6 101064152.953 6  24680875.185                    24680897.644  
       550.062         428.363          38.000          39.000  
 109124982.458 7  85032521.922 7  20765794.644                    20765811.014  
       332.113         258.797          44.000          43.000  
 113963773.510 7  88803005.315 7  21686586.394                    21686601.428  
     -1558.770       -1214.668          45.000          44.000  
 110638425.307 7  86211818.191 7  21053793.226                    21053807.223  
     -1600.812       -1247.207          43.000          43.000  
 117810327.692 7  91800341.161 6  22418560.755                    22418580.759  
      3115.445        2427.512          43.000          41.000  
 127452189.043 5  99313471.930 6  24253347.323                    24253366.520  
     -3147.543       -2452.805          35.000          40.000  
 24  1 10  3 15  5.5000000  0  6G24G10G18G23G32G15
 129698823.565 6 101064110.119 6  24680864.736                    24680887.183  
       549.145         428.051          38.000          39.000  
 109124949.310 7  85032496.097 7  20765788.336                    20765804.707  
       331.637         258.301          45.000          43.000  
 113963929.456 7  88803126.834 7  21686616.070                    21686631.104  
     -1559.316       -1215.231          45.000          44.000  
 110638585.420 7  86211942.936 7  21053823.695                    21053837.687  
     -1601.113       -1247.594          43.000          43.000  
 117810016.216 7  91800098.449 6  22418501.483                    22418521.486  
      3114.871        2427.246          42.000          41.000  
 127452503.844 6  99313717.192 6  24253407.228                    24253426.415  
     -3148.215       -2452.695          36.000          40.000  
 24  1 10  3 15  5.6000000  0  6G24G10G18G23G32G15
 129698768.659 6 101064067.360 6  24680854.272                    24680877.655  
       548.961         427.543          39.000          39.000  
 109124916.191 7  85032470.314 7  20765782.189                    20765797.708  
       330.879         257.930          45.000          43.000  
 113964085.462 7  88803248.397 7  21686645.898                    21686660.423  
     -1560.156       -1215.633          46.000          44.000  
 110638745.568 7  86212067.733 7  21053854.115                    21053868.914  
     -1601.547       -1248.035          43.000          43.000  
 117809704.747 7  91799855.728 6  22418442.228                    22418461.774  
      3114.367        2426.875          43.000          41.000  
 127452818.754 6  99313962.533 6  24253466.684                    24253485.955  
     -3148.879       -2453.371          37.000          40.000  
 24  1 10  3 15  5.7000000  0  6G24G10G18G23G32G15
 129698713.794 6 101064024.613 6  24680843.832                    24680867.216  
       548.766         427.586          40.000          39.000  
 109124883.030 7  85032444.457 7  20765775.879                    20765791.393  
       331.570         258.336          45.000          43.000  
 113964241.466 7  88803369.954 7  21686675.584                    21686690.109  
     -1560.055       -1215.629          45.000          44.000  
 110638905.708 7  86212192.514 7  21053884.589                    21053899.387  
     -1601.371       -1248.000          44.000          43.000  
 117809393.293 7  91799613.053 6  22418382.960                    22418402.510  
      3114.824        2427.059          43.000          41.000  
 127453133.626 6  99314207.902 6  24253526.603                    24253545.877  
     -3148.598       -2453.566          38.000          40.000  
 24  1 10  3 15  5.8000000  0  6G24G18G23G10G32G15
 129698658.922 6 101063981.849 6  24680834.093                    24680856.827  
       548.680         427.609          40.000          39.000  
 113964397.445 7  88803491.483 7  21686704.868                    21686720.006  
     -1559.836       -1215.477          45.000          44.000  
 110639065.828 7  86212317.309 7  21053915.231                    21053929.894  
     -1601.273       -1247.914          44.000          43.000  
 109124849.872 7  85032418.642 7  20765769.749                    20765785.245  
       331.789         258.473          46.000          43.000  
 117809081.809 7  91799370.321 6  22418323.562                    22418343.350  
      3114.746        2427.199          43.000          41.000  
 127453448.451 6  99314453.234 6  24253586.738                    24253605.133  
     -3148.395       -2453.312          39.000          39.000  
 24  1 10  3 15  5.9000000  0  6G24G18G23G10G32G15
 129698604.077 6 101063939.104 6  24680823.656                    24680846.388  
       548.617         427.551          40.000          39.000  
 113964553.446 7  88803613.050 7  21686734.553                    21686749.694  
     -1559.844       -1215.523          45.000          44.000  
 110639225.987 7  86212442.112 7  21053945.708                    21053960.372  
     -1601.449       -1247.934          43.000          42.000  
 109124816.715 7  85032392.791 7  20765763.440                    20765778.932  
       331.477         258.340          46.000          43.000  
 117808770.355 7  91799127.639 6  22418264.294                    22418284.084  
      3114.605        2427.086          43.000          41.000  
 127453763.325 6  99314698.577 6  24253646.657                    24253665.048  
     -3148.625       -2453.320          40.000          39.000  
 24  1 10  3 15  6.0000000  0  6G24G18G23G10G32G15
 129698549.254 6 101063896.391 6  24680813.372                    24680835.238  
       548.328         427.184          39.000          39.000  
 113964709.483 7  88803734.628 7  21686764.317                    21686779.619  
     -1560.102       -1215.676          45.000          44.000  
 110639386.137 7  86212566.904 7  21053976.339                    21053990.223  
     -1601.492       -1247.965          43.000          42.000  
 109124783.555 7  85032366.948 7  20765757.153                    20765773.293  
       331.590         258.465          46.000          43.000  
 117808458.901 7  91798884.954 6  22418205.206                    22418224.787  
      3114.578        2426.727          43.000          41.000  
 127454078.193 6  99314943.947 6  24253706.942                    24253724.181  
     -3148.668       -2453.664          41.000          38.000  
 24  1 10  3 15  6.1000000  0  6G24G18G23G10G32G15
 129698494.451 6 101063853.690 6  24680802.944                    24680824.810  
       548.223         426.914          38.000          39.000  
 113964865.498 7  88803856.205 7  21686794.005                    21686809.310  
     -1560.106       -1215.836          45.000          44.000  
 110639546.286 7  86212691.705 7  21054006.815                    21054020.701  
     -1601.414       -1247.922          43.000          42.000  
 109124750.404 7  85032341.135 7  20765750.844                    20765766.989  
       331.555         258.301          46.000          43.000  
 117808147.445 7  91798642.265 6  22418145.938                    22418165.520  
      3114.449        2426.887          43.000          41.000  
 127454393.080 7  99315189.307 6  24253766.863                    24253784.100  
     -3148.785       -2453.441          42.000          38.000  
 24  1 10  3 15  6.2000000  0  6G24G18G23G10G32G15
 129698439.682 6 101063810.988 6  24680792.490                    24680814.273  
       548.023         426.988          38.000          39.000  
 113965021.518 7  88803977.758 7  21686823.679                    21686838.892  
     -1560.203       -1215.586          45.000          44.000  
 110639706.426 7  86212816.486 7  21054037.257                    21054050.884  
     -1601.531       -1248.078          43.000          42.000  
 109124717.253 7  85032315.279 7  20765744.497                    20765761.456  
       331.434         258.332          45.000          43.000  
 117807835.991 7  91798399.584 6  22418086.592                    22418105.708  
      3114.559        2426.887          43.000          41.000  
 127454707.997 7  99315434.696 6  24253827.391                    24253843.269  
     -3148.930       -2453.672          42.000          37.000  
 24  1 10  3 15  6.3000000  0  6G24G18G23G10G32G15
 129698384.906 6 101063768.289 6  24680782.067                    24680803.845  
       547.750         426.840          38.000          39.000  
 113965177.556 7  88804099.363 7  21686853.372                    21686868.590  
     -1560.340       -1216.184          45.000          44.000  
 110639866.624 7  86212941.341 7  21054067.742                    21054081.375  
     -1601.574       -1248.258          43.000          42.000  
 109124684.102 7  85032289.461 7  20765738.189                    20765755.151  
       331.590         258.262          45.000          43.000  
 117807524.566 7  91798156.900 6  22418027.330                    22418046.442  
      3114.477        2426.867          43.000          41.000  
 127455022.921 7  99315680.126 6  24253887.319                    24253903.206  
     -3149.137       -2454.168          42.000          37.000  
 24  1 10  3 15  6.4000000  0  6G24G18G23G10G32G15
 129698330.240 6 101063725.701 6  24680771.320                    24680793.546  
       546.980         425.996          38.000          39.000  
 113965333.648 7  88804221.021 7  21686883.568                    21686898.026  
     -1560.953       -1216.551          45.000          44.000  
 110640026.842 7  86213066.168 7  21054097.941                    21054111.648  
     -1602.215       -1248.500          42.000          42.000  
 109124650.999 7  85032263.669 7  20765731.835                    20765748.555  
       331.059         257.879          45.000          43.000  
 117807213.159 7  91797914.277 6  22417968.102                    22417987.238  
      3114.066        2426.305          43.000          41.000  
 127455337.957 7  99315925.597 6  24253947.307                    24253962.144  
     -3150.324       -2454.805          42.000          36.000  
 24  1 10  3 15  6.5000000  0  6G24G18G23G10G32G15
 129698275.547 6 101063683.138 6  24680760.913                    24680783.152  
       546.793         425.688          37.000          39.000  
 113965489.776 7  88804342.677 7  21686913.278                    21686927.736  
     -1561.262       -1216.520          46.000          44.000  
 110640187.113 6  86213191.062 7  21054128.440                    21054142.149  
     -1602.914       -1248.758          41.000          42.000  
 109124617.927 7  85032237.898 7  20765725.541                    20765742.262  
       330.695         257.680          45.000          43.000  
 117806901.745 7  91797671.584 6  22417908.842                    22417927.969  
      3113.980        2426.609          43.000          41.000  
 127455652.959 6  99316171.067 5  24254007.250                    24254022.091  
     -3150.176       -2454.676          41.000          35.000  
 24  1 10  3 15  6.6000000  0  6G24G18G23G10G32G15
 129698220.888 6 101063640.525 6  24680749.894                    24680772.636  
       546.809         426.059          36.000          38.000  
 113965645.893 7  88804464.331 7  21686942.783                    21686957.437  
     -1561.066       -1216.598          46.000          44.000  
 110640347.427 6  86213315.924 7  21054158.462                    21054172.626  
     -1602.793       -1248.805          41.000          42.000  
 109124584.891 7  85032212.144 7  20765718.973                    20765735.668  
       330.555         257.492          45.000          43.000  
 117806590.377 7  91797428.964 6  22417849.708                    22417869.274  
      3113.727        2426.254          43.000          41.000  
 127455967.937 7  99316416.592 5  24254066.860                    24254081.206  
     -3149.797       -2454.902          42.000          35.000  
 24  1 10  3 15  6.7000000  0  6G24G18G23G10G32G15
 129698166.138 6 101063597.888 6  24680739.475                    24680762.224  
       547.207         426.273          36.000          38.000  
 113965801.998 7  88804585.996 7  21686972.489                    21686987.149  
     -1561.066       -1216.543          45.000          44.000  
 110640507.692 6  86213440.783 7  21054188.960                    21054203.117  
     -1602.801       -1248.742          41.000          43.000  
 109124551.873 7  85032186.427 7  20765712.690                    20765729.387  
       330.414         257.113          46.000          43.000  
 117806279.069 7  91797186.383 6  22417790.468                    22417810.033  
      3113.430        2425.793          43.000          41.000  
 127456282.891 7  99316662.025 5  24254126.794                    24254141.144  
     -3149.637       -2454.285          43.000          35.000  
 24  1 10  3 15  6.8000000  0  6G24G18G23G10G32G15
 129698111.359 6 101063555.213 6  24680729.208                    24680751.216  
       547.543         426.332          36.000          38.000  
 113965958.125 7  88804707.639 7  21687001.886                    21687016.848  
     -1561.176       -1216.551          45.000          44.000  
 110640667.948 6  86213565.674 7  21054219.604                    21054234.227  
     -1602.559       -1248.734          41.000          43.000  
 109124518.864 7  85032160.711 7  20765706.487                    20765722.607  
       330.133         257.176          46.000          43.000  
 117805967.798 7  91796943.823 6  22417731.056                    22417750.977  
      3113.082        2425.527          42.000          41.000  
 127456597.861 7  99316907.464 5  24254186.840                    24254201.450  
     -3149.605       -2453.988          43.000          35.000  
 24  1 10  3 15  6.9000000  0  6G24G18G23G10G32G15
 129698056.629 6 101063512.614 6  24680718.793                    24680740.813  
       547.469         426.355          36.000          38.000  
 113966114.242 7  88804829.277 7  21687031.594                    21687046.553  
     -1561.168       -1216.312          45.000          44.000  
 110640828.172 7  86213690.532 7  21054250.093                    21054264.718  
     -1602.402       -1248.547          42.000          44.000  
 109124485.852 7  85032134.985 7  20765700.205                    20765716.325  
       330.242         257.332          46.000          43.000  
 117805656.468 7  91796701.223 6  22417671.811                    22417691.732  
      3113.016        2425.723          42.000          41.000  
 127456912.803 7  99317152.804 6  24254246.772                    24254261.364  
     -3149.629       -2453.922          44.000          36.000  
 24  1 10  3 15  7.0000000  0  6G24G18G23G10G32G15
 129698001.915 6 101063469.962 6  24680708.959                    24680730.303  
       547.152         426.340          36.000          38.000  
 113966270.370 7  88804950.924 7  21687060.976                    21687076.417  
     -1561.148       -1216.508          44.000          44.000  
 110640988.415 7  86213815.396 7  21054281.196                    21054295.524  
     -1602.332       -1248.570          43.000          44.000  
 109124452.835 7  85032109.256 7  20765694.102                    20765709.854  
       330.301         257.363          46.000          42.000  
 117805345.200 7  91796458.702 6  22417612.454                    22417632.318  
      3112.910        2425.473          42.000          40.000  
 127457227.777 7  99317398.258 6  24254306.912                    24254322.627  
     -3149.574       -2454.117          44.000          37.000  
 24  1 10  3 15  7.1000000  0  6G24G18G23G10G32G15
 129697947.284 6 101063427.367 6  24680698.563                    24680719.901  
       546.801         426.172          37.000          38.000  
 113966426.502 7  88805072.592 7  21687090.687                    21687106.129  
     -1561.266       -1216.594          44.000          44.000  
 110641148.660 7  86213940.246 7  21054311.690                    21054326.013  
     -1602.320       -1248.559          43.000          44.000  
 109124419.813 7  85032083.533 7  20765687.818                    20765703.572  
       330.242         257.215          46.000          42.000  
 117805033.951 7  91796216.143 6  22417553.225                    22417573.083  
      3112.730        2425.352          42.000          40.000  
 127457542.732 7  99317643.678 6  24254366.846                    24254382.561  
     -3149.547       -2454.184          44.000          37.000  
 24  1 10  3 15  7.2000000  0  6G24G18G23G10G32G15
 129697892.583 6 101063384.731 6  24680688.099                    24680709.575  
       546.812         426.172          37.000          38.000  
 113966582.638 7  88805194.230 7  21687120.305                    21687136.045  
     -1561.312       -1216.543          44.000          45.000  
 110641308.888 7  86214065.119 7  21054342.602                    21054356.837  
     -1602.273       -1248.527          43.000          44.000  
 109124386.809 7  85032057.813 7  20765681.545                    20765697.330  
       330.156         257.344          46.000          42.000  
 117804722.695 6  91795973.642 6  22417493.925                    22417513.658  
      3112.648        2425.391          41.000          40.000  
 127457857.702 7  99317889.110 6  24254426.736                    24254443.178  
     -3149.742       -2454.445          44.000          37.000  
 24  1 10  3 15  7.3000000  0  6G24G18G23G10G32G15
 129697837.905 6 101063342.142 6  24680677.695                    24680699.174  
       546.758         426.238          37.000          37.000  
 113966738.755 7  88805315.907 7  21687150.013                    21687165.760  
     -1561.195       -1216.703          45.000          44.000  
 110641469.128 7  86214189.976 7  21054373.095                    21054387.328  
     -1602.293       -1248.500          43.000          44.000  
 109124353.797 7  85032032.076 7  20765675.263                    20765691.045  
       330.125         257.148          46.000          42.000  
 117804411.463 6  91795731.110 6  22417434.699                    22417454.430  
      3112.457        2425.312          41.000          40.000  
 127458172.646 7  99318134.524 6  24254486.668                    24254503.110  
     -3149.574       -2454.199          44.000          37.000  
 24  1 10  3 15  7.4000000  0  6G24G18G23G10G32G15
 129697783.256 6 101063299.511 6  24680667.256                    24680688.685  
       546.703         426.062          37.000          37.000  
 113966894.927 7  88805437.602 7  21687179.998                    21687195.417  
     -1561.707       -1216.812          45.000          44.000  
 110641629.399 7  86214314.843 7  21054403.468                    21054417.923  
     -1602.988       -1248.934          43.000          44.000  
 109124320.851 7  85032006.398 7  20765668.994                    20765684.915  
       329.535         256.930          46.000          42.000  
 117804100.274 7  91795488.631 6  22417375.443                    22417395.386  
      3111.973        2424.762          42.000          41.000  
 127458487.661 7  99318380.024 6  24254546.489                    24254562.353  
     -3149.945       -2454.781          44.000          37.000  
 24  1 10  3 15  7.5000000  0  6G24G18G23G10G32G15
 129697728.625 6 101063256.993 6  24680656.860                    24680678.302  
       546.305         425.496          37.000          37.000  
 113967051.121 7  88805559.289 7  21687209.720                    21687225.134  
     -1562.172       -1217.074          45.000          44.000  
 110641789.710 7  86214439.790 7  21054433.974                    21054448.437  
     -1603.070       -1249.320          43.000          44.000  
 109124287.939 7  85031980.763 7  20765662.731                    20765678.654  
       329.078         256.227          46.000          42.000  
 117803789.105 7  91795246.145 6  22417316.230                    22417336.168  
      3111.652        2424.621          42.000          41.000  
 127458802.666 7  99318625.480 6  24254606.432                    24254622.296  
     -3150.016       -2454.672          44.000          37.000  
 24  1 10  3 15  7.6000000  0  6G24G18G23G10G32G15
 129697673.977 6 101063214.365 6  24680646.211                    24680668.212  
       546.531         426.195          38.000          37.000  
 113967207.309 7  88805681.009 7  21687239.575                    21687254.781  
     -1561.828       -1217.141          45.000          44.000  
 110641950.020 7  86214564.704 7  21054464.308                    21054478.801  
     -1603.047       -1249.324          43.000          44.000  
 109124255.056 7  85031955.159 7  20765656.434                    20765672.363  
       329.039         256.207          46.000          42.000  
 117803477.950 7  91795003.699 6  22417256.964                    22417276.952  
      3111.707        2424.395          42.000          41.000  
 127459117.675 7  99318870.934 6  24254665.853                    24254682.387  
     -3150.098       -2454.637          44.000          37.000  
 24  1 10  3 15  7.7000000  0  6G24G18G23G10G32G15
 129697619.315 6 101063171.782 6  24680635.809                    24680657.813  
       546.547         425.977          38.000          38.000  
 113967363.537 7  88805802.741 7  21687269.304                    21687284.510  
     -1562.145       -1217.320          45.000          45.000  
 110642110.375 7  86214689.646 7  21054494.823                    21054509.314  
     -1603.258       -1249.441          44.000          44.000  
 109124222.202 7  85031929.548 7  20765650.182                    20765666.108  
       328.770         256.008          46.000          42.000  
 117803166.823 7  91794761.262 6  22417197.759                    22417217.747  
      3111.383        2424.555          42.000          41.000  
 127459432.725 7  99319116.415 6  24254725.805                    24254742.336  
     -3150.238       -2454.656          43.000          38.000  
 24  1 10  3 15  7.8000000  0  6G24G18G23G10G32G15
 129697564.664 6 101063129.152 6  24680625.394                    24680647.551  
       546.570         426.141          38.000          38.000  
 113967519.764 7  88805924.457 7  21687299.134                    21687314.538  
     -1562.164       -1217.191          45.000          44.000  
 110642270.694 7  86214814.612 7  21054525.135                    21054539.605  
     -1603.250       -1249.586          44.000          44.000  
 109124189.349 7  85031903.942 7  20765643.970                    20765659.339  
       328.590         255.891          46.000          42.000  
 117802855.725 6  91794518.852 6  22417138.277                    22417158.259  
      3111.270        2424.195          41.000          40.000  
 127459747.721 7  99319361.886 6  24254785.786                    24254802.985  
     -3150.082       -2454.582          43.000          39.000  
 24  1 10  3 15  7.9000000  0  6G24G18G23G10G32G15
 129697510.008 6 101063086.611 6  24680614.993                    24680637.162  
       546.582         425.637          38.000          38.000  
 113967676.000 7  88806046.209 7  21687328.865                    21687344.272  
     -1562.234       -1217.469          45.000          44.000  
 110642431.045 7  86214939.556 7  21054555.649                    21054570.117  
     -1603.473       -1249.606          44.000          44.000  
 109124156.541 7  85031878.382 7  20765637.727                    20765653.097  
       328.375         255.660          46.000          42.000  
 117802544.605 6  91794276.440 6  22417079.073                    22417099.059  
      3111.168        2424.203          41.000          40.000  
 127460062.754 7  99319607.345 6  24254845.734                    24254862.929  
     -3150.281       -2454.707          43.000          39.000  
 24  1 10  3 15  8.0000000  0  6G24G18G23G10G32G15
 129697455.387 6 101063044.011 6  24680604.607                    24680626.571  
       546.367         425.887          38.000          38.000  
 113967832.223 7  88806167.940 7  21687358.797                    21687373.812  
     -1562.223       -1217.418          45.000          44.000  
 110642591.425 7  86215064.543 7  21054586.051                    21054600.977  
     -1603.559       -1249.711          44.000          44.000  
 109124123.735 7  85031852.811 7  20765631.156                    20765647.423  
       328.172         255.809          45.000          42.000  
 117802233.502 7  91794034.019 6  22417019.942                    22417039.498  
      3111.020        2424.273          42.000          40.000  
 127460377.766 7  99319852.799 6  24254905.593                    24254923.801  
     -3150.180       -2454.758          43.000          40.000  
 24  1 10  3 15  8.1000000  0  6G24G18G23G10G32G15
 129697400.774 6 101063001.443 6  24680594.215                    24680616.175  
       546.203         425.742          37.000          38.000  
 113967988.452 7  88806289.687 7  21687388.526                    21687403.544  
     -1562.277       -1217.281          45.000          44.000  
 110642751.800 7  86215189.518 7  21054616.570                    21054631.497  
     -1603.695       -1249.785          44.000          44.000  
 109124090.947 7  85031827.233 7  20765624.916                    20765641.176  
       328.105         255.582          45.000          42.000  
 117801922.418 7  91793791.603 6  22416960.745                    22416980.298  
      3110.973        2423.965          42.000          40.000  
 127460692.794 7  99320098.279 6  24254965.541                    24254983.750  
     -3150.203       -2454.668          43.000          41.000  
 24  1 10  3 15  8.2000000  0  6G24G18G23G10G32G15
 129697346.176 6 101062958.882 6  24680583.520                    24680606.336  
       546.164         425.496          38.000          38.000  
 113968144.658 7  88806411.380 7  21687417.821                    21687432.950  
     -1562.238       -1217.109          45.000          44.000  
 110642912.202 7  86215314.507 7  21054647.077                    21054662.028  
     -1603.832       -1249.883          43.000          44.000  
 109124058.152 7  85031801.708 7  20765618.652                    20765635.091  
       327.922         255.480          45.000          42.000  
 117801611.323 7  91793549.190 6  22416901.796                    22416921.371  
      3111.047        2424.316          42.000          40.000  
 127461007.827 7  99320343.783 6  24255025.396                    24255044.228  
     -3150.297       -2455.031          43.000          41.000  
 24  1 10  3 15  8.3000000  0  6G24G18G23G10G32G15
 129697291.555 6 101062916.337 6  24680573.126                    24680595.946  
       546.238         425.594          39.000          38.000  
 113968300.887 7  88806533.104 7  21687447.551                    21687462.676  
     -1562.148       -1217.098          45.000          44.000  
 110643072.581 7  86215439.476 7  21054677.596                    21054692.547  
     -1603.734       -1249.570          43.000          44.000  
 109124025.355 7  85031776.126 7  20765612.411                    20765628.844  
       327.945         255.676          45.000          42.000  
 117801300.195 7  91793306.756 6  22416842.590                    22416862.167  
      3111.141        2424.332          42.000          41.000  
 127461322.900 7  99320589.301 6  24255085.352                    24255104.186  
     -3150.406       -2454.945          43.000          41.000  
 24  1 10  3 15  8.4000000  0  6G24G10G18G23G32G15
 129697236.943 6 101062873.773 6  24680562.898                    24680585.349  
       546.098         425.430          39.000          38.000  
 109123992.565 7  85031750.600 7  20765606.203                    20765622.610  
       328.051         255.516          45.000          42.000  
 113968457.084 7  88806654.831 7  21687477.274                    21687492.505  
     -1562.016       -1217.297          45.000          44.000  
 110643232.955 7  86215564.424 7  21054708.005                    21054722.896  
     -1603.820       -1249.602          43.000          43.000  
 117800989.073 7  91793064.312 6  22416783.807                    22416802.975  
      3111.168        2424.484          42.000          41.000  
 127461637.995 7  99320834.789 6  24255145.391                    24255164.097  
     -3150.781       -2454.973          43.000          41.000  
 24  1 10  3 15  8.5000000  0  6G24G10G18G23G32G15
 129697182.356 6 101062831.230 6  24680552.510                    24680574.959  
       545.969         425.242          39.000          38.000  
 109123959.799 7  85031725.063 7  20765599.968                    20765616.374  
       327.820         255.340          44.000          43.000  
 113968613.331 7  88806776.590 7  21687507.007                    21687522.240  
     -1562.297       -1217.531          45.000          44.000  
 110643393.402 7  86215689.440 7  21054738.537                    21054753.426  
     -1604.129       -1250.070          44.000          43.000  
 117800677.977 7  91792821.918 6  22416724.608                    22416743.780  
      3111.184        2424.125          43.000          41.000  
 127461953.182 7  99321080.389 6  24255205.369                    24255224.075  
     -3151.273       -2455.871          43.000          41.000  
 24  1 10  3 15  8.6000000  0  6G24G10G18G23G32G15
 129697127.874 6 101062788.799 6  24680542.299                    24680564.191  
       545.023         424.551          39.000          38.000  
 109123927.070 7  85031699.553 7  20765593.693                    20765610.183  
       327.254         255.074          44.000          43.000  
 113968769.641 7  88806898.396 7  21687536.705                    21687551.736  
     -1563.098       -1218.180          44.000          44.000  
 110643553.894 7  86215814.479 7  21054769.508                    21054783.486  
     -1605.109       -1250.672          44.000          42.000  
 117800366.902 7  91792579.530 6  22416665.186                    22416685.321  
      3110.574        2423.789          43.000          41.000  
 127462268.385 7  99321325.981 6  24255265.343                    24255283.497  
     -3152.184       -2456.113          42.000          40.000  
 24  1 10  3 15  8.7000000  0  6G24G10G18G23G32G15
 129697073.414 6 101062746.330 6  24680531.936                    24680553.819  
       544.566         424.773          39.000          38.000  
 109123894.376 7  85031674.081 7  20765587.471                    20765603.963  
       326.895         254.695          44.000          43.000  
 113968925.991 7  88807020.238 7  21687566.457                    21687581.491  
     -1563.637       -1218.438          44.000          45.000  
 110643714.405 7  86215939.569 7  21054800.052                    21054814.034  
     -1605.195       -1250.836          45.000          42.000  
 117800055.845 7  91792337.140 6  22416605.994                    22416626.127  
      3110.660        2423.797          43.000          41.000  
 127462583.594 7  99321571.626 6  24255325.325                    24255343.486  
     -3152.195       -2456.422          42.000          40.000  
 24  1 10  3 15  8.8000000  0  6G24G10G18G23G32G15
 129697018.952 6 101062703.896 6  24680521.626                    24680543.496  
       544.812         424.180          39.000          38.000  
 109123861.715 7  85031648.639 7  20765581.498                    20765597.906  
       326.773         254.367          44.000          43.000  
 113969082.374 7  88807142.070 7  21687596.302                    21687611.626  
     -1563.559       -1218.559          44.000          45.000  
 110643874.939 7  86216064.676 7  21054830.679                    21054843.852  
     -1605.242       -1251.137          45.000          42.000  
 117799744.778 7  91792094.761 6  22416546.479                    22416567.357  
      3110.738        2423.793          43.000          41.000  
 127462898.824 7  99321817.254 6  24255385.249                    24255403.518  
     -3152.164       -2456.254          42.000          40.000  
 24  1 10  3 15  8.9000000  0  6G24G10G18G23G32G15
 129696964.514 6 101062661.473 6  24680511.267                    24680533.135  
       544.645         424.234          39.000          37.000  
 109123828.998 7  85031623.143 7  20765575.272                    20765591.679  
       326.961         254.699          44.000          43.000  
 113969238.697 7  88807263.885 7  21687626.049                    21687641.375  
     -1563.465       -1218.172          44.000          45.000  
 110644035.465 7  86216189.749 7  21054861.226                    21054874.396  
     -1605.219       -1250.668          45.000          42.000  
 117799433.659 7  91791852.308 6  22416487.275                    22416508.147  
      3110.906        2424.293          43.000          41.000  
 127463214.077 6  99322062.936 6  24255445.239                    24255463.515  
     -3152.281       -2456.586          41.000          41.000  
 24  1 10  3 15  9.0000000  0  6G24G10G18G23G32G15
 129696910.057 6 101062619.070 6  24680501.068                    24680522.257  
       544.578         424.051          39.000          37.000  
 109123796.280 7  85031597.656 7  20765568.851                    20765585.447  
       327.188         255.121          44.000          43.000  
 113969395.012 7  88807385.700 7  21687655.584                    21687671.233  
     -1563.078       -1218.055          44.000          45.000  
 110644195.990 7  86216314.806 7  21054891.859                    21054904.780  
     -1605.109       -1250.477          45.000          42.000  
 117799122.567 7  91791609.915 6  22416428.467                    22416448.836  
      3110.945        2424.027          43.000          41.000  
 127463529.344 6  99322308.567 6  24255505.272                    24255523.993  
     -3152.578       -2456.473          41.000          41.000  
 24  1 10  3 15  9.1000000  0  6G24G10G18G23G32G15
 129696855.651 6 101062576.682 6  24680490.715                    24680511.905  
       544.246         423.875          39.000          37.000  
 109123763.553 7  85031572.128 7  20765562.623                    20765579.213  
       327.297         255.086          44.000          43.000  
 113969551.339 7  88807507.530 7  21687685.332                    21687700.985  
     -1563.199       -1218.188          44.000          45.000  
 110644356.498 7  86216439.863 6  21054922.402                    21054935.320  
     -1605.043       -1250.633          45.000          41.000  
 117798811.480 7  91791367.518 6  22416369.269                    22416389.640  
      3111.051        2424.188          43.000          41.000  
 127463844.617 6  99322554.264 6  24255565.266                    24255583.995  
     -3152.652       -2456.816          40.000          41.000  
 24  1 10  3 15  9.2000000  0  6G24G10G18G23G32G15
 129696801.281 6 101062534.260 6  24680480.189                    24680501.076  
       543.941         424.090          39.000          38.000  
 109123730.794 7  85031546.603 7  20765556.421                    20765572.808  
       327.504         255.402          44.000          43.000  
 113969707.701 7  88807629.353 7  21687714.922                    21687730.571  
     -1563.438       -1218.277          45.000          45.000  
 110644516.976 7  86216564.923 6  21054952.995                    21054966.322  
     -1604.906       -1250.547          44.000          41.000  
 117798500.397 7  91791125.099 6  22416310.127                    22416330.118  
      3111.027        2424.352          43.000          41.000  
 127464159.914 6  99322799.934 6  24255625.070                    24255643.795  
     -3152.664       -2456.734          40.000          41.000  
 24  1 10  3 15  9.3000000  0  6G24G10G18G23G32G15
 129696746.920 6 101062491.891 6  24680469.845                    24680490.729  
       543.766         423.812          39.000          38.000  
 109123698.051 7  85031521.085 7  20765550.190                    20765566.576  
       327.508         255.312          44.000          43.000  
 113969864.082 7  88807751.139 7  21687744.681                    21687760.312  
     -1563.680       -1218.141          45.000          44.000  
 110644677.406 7  86216690.002 6  21054983.523                    21054996.868  
     -1604.559       -1250.684          43.000          41.000  
 117798189.283 7  91790882.642 6  22416250.924                    22416270.908  
      3110.891        2424.121          42.000          41.000  
 127464475.223 6  99323045.627 6  24255685.071                    24255703.796  
     -3152.875       -2456.613          41.000          40.000  
 24  1 10  3 15  9.4000000  0  6G24G10G18G23G32G15
 129696692.547 6 101062449.554 6  24680459.295                    24680480.484  
       543.738         423.395          39.000          39.000  
 109123665.344 7  85031495.618 7  20765544.044                    20765560.240  
       327.262         254.758          44.000          43.000  
 113970020.454 7  88807873.024 7  21687775.250                    21687790.211  
     -1563.602       -1218.621          46.000          44.000  
 110644837.945 7  86216815.104 7  21055013.487                    21055027.528  
     -1604.969       -1250.906          44.000          42.000  
 117797878.252 7  91790640.294 6  22416191.635                    22416211.341  
      3110.582        2423.656          42.000          40.000  
 127464790.523 6  99323291.249 6  24255744.688                    24255763.709  
     -3152.984       -2456.652          41.000          40.000  
 24  1 10  3 15  9.5000000  0  6G24G10G18G23G32G15
 129696638.182 6 101062407.174 6  24680448.949                    24680470.134  
       543.777         423.746          39.000          40.000  
 109123632.667 7  85031470.151 7  20765537.826                    20765554.020  
       326.898         254.633          44.000          43.000  
 113970176.808 7  88807994.880 7  21687805.003                    21687819.969  
     -1563.582       -1218.500          45.000          44.000  
 110644998.512 7  86216940.169 7  21055044.042                    21055058.070  
     -1605.488       -1250.727          44.000          42.000  
 117797567.230 7  91790397.934 6  22416132.449                    22416152.154  
      3110.320        2423.395          42.000          40.000  
 127465105.811 6  99323536.895 6  24255804.685                    24255823.698  
     -3152.957       -2456.473          41.000          39.000  
 24  1 10  3 15  9.6000000  0  6G24G10G18G23G32G15
 129696583.796 6 101062364.814 6  24680438.467                    24680460.587  
       543.781         423.590          39.000          40.000  
 109123599.994 7  85031444.705 7  20765531.663                    20765548.259  
       326.840         254.461          43.000          43.000  
 113970333.193 7  88808116.748 7  21687834.489                    21687849.926  
     -1563.727       -1218.633          45.000          44.000  
 110645159.076 7  86217065.250 6  21055074.956                    21055088.710  
     -1605.598       -1250.820          45.000          41.000  
 117797256.249 7  91790155.624 6  22416073.139                    22416092.800  
      3110.078        2423.172          42.000          41.000  
 127465421.101 6  99323782.575 6  24255864.870                    24255883.289  
     -3152.906       -2456.871          41.000          39.000  
 24  1 10  3 15  9.7000000  0  6G24G10G18G23G32G15
 129696529.490 6 101062322.482 6  24680428.133                    24680450.249  
       543.453         423.352          39.000          41.000  
 109123567.387 7  85031419.299 7  20765525.458                    20765542.055  
       326.387         254.008          43.000          43.000  
 113970489.620 7  88808238.640 7  21687864.256                    21687879.693  
     -1564.191       -1219.027          45.000          44.000  
 110645319.644 7  86217190.347 6  21055105.511                    21055119.260  
     -1605.746       -1251.375          45.000          41.000  
 117796945.280 7  91789913.307 6  22416013.963                    22416033.624  
      3109.723        2423.023          42.000          41.000  
 127465736.446 7  99324028.277 6  24255924.879                    24255943.292  
     -3153.062       -2456.820          42.000          39.000  
 24  1 10  3 15  9.8000000  0  6G24G10G18G23G32G15
 129696475.104 6 101062280.136 6  24680418.011                    24680440.712  
       543.582         423.375          39.000          41.000  
 109123534.790 7  85031393.892 7  20765519.451                    20765535.288  
       326.145         253.949          43.000          43.000  
 113970646.063 7  88808360.530 7  21687894.073                    21687909.601  
     -1564.336       -1219.078          45.000          44.000  
 110645480.240 7  86217315.516 6  21055136.524                    21055149.672  
     -1605.820       -1251.383          44.000          41.000  
 117796634.367 7  91789671.052 6  22415954.892                    22415974.298  
      3109.453        2422.777          42.000          41.000  
 127466051.753 7  99324273.967 6  24255985.130                    24256003.199  
     -3153.172       -2456.957          42.000          38.000  
 24  1 10  3 15  9.9000000  0  6G24G10G18G23G32G15
 129696420.771 6 101062237.811 6  24680407.671                    24680430.376  
       543.520         423.387          40.000          41.000  
 109123502.224 7  85031368.519 7  20765513.253                    20765529.091  
       325.855         253.836          43.000          43.000  
 113970802.521 7  88808482.463 7  21687923.846                    21687939.378  
     -1564.500       -1219.262          45.000          44.000  
 110645640.847 7  86217440.651 6  21055167.087                    21055180.231  
     -1605.981       -1251.652          44.000          41.000  
 117796323.472 7  91789428.786 6  22415895.731                    22415915.135  
      3109.270        2422.562          42.000          41.000  
 127466367.077 7  99324519.684 6  24256045.134                    24256063.205  
     -3153.141       -2457.203          42.000          38.000  
 24  1 10  3 15 10.0000000  0  6G24G10G18G23G32G15
 129696366.440 6 101062195.459 6  24680397.669                    24680420.127  
       543.363         423.316          40.000          41.000  
 109123469.724 7  85031343.189 7  20765506.499                    20765522.788  
       325.473         253.324          44.000          43.000  
 113970959.049 7  88808604.425 7  21687953.773                    21687968.819  
     -1564.754       -1219.434          45.000          44.000  
 110645801.514 7  86217565.870 6  21055197.020                    21055210.615  
     -1606.266       -1251.809          43.000          41.000  
 117796012.576 7  91789186.538 6  22415836.624                    22415856.131  
      3108.934        2422.387          43.000          41.000  
 127466682.437 7  99324765.428 6  24256105.207                    24256122.804  
     -3153.359       -2457.367          42.000          38.000  
 24  1 10  3 15 10.1000000  0  6G24G10G18G23G32G15
 129696312.182 6 101062153.193 6  24680387.343                    24680409.805  
       542.938         422.863          40.000          41.000  
 109123437.246 7  85031317.871 7  20765500.318                    20765516.605  
       324.961         252.934          44.000          43.000  
 113971115.611 7  88808726.424 7  21687983.565                    21687998.612  
     -1565.285       -1219.945          45.000          44.000  
 110645962.226 7  86217691.095 7  21055227.603                    21055241.196  
     -1606.867       -1252.570          43.000          42.000  
 117795701.776 7  91788944.346 6  22415777.481                    22415796.986  
      3108.508        2422.070          43.000          40.000  
 127466997.835 7  99325011.269 6  24256165.226                    24256182.841  
     -3153.633       -2458.152          42.000          37.000  
 24  1 10  3 15 10.2000000  0  6G24G10G18G23G32G15
 129696257.911 6 101062110.901 6  24680377.032                    24680399.360  
       542.883         422.836          40.000          41.000  
 109123404.784 7  85031292.584 7  20765494.336                    20765510.719  
       324.805         253.059          44.000          43.000  
 113971272.150 7  88808848.398 7  21688013.307                    21688028.282  
     -1565.356       -1219.961          45.000          44.000  
 110646122.921 7  86217816.306 7  21055257.901                    21055272.142  
     -1606.887       -1252.258          43.000          42.000  
 117795390.893 7  91788702.116 6  22415718.533                    22415738.081  
      3108.500        2422.121          43.000          40.000  
 127467313.198 7  99325257.007 6  24256225.190                    24256242.314  
     -3153.828       -2457.645          42.000          37.000  
 24  1 10  3 15 10.3000000  0  6G24G10G18G23G32G15
 129696203.701 6 101062068.637 6  24680366.716                    24680389.038  
       542.422         422.605          40.000          41.000  
 109123372.314 7  85031267.269 7  20765488.157                    20765504.537  
       324.797         252.992          45.000          43.000  
 113971428.738 7  88808970.440 7  21688043.105                    21688058.086  
     -1565.590       -1220.070          45.000          44.000  
 110646283.677 7  86217941.576 7  21055288.491                    21055302.734  
     -1607.164       -1252.320          43.000          42.000  
 117795080.094 7  91788459.949 6  22415659.390                    22415678.941  
      3108.516        2422.023          43.000          40.000  
 127467628.650 7  99325502.766 6  24256285.219                    24256302.331  
     -3154.051       -2457.488          42.000          37.000  
 24  1 10  3 15 10.4000000  0  6G24G10G18G23G32G15
 129696149.513 6 101062026.421 6  24680356.326                    24680378.768  
       541.793         422.152          40.000          41.000  
 109123339.895 7  85031242.025 7  20765482.199                    20765498.302  
       324.109         252.566          45.000          42.000  
 113971585.372 7  88809092.483 7  21688073.013                    21688088.281  
     -1566.531       -1220.609          45.000          44.000  
 110646444.454 7  86218066.868 7  21055319.118                    21055333.823  
     -1607.613       -1252.934          44.000          42.000  
 117794769.318 7  91788217.785 6  22415600.181                    22415619.685  
      3107.746        2421.703          43.000          40.000  
 127467944.097 6  99325748.577 6  24256345.223                    24256362.118  
     -3154.621       -2458.215          41.000          38.000  
 24  1 10  3 15 10.5000000  0  6G24G10G18G23G32G15
 129696095.397 6 101061984.226 6  24680346.028                    24680368.463  
       541.410         421.816          40.000          41.000  
 109123307.525 7  85031216.793 7  20765476.039                    20765492.140  
       323.688         252.066          45.000          42.000  
 113971742.112 7  88809214.586 7  21688102.839                    21688118.100  
     -1567.402       -1221.156          45.000          44.000  
 110646605.278 7  86218192.166 7  21055349.721                    21055364.422  
     -1608.469       -1253.465          44.000          42.000  
 117794458.556 7  91787975.612 6  22415541.045                    22415560.544  
      3107.227        2421.219          43.000          41.000  
 127468259.655 6  99325994.428 6  24256405.272                    24256422.157  
     -3155.496       -2458.559          41.000          38.000  
 24  1 10  3 15 10.6000000  0  6G24G10G18G23G32G15
 129696041.248 6 101061942.032 6  24680335.654                    24680358.675  
       541.469         421.953          40.000          41.000  
 109123275.157 7  85031191.585 7  20765469.997                    20765486.234  
       323.828         252.207          45.000          42.000  
 113971898.806 7  88809336.700 7  21688132.446                    21688147.843  
     -1566.863       -1221.117          44.000          44.000  
 110646766.095 7  86218317.538 7  21055380.300                    21055394.883  
     -1607.992       -1253.309          44.000          42.000  
 117794147.807 7  91787733.465 6  22415481.833                    22415501.799  
      3107.566        2421.461          42.000          41.000  
 127468575.142 6  99326240.291 6  24256465.057                    24256482.231  
     -3155.016       -2458.691          41.000          38.000  
 24  1 10  3 15 10.7000000  0  6G24G10G18G23G32G15
 129695987.158 6 101061899.859 6  24680325.361                    24680348.376  
       541.316         421.801          40.000          40.000  
 109123242.794 7  85031166.372 7  20765463.839                    20765480.077  
       323.809         252.176          45.000          42.000  
 113972055.557 7  88809458.833 7  21688162.275                    21688177.669  
     -1567.129       -1221.352          45.000          44.000  
 110646926.961 7  86218442.880 7  21055410.912                    21055425.493  
     -1608.438       -1253.621          43.000          42.000  
 117793837.108 7  91787491.378 6  22415422.709                    22415442.679  
      3107.441        2421.312          42.000          41.000  
 127468890.664 7  99326486.165 6  24256525.099                    24256542.276  
     -3155.008       -2458.699          42.000          38.000  
 24  1 10  3 15 10.8000000  0  6G24G10G18G23G32G15
 129695933.063 6 101061857.728 6  24680315.114                    24680338.165  
       541.109         421.375          40.000          40.000  
 109123210.449 7  85031141.179 7  20765457.816                    20765473.752  
       323.574         252.121          45.000          42.000  
 113972212.283 7  88809580.992 7  21688192.232                    21688207.580  
     -1567.266       -1221.590          45.000          44.000  
 110647087.876 7  86218568.229 7  21055441.643                    21055455.527  
     -1608.805       -1253.520          43.000          42.000  
 117793526.375 7  91787249.234 6  22415363.492                    22415383.467  
      3107.219        2421.062          42.000          40.000  
 127469206.164 7  99326732.078 6  24256585.527                    24256602.557  
     -3154.957       -2459.129          43.000          38.000  
 24  1 10  3 15 10.9000000  0  6G24G10G18G23G32G15
 129695879.016 6 101061815.635 6  24680304.829                    24680327.886  
       540.711         420.816          40.000          39.000  
 109123178.094 7  85031115.945 7  20765451.660                    20765467.590  
       323.562         252.086          45.000          43.000  
 113972369.103 7  88809703.186 7  21688222.074                    21688237.421  
     -1567.719       -1221.812          45.000          44.000  
 110647248.754 7  86218693.559 7  21055472.257                    21055486.133  
     -1608.828       -1253.617          43.000          42.000  
 117793215.711 7  91787007.168 6  22415304.375                    22415324.352  
      3106.910        2420.891          42.000          40.000  
 127469521.691 7  99326977.976 6  24256645.570                    24256662.608  
     -3155.145       -2458.840          44.000          38.000  
 24  1 10  3 15 11.0000000  0  6G24G10G18G23G32G15
 129695824.985 6 101061773.631 6  24680294.438                    24680317.440  
       540.496         420.551          40.000          38.000  
 109123145.725 7  85031090.717 7  20765445.195                    20765461.718  
       323.629         252.312          45.000          43.000  
 113972525.899 7  88809825.326 7  21688251.653                    21688267.092  
     -1567.969       -1221.531          45.000          44.000  
 110647409.604 7  86218818.921 7  21055502.623                    21055517.068  
     -1608.613       -1253.352          43.000          42.000  
 117792905.041 7  91786765.101 6  22415245.116                    22415264.987  
      3106.891        2420.867          42.000          40.000  
 127469837.231 7  99327223.880 6  24256705.865                    24256722.925  
     -3155.289       -2459.062          43.000          39.000  
 24  1 10  3 15 11.1000000  0  6G24G10G18G23G32G15
 129695770.970 6 101061731.544 6  24680284.159                    24680307.162  
       540.371         420.613          39.000          38.000  
 109123113.344 7  85031065.477 7  20765439.033                    20765455.554  
       323.793         252.430          45.000          43.000  
 113972682.690 7  88809947.495 7  21688281.489                    21688296.927  
     -1567.820       -1221.688          45.000          44.000  
 110647570.440 7  86218944.278 7  21055533.229                    21055547.682  
     -1608.340       -1253.312          44.000          42.000  
 117792594.347 7  91786522.989 6  22415185.993                    22415205.861  
      3106.918        2420.945          42.000          40.000  
 127470152.750 7  99327469.711 6  24256765.906                    24256782.960  
     -3155.223       -2458.520          43.000          39.000  
 24  1 10  3 15 11.2000000  0  6G24G10G18G23G32G15
 129695716.960 6 101061689.448 6  24680273.881                    24680296.421  
       540.156         421.000          39.000          38.000  
 109123080.968 7  85031040.240 7  20765432.771                    20765449.993  
       323.770         252.371          45.000          43.000  
 113972839.473 7  88810069.695 7  21688311.395                    21688326.606  
     -1567.871       -1222.004          45.000          44.000  
 110647731.281 7  86219069.638 7  21055564.141                    21055578.546  
     -1608.414       -1253.535          44.000          42.000  
 117792283.696 7  91786280.918 6  22415126.683                    22415146.471  
      3106.641        2420.688          42.000          41.000  
 127470468.346 6  99327715.634 6  24256826.165                    24256843.548  
     -3155.570       -2458.957          41.000          40.000  
 24  1 10  3 15 11.3000000  0  6G24G10G18G23G32G15
 129695662.949 6 101061647.345 6  24680263.603                    24680286.139  
       540.160         421.004          39.000          39.000  
 109123048.625 7  85031015.050 7  20765426.616                    20765443.841  
       323.738         252.047          45.000          43.000  
 113972996.307 7  88810191.901 7  21688341.239                    21688356.450  
     -1568.027       -1221.977          45.000          44.000  
 110647892.186 7  86219194.983 7  21055594.760                    21055609.157  
     -1608.785       -1253.652          44.000          42.000  
 117791973.038 7  91786038.852 6  22415067.566                    22415087.356  
      3106.578        2420.703          42.000          41.000  
 127470783.915 6  99327961.503 6  24256886.216                    24256903.592  
     -3155.723       -2458.855          41.000          41.000  
 24  1 10  3 15 11.4000000  0  6G24G10G18G23G32G15
 129695609.019 6 101061605.303 6  24680253.161                    24680276.372  
       539.715         420.406          38.000          39.000  
 109123016.263 7  85030989.841 7  20765420.614                    20765437.708  
       323.508         252.027          45.000          43.000  
 113973153.115 7  88810314.100 7  21688371.266                    21688386.222  
     -1568.156       -1221.910          45.000          44.000  
 110648053.081 7  86219320.345 7  21055625.362                    21055639.638  
     -1608.867       -1253.621          43.000          42.000  
 117791662.422 7  91785796.801 6  22415008.747                    22415028.385  
      3106.281        2420.461          42.000          41.000  
 127471099.496 6  99328207.412 7  24256945.418                    24256964.817  
     -3155.660       -2459.082          39.000          42.000  
 24  1 10  3 15 11.5000000  0  6G24G10G18G23G32G15
 129695555.069 6 101061563.224 6  24680242.895                    24680266.096  
       539.609         420.895          38.000          40.000  
 109122983.935 7  85030964.635 7  20765414.462                    20765431.552  
       323.441         252.117          45.000          43.000  
 113973309.920 7  88810436.274 7  21688401.105                    21688416.058  
     -1568.082       -1221.930          45.000          44.000  
 110648213.959 7  86219445.691 7  21055655.976                    21055670.249  
     -1608.871       -1253.504          43.000          42.000  
 117791351.807 7  91785554.772 6  22414949.639                    22414969.280  
      3106.293        2420.242          42.000          41.000  
 127471415.062 6  99328453.318 7  24257005.468                    24257024.870  
     -3155.688       -2459.039          38.000          42.000  
 24  1 10  3 15 11.6000000  0  6G24G10G18G23G32G15
 129695501.109 6 101061521.180 6  24680232.673                    24680255.875  
       539.691         420.699          38.000          40.000  
 109122951.611 7  85030939.465 7  20765408.382                    20765425.367  
       323.297         251.789          45.000          43.000  
 113973466.754 7  88810558.479 7  21688430.957                    21688446.276  
     -1568.207       -1221.891          45.000          44.000  
 110648374.869 7  86219571.065 7  21055686.354                    21055701.203  
     -1608.969       -1253.766          43.000          42.000  
 117791041.213 7  91785312.743 6  22414890.590                    22414909.978  
      3106.109        2420.398          43.000          41.000  
 127471730.709 6  99328699.229 7  24257065.166                    24257085.197  
     -3156.121       -2459.176          37.000          42.000  
 24  1 10  3 15 11.7000000  0  6G24G10G18G23G32G15
 129695447.126 6 101061479.097 6  24680222.401                    24680245.598  
       539.773         420.707          39.000          40.000  
 109122919.308 7  85030914.297 7  20765402.234                    20765419.220  
       323.199         251.676          45.000          43.000  
 113973623.604 7  88810680.692 7  21688460.805                    21688476.122  
     -1568.363       -1222.184          45.000          44.000  
 110648535.790 7  86219696.455 7  21055716.976                    21055731.824  
     -1609.004       -1253.715          43.000          42.000  
 117790730.642 7  91785070.749 6  22414831.490                    22414850.881  
      3105.988        2419.898          43.000          41.000  
 127472046.299 5  99328945.150 7  24257125.221                    24257145.254  
     -3156.219       -2459.078          35.000          42.000  
 24  1 10  3 15 11.8000000  0  6G24G10G18G23G32G15
 129695393.160 6 101061437.052 6  24680212.209                    24680235.549  
       539.645         420.430          39.000          41.000  
 109122887.047 7  85030889.153 7  20765396.228                    20765412.518  
       322.805         251.371          45.000          43.000  
 113973780.454 7  88810802.910 7  21688490.488                    21688505.727  
     -1568.430       -1222.211          45.000          44.000  
 110648696.701 7  86219821.840 7  21055747.628                    21055762.601  
     -1609.211       -1253.867          43.000          42.000  
 117790420.086 7  91784828.770 6  22414772.088                    22414791.482  
      3105.637        2419.656          43.000          41.000  
 127472362.125 5  99329191.062 6  24257184.828                    24257205.753  
     -3157.324       -2459.148          33.000          41.000  
 24  1 10  3 15 11.9000000  0  6G24G10G18G23G32G15
 129695339.192 6 101061395.008 6  24680201.940                    24680225.281  
       539.730         420.551          39.000          41.000  
 109122854.793 7  85030864.019 7  20765390.090                    20765406.379  
       322.613         251.211          44.000          43.000  
 113973937.298 7  88810925.115 7  21688520.335                    21688535.571  
     -1568.465       -1222.258          45.000          44.000  
 110648857.614 7  86219947.217 7  21055778.249                    21055793.219  
     -1609.125       -1254.027          44.000          42.000  
 117790109.554 7  91784586.777 6  22414712.996                    22414732.385  
      3105.406        2419.949          43.000          40.000  
 127472677.829 5  99329436.986 6  24257244.905                    24257265.810  
     -3156.898       -2459.059          33.000          41.000  
 24  1 10  3 15 12.0000000  0  6G24G10G18G23G32G15
 129695285.241 6 101061352.927 6  24680191.931                    24680215.036  
       539.543         420.523          39.000          40.000  
 109122822.574 7  85030838.907 7  20765383.756                    20765400.208  
       322.445         251.285          44.000          43.000  
 113974094.148 7  88811047.355 7  21688550.073                    21688565.587  
     -1568.457       -1222.305          45.000          44.000  
 110649018.539 7  86220072.656 7  21055809.035                    21055823.946  
     -1609.098       -1254.129          44.000          42.000  
 117789799.048 7  91784344.833 6  22414654.003                    22414672.964  
      3105.281        2419.586          43.000          40.000  
 127472993.339 5  99329682.907 6  24257305.202                    24257325.726  
     -3156.133       -2459.406          35.000          41.000  
 24  1 10  3 15 12.1000000  0  6G24G10G18G23G32G15
 129695231.303 6 101061310.935 6  24680181.667                    24680204.781  
       539.520         420.141          39.000          40.000  
 109122790.365 7  85030813.802 7  20765377.627                    20765394.077  
       322.168         250.867          44.000          43.000  
 113974251.031 7  88811169.605 7  21688579.927                    21688595.442  
     -1568.641       -1222.445          45.000          44.000  
 110649179.500 7  86220198.053 7  21055839.665                    21055854.570  
     -1609.465       -1253.977          44.000          42.000  
 117789488.531 7  91784102.866 6  22414594.913                    22414613.873  
      3105.109        2419.371          43.000          40.000  
 127473308.984 6  99329928.883 6  24257365.268                    24257385.796  
     -3156.293       -2459.715          38.000          41.000  
 24  1 10  3 15 12.2000000  0  6G24G10G18G23G32G15
 129695177.350 6 101061268.889 6  24680171.298                    24680194.365  
       539.484         420.305          39.000          40.000  
 109122758.151 7  85030788.707 7  20765371.294                    20765387.816  
       322.160         250.957          44.000          43.000  
 113974407.896 7  88811291.836 7  21688609.855                    21688624.979  
     -1568.633       -1222.344          45.000          44.000  
 110649340.435 7  86220323.477 7  21055870.392                    21055884.965  
     -1609.387       -1254.188          44.000          42.000  
 117789178.066 7  91783860.955 6  22414535.802                    22414555.062  
      3105.047        2419.348          43.000          40.000  
 127473624.606 6  99330174.825 6  24257426.227                    24257445.451  
     -3156.285       -2459.488          39.000          40.000  
 24  1 10  3 15 12.3000000  0  6G24G10G18G23G32G15
 129695123.411 6 101061226.879 6  24680161.034                    24680184.105  
       539.438         420.043          39.000          40.000  
 109122725.946 7  85030763.606 7  20765365.165                    20765381.686  
       322.215         251.062          44.000          43.000  
 113974564.768 7  88811414.073 7  21688639.707                    21688654.831  
     -1568.645       -1222.309          45.000          44.000  
 110649501.389 7  86220448.898 7  21055901.020                    21055915.594  
     -1609.367       -1254.234          45.000          42.000  
 117788867.577 7  91783619.019 6  22414476.718                    22414495.979  
      3104.809        2419.262          43.000          40.000  
 127473940.229 6  99330420.764 6  24257486.288                    24257505.512  
     -3156.176       -2459.371          41.000          40.000  
 24  1 10  3 15 12.4000000  0  6G24G10G18G23G32G15
 129695069.458 6 101061184.867 6  24680150.556                    24680173.455  
       539.520         420.262          39.000          39.000  
 109122693.730 7  85030738.518 7  20765358.511                    20765375.504  
       322.223         251.113          43.000          43.000  
 113974721.601 7  88811536.283 7  21688669.567                    21688684.363  
     -1568.496       -1222.223          45.000          44.000  
 110649662.282 7  86220574.286 7  21055932.051                    21055946.239  
     -1609.258       -1253.953          45.000          42.000  
 117788557.082 7  91783377.083 6  22414417.625                    22414437.263  
      3104.883        2419.359          43.000          41.000  
 127474255.851 6  99330666.681 6  24257547.138                    24257565.443  
     -3156.352       -2459.359          41.000          41.000  
 24  1 10  3 15 12.5000000  0  6G24G10G18G23G32G15
 129695015.549 6 101061142.863 6  24680140.298                    24680163.197  
       539.211         419.898          38.000          39.000  
 109122661.528 7  85030713.399 7  20765352.384                    20765369.370  
       322.082         250.973          43.000          43.000  
 113974878.495 7  88811658.537 7  21688699.423                    21688714.219  
     -1568.715       -1222.422          45.000          44.000  
 110649823.238 7  86220699.716 7  21055962.680                    21055976.870  
     -1609.363       -1254.125          44.000          42.000  
 117788246.605 7  91783135.154 6  22414358.543                    22414378.181  
      3104.871        2419.176          43.000          40.000  
 127474571.494 6  99330912.630 6  24257607.203                    24257625.506  
     -3156.371       -2459.590          41.000          41.000  
 24  1 10  3 15 12.6000000  0  6G24G10G18G23G32G15
 129694961.688 6 101061100.874 6  24680129.869                    24680152.763  
       538.918         420.062          38.000          39.000  
 109122629.319 7  85030688.320 7  20765346.137                    20765363.347  
       322.039         250.758          44.000          43.000  
 113975035.356 7  88811780.766 7  21688729.367                    21688744.146  
     -1568.742       -1222.449          45.000          44.000  
 110649984.197 7  86220825.100 7  21055993.427                    21056007.224  
     -1609.539       -1254.035          44.000          42.000  
 117787936.165 7  91782893.257 6  22414299.578                    22414318.888  
      3104.656        2419.242          43.000          40.000  
 127474887.164 6  99331158.620 6  24257667.937                    24257685.360  
     -3156.469       -2459.496          41.000          41.000  
 24  1 10  3 15 12.7000000  0  6G24G10G18G23G32G15
 129694907.797 6 101061058.859 6  24680119.614                    24680142.503  
       538.875         420.027          37.000          38.000  
 109122597.160 7  85030663.273 7  20765340.018                    20765357.230  
       321.863         250.660          44.000          43.000  
 113975192.258 7  88811903.030 7  21688759.224                    21688774.004  
     -1568.941       -1222.656          45.000          44.000  
 110650145.184 7  86220950.555 7  21056024.062                    21056037.862  
     -1609.648       -1254.356          44.000          42.000  
 117787625.697 7  91782651.316 6  22414240.498                    22414259.804  
      3104.613        2419.039          43.000          40.000  
 127475202.813 6  99331404.573 6  24257728.003                    24257745.425  
     -3156.520       -2459.637          41.000          41.000  
 24  1 10  3 15 12.8000000  0  6G24G10G18G23G32G15
 129694853.978 6 101061016.920 6  24680109.364                    24680132.112  
       538.617         419.508          37.000          38.000  
 109122565.031 7  85030638.215 7  20765334.169                    20765351.626  
       321.539         250.418          44.000          43.000  
 113975349.216 7  88812025.338 7  21688788.881                    21688803.584  
     -1569.195       -1222.863          45.000          44.000  
 110650306.188 7  86221076.007 7  21056054.590                    21056067.983  
     -1609.914       -1254.738          44.000          42.000  
 117787315.308 7  91782409.479 6  22414181.605                    22414200.651  
      3104.359        2418.836          43.000          40.000  
 127475518.521 6  99331650.588 6  24257788.150                    24257805.731  
     -3156.699       -2459.926          41.000          41.000  
 24  1 10  3 15 12.9000000  0  6G24G10G18G23G32G15
 129694800.116 6 101060974.985 6  24680099.115                    24680121.872  
       538.562         419.527          37.000          38.000  
 109122532.899 7  85030613.176 7  20765328.055                    20765345.512  
       321.320         250.242          43.000          43.000  
 113975506.147 7  88812147.605 7  21688818.744                    21688833.443  
     -1569.422       -1223.051          45.000          44.000  
 110650467.207 7  86221201.503 7  21056085.231                    21056098.630  
     -1610.094       -1254.781          44.000          42.000  
 117787004.882 7  91782167.563 6  22414122.533                    22414141.573  
      3104.102        2418.586          42.000          40.000  
 127475834.230 6  99331896.573 6  24257848.228                    24257865.803  
     -3156.984       -2460.043          41.000          41.000  
 24  1 10  3 15 13.0000000  0  6G24G10G18G23G32G15
 129694746.294 6 101060933.025 6  24680089.224                    24680111.492  
       538.379         419.320          38.000          38.000  
 109122500.763 7  85030588.150 7  20765322.299                    20765339.322  
       321.305         250.242          43.000          43.000  
 113975663.135 7  88812269.947 7  21688848.946                    21688863.922  
     -1569.473       -1222.992          45.000          44.000  
 110650628.235 7  86221326.976 7  21056115.780                    21056129.209  
     -1610.160       -1254.648          44.000          42.000  
 117786694.503 7  91781925.711 6  22414063.477                    22414082.479  
      3103.961        2418.738          42.000          40.000  
 127476149.965 6  99332142.606 6  24257907.834                    24257925.793  
     -3157.066       -2460.180          41.000          41.000  
 24  1 10  3 15 13.1000000  0  6G24G10G18G23G32G15
 129694692.495 6 101060891.131 6  24680078.987                    24680101.261  
       538.148         419.203          38.000          38.000  
 109122468.657 7  85030563.120 7  20765316.189                    20765333.209  
       321.223         250.402          44.000          43.000  
 113975820.095 7  88812392.232 7  21688878.815                    21688893.785  
     -1569.676       -1223.211          45.000          44.000  
 110650789.266 7  86221452.433 7  21056146.423                    21056159.847  
     -1610.254       -1254.602          44.000          42.000  
 117786384.128 7  91781683.863 6  22414004.415                    22414023.417  
      3103.832        2418.453          42.000          40.000  
 127476465.689 6  99332388.601 6  24257967.914                    24257985.867  
     -3157.262       -2460.066          40.000          41.000  
 24  1 10  3 15 13.2000000  0  6G24G10G18G23G32G15
 129694638.671 6 101060849.188 6  24680068.924                    24680091.151  
       538.277         419.258          38.000          39.000  
 109122436.536 7  85030538.115 7  20765309.999                    20765327.329  
       321.258         250.020          44.000          43.000  
 113975977.082 7  88812514.583 7  21688908.587                    21688923.493  
     -1569.645       -1223.254          45.000          44.000  
 110650950.293 7  86221577.895 7  21056176.699                    21056190.315  
     -1610.305       -1254.949          44.000          42.000  
 117786073.782 7  91781442.047 6  22413945.272                    22413964.699  
      3103.688        2418.234          42.000          40.000  
 127476781.399 6  99332634.644 6  24258027.835                    24258045.797  
     -3157.262       -2460.562          40.000          41.000  
 24  1 10  3 15 13.3000000  0  6G24G10G18G23G32G15
 129694584.906 6 101060807.273 6  24680058.693                    24680080.915  
       538.023         419.266          37.000          39.000  
 109122404.431 7  85030513.108 7  20765303.889                    20765321.222  
       321.188         250.223          44.000          43.000  
 113976134.065 7  88812636.904 7  21688938.459                    21688953.365  
     -1569.836       -1223.367          45.000          45.000  
 110651111.336 7  86221703.410 7  21056207.344                    21056220.967  
     -1610.363       -1254.871          44.000          42.000  
 117785763.439 7  91781200.201 6  22413886.216                    22413905.638  
      3103.449        2418.543          42.000          40.000  
 127477097.169 6  99332880.698 6  24258087.924                    24258105.886  
     -3157.430       -2460.312          40.000          41.000  
 24  1 10  3 15 13.4000000  0  6G24G10G18G23G32G15
 129694531.114 6 101060765.411 6  24680048.285                    24680070.754  
       537.945         418.734          37.000          39.000  
 109122372.323 7  85030488.081 7  20765298.123                    20765314.876  
       321.074         250.141          44.000          43.000  
 113976291.076 7  88812759.253 7  21688968.244                    21688983.126  
     -1570.023       -1223.551          45.000          45.000  
 110651272.383 7  86221828.856 7  21056237.990                    21056251.664  
     -1610.379       -1254.707          44.000          42.000  
 117785453.108 7  91780958.357 6  22413827.146                    22413846.366  
      3103.359        2418.094          42.000          40.000  
 127477412.960 6  99333126.769 6  24258148.252                    24258165.495  
     -3157.664       -2460.645          40.000          41.000  
 24  1 10  3 15 13.5000000  0  6G24G10G18G23G32G15
 129694477.348 6 101060723.509 6  24680038.053                    24680060.521  
       537.773         418.992          37.000          40.000  
 109122340.241 7  85030463.056 7  20765292.018                    20765308.765  
       320.969         250.184          44.000          43.000  
 113976448.083 7  88812881.597 7  21688998.121                    21689013.004  
     -1569.996       -1223.359          45.000          44.000  
 110651433.435 7  86221954.355 7  21056268.637                    21056282.313  
     -1610.441       -1254.809          44.000          42.000  
 117785142.814 7  91780716.592 6  22413768.099                    22413787.325  
      3103.281        2418.016          42.000          40.000  
 127477728.728 6  99333372.819 6  24258208.340                    24258225.583  
     -3157.730       -2460.500          39.000          41.000  
 24  1 10  3 15 13.6000000  0  6G24G10G18G23G32G15
 129694423.643 6 101060681.638 6  24680027.654                    24680050.538  
       537.336         418.617          38.000          40.000  
 109122308.129 7  85030438.061 7  20765286.032                    20765302.833  
       321.047         249.988          45.000          43.000  
 113976605.060 7  88813003.909 7  21689028.024                    21689043.030  
     -1569.941       -1223.160          45.000          44.000  
 110651594.464 7  86222079.843 7  21056299.233                    21056313.145  
     -1610.414       -1255.035          44.000          42.000  
 117784832.461 7  91780474.762 6  22413708.971                    22413728.252  
      3103.293        2418.047          42.000          40.000  
 127478044.559 6  99333618.895 6  24258268.550                    24258285.661  
     -3157.863       -2460.715          38.000          41.000  
 24  1 10  3 15 13.7000000  0  6G24G10G18G23G32G15
 129694369.905 6 101060639.790 6  24680017.428                    24680040.318  
       537.434         418.500          38.000          40.000  
 109122276.046 7  85030413.050 7  20765279.927                    20765296.725  
       320.969         250.133          45.000          43.000  
 113976762.093 7  88813126.282 7  21689057.907                    21689072.915  
     -1570.043       -1223.602          45.000          44.000  
 110651755.528 7  86222205.350 7  21056329.883                    21056343.796  
     -1610.457       -1254.941          44.000          42.000  
 117784522.156 7  91780232.980 6  22413649.921                    22413669.206  
      3103.395        2418.285          42.000          40.000  
 127478360.33736  99333864.952 6  24258328.586                    24258345.751  
     -3154.938       -2460.543          38.000          41.000  
 24  1 10  3 15 13.8000000  0  5G24G10G18G23G32
 129694316.150 6 101060597.938 6  24680007.511                    24680030.176  
       537.461         418.660          39.000          40.000  
 109122243.980 7  85030388.059 7  20765274.169                    20765290.559  
       320.805         249.883          45.000          43.000  
 113976919.121 7  88813248.604 7  21689087.593                    21689102.670  
     -1570.250       -1223.469          45.000          44.000  
 110651916.573 7  86222330.844 7  21056360.599                    21056374.700  
     -1610.453       -1254.922          43.000          42.000  
 117784211.810 7  91779991.139 6  22413590.716                    22413609.818  
      3103.215        2417.957          42.000          40.000  
 24  1 10  3 15 13.9000000  0  5G24G10G18G23G32
 129694262.455 6 101060556.053 6  24679997.293                    24680019.947  
       537.227         418.766          39.000          40.000  
 109122211.915 7  85030363.095 7  20765268.067                    20765284.463  
       320.730         249.812          45.000          43.000  
 113977076.134 7  88813370.966 7  21689117.471                    21689132.552  
     -1570.223       -1223.590          45.000          44.000  
 110652077.656 7  86222456.374 7  21056391.252                    21056405.356  
     -1610.539       -1255.352          43.000          42.000  
 117783901.499 7  91779749.343 6  22413531.666                    22413550.769  
      3103.176        2418.094          42.000          40.000  
 24  1 10  3 15 14.0000000  0  5G24G10G18G23G32
 129694208.805 6 101060514.244 6  24679987.045                    24680009.627  
       536.527         418.281          39.000          39.000  
 109122179.897 7  85030338.125 7  20765262.068                    20765277.927  
       320.328         249.508          45.000          42.000  
 113977233.217 7  88813493.370 7  21689147.590                    21689162.273  
     -1570.637       -1223.871          45.000          44.000  
 110652238.721 7  86222581.890 7  21056421.660                    21056436.477  
     -1610.996       -1255.367          43.000          42.000  
 117783591.226 7  91779507.568 6  22413472.834                    22413491.733  
      3102.828        2417.707          42.000          40.000  
 24  1 10  3 15 14.1000000  0  5G24G10G18G23G32
 129694155.154 6 101060472.424 6  24679976.836                    24679999.414  
       536.453         418.133          39.000          39.000  
 109122147.911 7  85030313.211 7  20765255.981                    20765271.843  
       319.730         249.195          45.000          42.000  
 113977390.303 7  88813615.767 7  21689177.482                    21689192.163  
     -1571.129       -1224.219          45.000          43.000  
 110652399.865 7  86222707.480 7  21056452.324                    21056467.147  
     -1611.488       -1255.863          43.000          42.000  
 117783280.956 7  91779265.815 6  22413413.791                    22413432.694  
      3102.488        2417.578          42.000          40.000  
 24  1 10  3 15 14.2000000  0  6G24G10G18G23G32G15
 129694101.515 6 101060430.633 6  24679966.886                    24679988.740  
       536.480         418.102          40.000          38.000  
 109122115.946 7  85030288.290 7  20765249.797                    20765265.882  
       319.797         249.055          45.000          42.000  
 113977547.424 7  88813738.215 7  21689207.233                    21689222.277  
     -1570.898       -1224.340          45.000          43.000  
 110652561.050 7  86222833.079 7  21056483.044                    21056497.976  
     -1611.500       -1255.895          43.000          42.000  
 117782970.759 7  91779024.091 6  22413354.708                    22413373.647  
      3102.453        2417.469          42.000          40.000  
 127479940.20937  99335095.532 6  24258629.093                    24258646.630  
     -3158.750       -2461.348          43.000          41.000  
 24  1 10  3 15 14.3000000  0  6G24G10G18G23G32G15
 129694047.869 6 101060388.827 6  24679956.678                    24679978.530  
       536.492         418.020          40.000          38.000  
 109122084.021 7  85030263.430 7  20765243.722                    20765259.811  
       319.488         248.750          45.000          42.000  
 113977704.598 7  88813860.693 7  21689237.142                    21689252.187  
     -1571.387       -1224.637          45.000          43.000  
 110652722.259 7  86222958.684 6  21056513.721                    21056528.650  
     -1611.867       -1256.109          43.000          41.000  
 117782660.537 7  91778782.343 6  22413295.675                    22413314.610  
      3102.191        2417.148          42.000          40.000  
 127480256.09927  99335341.666 6  24258689.205                    24258706.739  
     -3158.902       -2461.555          43.000          41.000  
 24  1 10  3 15 14.4000000  0  6G24G10G18G23G32G15
 129693994.238 6 101060347.057 6  24679946.285                    24679967.814  
       536.355         417.719          40.000          37.000  
 109122052.076 7  85030238.538 7  20765237.448                    20765253.982  
       319.398         248.879          45.000          42.000  
 113977861.730 7  88813983.105 7  21689266.911                    21689282.168  
     -1571.398       -1224.277          45.000          43.000  
 110652883.445 7  86223084.277 7  21056544.479                    21056559.462  
     -1611.859       -1256.051          43.000          42.000  
 117782350.329 7  91778540.612 6  22413236.722                    22413255.647  
      3102.023        2417.168          42.000          40.000  
 127480571.96527  99335587.812 6  24258749.179                    24258766.928  
     -3158.738       -2461.484          42.000          40.000  
 24  1 10  3 15 14.5000000  0  6G24G10G18G23G32G15
 129693940.615 6 101060305.331 6  24679936.081                    24679957.624  
       536.320         417.531          40.000          37.000  
 109122020.150 7  85030213.662 7  20765231.373                    20765247.907  
       319.488         248.980          45.000          42.000  
 113978018.880 7  88814105.558 7  21689296.815                    21689312.072  
     -1571.363       -1224.504          45.000          43.000  
 110653044.638 7  86223209.894 7  21056575.153                    21056590.139  
     -1611.785       -1255.973          43.000          42.000  
 117782040.160 7  91778298.928 6  22413177.699                    22413196.625  
      3102.074        2417.062          42.000          40.000  
 127480887.83327  99335833.939 6  24258809.287                    24258827.035  
     -3158.758       -2461.254          42.000          40.000  
 24  1 10  3 15 14.6000000  0  6G24G10G18G23G32G15
 129693887.021 6 101060263.504 6  24679925.921                    24679947.238  
       536.164         418.184          40.000          36.000  
 109121988.224 7  85030188.786 7  20765225.157                    20765241.754  
       319.301         248.754          45.000          42.000  
 113978176.022 7  88814228.025 7  21689326.781                    21689341.979  
     -1571.516       -1224.645          45.000          43.000  
 110653205.836 7  86223335.501 7  21056605.906                    21056621.032  
     -1611.859       -1255.918          43.000          42.000  
 117781729.962 6  91778057.238 6  22413118.803                    22413137.586  
      3101.844        2416.887          41.000          40.000  
 127481203.74127  99336080.083 6  24258869.199                    24258886.982  
     -3158.988       -2461.422          42.000          40.000  
 24  1 10  3 15 14.7000000  0  6G24G10G18G23G32G15
 129693833.390 6 101060221.689 6  24679915.715                    24679937.026  
       536.137         417.699          40.000          36.000  
 109121956.285 7  85030163.889 7  20765219.079                    20765235.674  
       319.383         248.926          45.000          42.000  
 113978333.185 7  88814350.479 7  21689356.688                    21689371.884  
     -1571.434       -1224.512          45.000          43.000  
 110653366.978 7  86223461.057 7  21056636.571                    21056651.694  
     -1611.742       -1255.762          43.000          42.000  
 117781419.809 7  91777815.569 6  22413059.783                    22413078.568  
      3101.973        2416.895          42.000          39.000  
 127481519.614 7  99336326.224 6  24258929.308                    24258947.092  
     -3158.820       -2461.336          42.000          41.000  
 24  1 10  3 15 14.8000000  0  6G24G10G18G23G32G15
 129693779.804 6 101060179.964 6  24679905.464                    24679926.743  
       536.020         417.414          40.000          36.000  
 109121924.362 7  85030139.023 7  20765213.106                    20765229.203  
       319.309         248.844          45.000          42.000  
 113978490.349 7  88814472.940 7  21689386.463                    21689401.704  
     -1571.566       -1224.723          45.000          43.000  
 110653528.175 7  86223586.690 7  21056666.863                    21056682.289  
     -1611.805       -1256.215          43.000          42.000  
 117781109.645 7  91777573.874 6  22413000.691                    22413020.013  
      3101.520        2416.629          42.000          39.000  
 127481835.515 7  99336572.357 6  24258988.852                    24259007.364  
     -3158.949       -2461.477          42.000          41.000  
 24  1 10  3 15 14.9000000  0  6G24G10G18G23G32G15
 129693726.243 6 101060138.229 6  24679895.271                    24679916.551  
       535.895         417.547          40.000          36.000  
 109121892.463 7  85030114.156 7  20765207.036                    20765223.130  
       319.152         248.613          45.000          42.000  
 113978647.528 7  88814595.424 7  21689416.373                    21689431.616  
     -1571.734       -1224.742          44.000          43.000  
 110653689.385 7  86223712.312 6  21056697.540                    21056712.967  
     -1611.859       -1256.113          43.000          41.000  
 117780799.537 7  91777332.228 6  22412941.679                    22412961.000  
      3101.332        2416.484          42.000          39.000  
 127482151.417 7  99336818.522 6  24259048.966                    24259067.480  
     -3159.039       -2461.723          42.000          41.000  
 24  1 10  3 15 15.0000000  0  6G24G10G18G23G32G15
 129693672.672 6 101060096.477 6  24679884.866                    24679906.175  
       535.793         417.398          40.000          36.000  
 109121860.554 7  85030089.285 7  20765200.877                    20765216.744  
       319.082         248.680          45.000          42.000  
 113978804.711 7  88814717.925 7  21689446.385                    21689461.673  
     -1571.832       -1225.090          44.000          43.000  
 110653850.604 7  86223837.934 6  21056727.969                    21056743.388  
     -1612.078       -1256.172          44.000          41.000  
 117780489.399 7  91777090.563 6  22412883.029                    22412901.936  
      3101.254        2416.375          42.000          39.000  
 127482467.332 7  99337064.695 6  24259109.192                    24259127.504  
     -3158.980       -2461.598          42.000          40.000  
 24  1 10  3 15 15.1000000  0  6G24G10G18G23G32G15
 129693619.116 6 101060054.740 6  24679874.675                    24679895.982  
       535.691         417.281          40.000          36.000  
 109121828.659 7  85030064.436 7  20765194.808                    20765210.676  
       319.035         248.609          45.000          42.000  
 113978961.918 7  88814840.435 7  21689476.301                    21689491.591  
     -1571.879       -1224.977          44.000          43.000  
 110654011.815 7  86223963.515 6  21056758.646                    21056774.056  
     -1612.176       -1255.984          44.000          41.000  
 117780179.305 7  91776848.947 6  22412824.020                    22412842.931  
      3101.109        2416.473          42.000          39.000  
 127482783.246 7  99337310.831 6  24259169.308                    24259187.613  
     -3159.180       -2461.645          42.000          40.000  
 24  1 10  3 15 15.2000000  0  6G24G10G18G23G32G15
 129693565.587 6 101060012.972 6  24679864.660                    24679885.430  
       535.484         417.586          40.000          36.000  
 109121796.757 7  85030039.570 6  20765188.542                    20765204.806  
       318.984         248.539          45.000          41.000  
 113979119.113 7  88814962.919 7  21689506.214                    21689521.815  
     -1572.008       -1224.879          44.000          44.000  
 110654173.024 7  86224089.146 6  21056789.823                    21056804.564  
     -1612.066       -1256.344          44.000          41.000  
 117779869.217 7  91776607.318 6  22412764.747                    22412784.079  
      3101.008        2416.227          42.000          39.000  
 127483099.150 7  99337557.037 6  24259229.501                    24259247.943  
     -3159.027       -2461.711          42.000          40.000  
 24  1 10  3 15 15.3000000  0  6G24G10G18G23G32G15
 129693512.046 6 101059971.261 6  24679854.472                    24679875.244  
       535.359         417.160          39.000          37.000  
 109121764.886 7  85030014.737 7  20765182.477                    20765198.742  
       318.859         248.445          45.000          42.000  
 113979276.352 7  88815085.443 7  21689536.136                    21689551.737  
     -1572.199       -1225.352          44.000          43.000  
 110654334.281 7  86224214.801 6  21056820.510                    21056835.250  
     -1612.363       -1256.379          45.000          41.000  
 117779559.175 7  91776365.712 6  22412705.748                    22412725.077  
      3100.672        2416.105          42.000          39.000  
 127483415.102 7  99337803.208 6  24259289.624                    24259308.060  
     -3159.289       -2461.922          42.000          39.000  
 24  1 10  3 15 15.4000000  0  6G24G10G18G23G32G15
 129693458.585 6 101059929.587 6  24679844.439                    24679865.356  
       534.984         416.730          39.000          37.000  
 109121733.038 7  85029989.937 6  20765176.370                    20765192.568  
       318.727         248.070          44.000          41.000  
 113979433.585 7  88815207.986 7  21689566.173                    21689581.796  
     -1572.340       -1225.438          44.000          43.000  
 110654495.530 7  86224340.412 6  21056851.507                    21056865.137  
     -1612.441       -1256.328          45.000          41.000  
 117779249.145 7  91776124.155 6  22412646.485                    22412665.992  
      3100.512        2415.727          42.000          39.000  
 127483731.061 7  99338049.434 6  24259349.554                    24259367.769  
     -3159.445       -2461.949          42.000          39.000  
 24  1 10  3 15 15.5000000  0  6G24G10G18G23G32G15
 129693405.088 6 101059887.933 6  24679834.259                    24679855.183  
       534.977         416.590          39.000          37.000  
 109121701.221 7  85029965.131 6  20765170.315                    20765186.510  
       318.383         247.926          44.000          41.000  
 113979590.904 7  88815330.559 7  21689596.110                    21689611.730  
     -1572.699       -1225.602          44.000          43.000  
 110654656.815 7  86224466.095 6  21056882.198                    21056895.830  
     -1612.695       -1256.844          45.000          41.000  
 117778939.147 7  91775882.593 6  22412587.494                    22412607.000  
      3100.195        2415.441          43.000          39.000  
 127484047.019 7  99338295.612 6  24259409.679                    24259427.888  
     -3159.590       -2461.977          42.000          39.000  
 24  1 10  3 15 15.6000000  0  6G24G10G18G23G32G15
 129693351.642 6 101059846.269 6  24679823.971                    24679845.352  
       534.727         416.492          39.000          37.000  
 109121669.400 7  85029940.348 6  20765164.205                    20765180.474  
       318.184         247.766          44.000          41.000  
 113979748.225 7  88815453.148 7  21689626.172                    21689641.581  
     -1573.051       -1226.000          44.000          43.000  
 110654818.108 7  86224591.787 6  21056913.102                    21056926.174  
     -1612.816       -1256.883          45.000          41.000  
 117778629.160 7  91775641.071 6  22412528.357                    22412548.120  
      3100.047        2415.414          42.000          39.000  
 127484362.997 7  99338541.814 6  24259469.925                    24259487.693  
     -3159.645       -2462.125          42.000          38.000  
 24  1 10  3 15 15.7000000  0  6G24G10G18G23G32G15
 129693298.202 6 101059804.580 6  24679813.802                    24679835.172  
       534.504         416.840          38.000          37.000  
 109121637.628 7  85029915.572 6  20765158.159                    20765174.423  
       317.949         247.656          44.000          41.000  
 113979905.552 7  88815575.741 7  21689656.110                    21689671.520  
     -1573.195       -1226.016          45.000          43.000  
 110654979.418 7  86224717.474 6  21056943.798                    21056956.868  
     -1613.031       -1256.926          44.000          40.000  
 117778319.206 7  91775399.543 6  22412469.375                    22412489.136  
      3099.621        2415.102          43.000          39.000  
 127484678.992 7  99338788.067 6  24259530.057                    24259547.830  
     -3159.754       -2462.234          42.000          38.000  
 24  1 10  3 15 15.8000000  0  6G24G10G18G23G32G15
 129693244.812 6 101059762.982 6  24679803.385                    24679824.974  
       534.230         416.105          38.000          37.000  
 109121605.869 7  85029890.830 6  20765152.045                    20765168.185  
       317.703         247.359          45.000          41.000  
 113980062.922 7  88815698.383 7  21689686.065                    21689701.290  
     -1573.426       -1226.375          45.000          43.000  
 110655140.748 7  86224843.183 6  21056974.538                    21056987.677  
     -1613.285       -1257.199          44.000          40.000  
 117778009.276 7  91775158.013 6  22412410.312                    22412430.066  
      3099.402        2415.223          42.000          39.000  
 127484994.996 7  99339034.301 6  24259590.206                    24259608.167  
     -3160.016       -2462.445          42.000          38.000  
 24  1 10  3 15 15.9000000  0  6G24G10G18G23G32G15
 129693191.408 6 101059721.378 6  24679793.222                    24679814.814  
       534.133         416.062          39.000          37.000  
 109121574.116 7  85029866.081 6  20765146.003                    20765162.142  
       317.578         247.539          45.000          41.000  
 113980220.301 7  88815821.016 7  21689716.013                    21689731.238  
     -1573.586       -1226.309          45.000          43.000  
 110655302.099 7  86224968.922 6  21057005.242                    21057018.383  
     -1613.234       -1257.285          44.000          40.000  
 117777699.376 7  91774916.530 6  22412351.340                    22412371.093  
      3099.414        2414.906          42.000          39.000  
 127485311.008 7  99339280.549 6  24259650.341                    24259668.303  
     -3160.039       -2462.562          42.000          39.000  
 24  1 10  3 15 16.0000000  0  6G24G10G18G23G32G15
 129693138.031 6 101059679.828 6  24679783.088                    24679804.878  
       533.887         415.418          39.000          37.000  
 109121542.412 7  85029841.388 6  20765140.251                    20765156.236  
       317.430         247.223          45.000          41.000  
 113980377.724 7  88815943.672 7  21689746.024                    21689761.107  
     -1573.977       -1226.555          45.000          43.000  
 110655463.483 7  86225094.696 6  21057036.093                    21057049.036  
     -1613.594       -1257.574          44.000          40.000  
 117777389.487 7  91774675.063 6  22412292.463                    22412312.281  
      3099.168        2414.809          43.000          40.000  
 127485627.085 7  99339526.833 6  24259710.543                    24259728.627  
     -3160.438       -2462.602          42.000          39.000  
 24  1 10  3 15 16.1000000  0  6G24G10G18G23G32G15
 129693084.701 6 101059638.299 6  24679772.940                    24679794.736  
       533.730         415.199          40.000          37.000  
 109121510.716 7  85029816.694 6  20765134.220                    20765150.206  
       317.094         246.754          45.000          41.000  
 113980535.172 7  88816066.343 7  21689775.986                    21689791.064  
     -1574.395       -1226.836          45.000          43.000  
 110655624.917 7  86225220.469 6  21057066.812                    21057079.751  
     -1613.977       -1257.840          44.000          41.000  
 117777079.606 7  91774433.605 6  22412233.495                    22412253.315  
      3098.918        2414.656          43.000          40.000  
 127485943.178 6  99339773.122 6  24259770.693                    24259788.774  
     -3160.680       -2463.039          41.000          39.000  
 24  1 10  3 15 16.2000000  0  6G24G10G18G23G32G15
 129693031.352 6 101059596.739 6  24679762.803                    24679784.212  
       533.516         415.469          39.000          36.000  
 109121479.017 7  85029792.006 7  20765128.133                    20765144.474  
       317.039         246.918          46.000          42.000  
 113980692.645 7  88816189.033 7  21689805.827                    21689820.862  
     -1574.481       -1226.973          44.000          43.000  
 110655786.375 7  86225346.287 6  21057097.232                    21057111.188  
     -1614.199       -1257.984          44.000          41.000  
 117776769.733 7  91774192.136 6  22412174.864                    22412194.642  
      3098.844        2414.648          43.000          40.000  
 127486259.262 6  99340019.421 6  24259830.647                    24259849.383  
     -3160.695       -2462.750          41.000          40.000  
 24  1 10  3 15 16.3000000  0  6G24G10G18G23G32G15
 129692978.062 6 101059555.246 6  24679752.663                    24679774.079  
       533.160         415.121          39.000          36.000  
 109121447.380 7  85029767.365 7  20765122.112                    20765138.456  
       316.746         246.555          46.000          42.000  
 113980850.134 7  88816311.752 7  21689835.796                    21689850.831  
     -1574.691       -1227.117          44.000          44.000  
 110655947.794 7  86225472.088 6  21057127.949                    21057141.910  
     -1614.414       -1258.176          43.000          41.000  
 117776459.885 7  91773950.688 6  22412115.902                    22412135.678  
      3098.613        2414.453          42.000          40.000  
 127486575.362 6  99340265.709 6  24259890.799                    24259909.530  
     -3160.953       -2463.039          40.000          40.000  
 24  1 10  3 15 16.4000000  0  6G24G10G18G23G32G15
 129692924.786 6 101059513.699 6  24679742.462                    24679763.722  
       533.031         415.254          38.000          37.000  
 109121415.744 7  85029742.702 7  20765116.202                    20765132.730  
       316.543         246.637          45.000          42.000  
 113981007.667 7  88816434.495 7  21689865.813                    21689881.150  
     -1574.977       -1227.422          45.000          44.000  
 110656109.310 7  86225597.906 7  21057158.286                    21057172.988  
     -1614.781       -1258.215          43.000          42.000  
 117776150.067 7  91773709.260 6  22412056.860                    22412077.242  
      3098.328        2414.211          42.000          40.000  
 127486891.556 6  99340512.061 6  24259950.476                    24259970.074  
     -3161.539       -2463.535          39.000          41.000  
 24  1 10  3 15 16.5000000  0  6G24G10G18G23G32G15
 129692871.525 6 101059472.214 6  24679732.327                    24679753.590  
       532.660         414.992          38.000          38.000  
 109121384.117 7  85029718.034 7  20765110.183                    20765126.706  
       316.258         246.438          45.000          43.000  
 113981165.177 7  88816557.255 7  21689895.786                    21689911.129  
     -1575.156       -1227.715          45.000          44.000  
 110656270.800 7  86225723.740 7  21057189.017                    21057203.718  
     -1614.805       -1258.481          43.000          42.000  
 117775840.263 7  91773467.844 6  22411997.906                    22412018.286  
      3098.238        2414.418          42.000          41.000  
 127487207.771 6  99340758.423 6  24260010.650                    24260030.238  
     -3161.688       -2463.637          38.000          41.000  
 24  1 10  3 15 16.6000000  0  6G24G10G18G23G32G15
 129692818.335 6 101059430.733 6  24679721.893                    24679743.828  
       532.367         414.828          37.000          38.000  
 109121352.522 7  85029693.410 7  20765104.069                    20765120.849  
       316.133         246.340          44.000          43.000  
 113981322.739 7  88816680.034 7  21689926.003                    21689941.426  
     -1575.324       -1227.531          45.000          44.000  
 110656432.325 7  86225849.613 7  21057220.051                    21057234.434  
     -1615.062       -1258.602          43.000          42.000  
 117775530.428 7  91773226.395 6  22411938.548                    22411959.290  
      3098.219        2414.121          42.000          41.000  
 127487523.937 6  99341004.786 6  24260070.799                    24260090.371  
     -3161.668       -2463.648          37.000          41.000  
 24  1 10  3 15 16.7000000  0  6G24G10G18G23G32G15
 129692765.144 6 101059389.243 6  24679711.771                    24679733.695  
       532.070         414.898          37.000          39.000  
 109121320.914 7  85029668.794 7  20765098.055                    20765114.837  
       316.094         246.246          44.000          43.000  
 113981480.271 7  88816802.779 7  21689955.980                    21689971.401  
     -1575.305       -1227.535          45.000          45.000  
 110656593.801 7  86225975.428 7  21057250.779                    21057265.159  
     -1614.883       -1258.367          44.000          42.000  
 117775220.609 7  91772985.035 6  22411879.591                    22411900.348  
      3098.254        2413.949          42.000          41.000  
 127487840.072 6  99341251.145 6  24260130.957                    24260150.534  
     -3161.625       -2463.633          37.000          41.000  
 24  1 10  3 15 16.8000000  0  6G24G10G18G23G32G15
 129692711.913 6 101059347.800 6  24679701.774                    24679724.043  
       532.250         414.535          36.000          39.000  
 109121289.303 7  85029644.141 7  20765091.953                    20765108.629  
       316.180         246.492          44.000          43.000  
 113981637.812 7  88816925.524 7  21689985.905                    21690001.268  
     -1575.406       -1227.434          44.000          45.000  
 110656755.295 7  86226101.284 7  21057281.659                    21057295.574  
     -1614.867       -1258.316          44.000          42.000  
 117774910.786 7  91772743.620 6  22411820.642                    22411840.884  
      3098.266        2414.168          42.000          40.000  
 127488156.325 6  99341497.547 6  24260191.013                    24260210.560  
     -3161.996       -2463.789          37.000          41.000  
 24  1 10  3 15 16.9000000  0  6G24G10G18G23G32G15
 129692658.715 6 101059306.359 6  24679691.651                    24679713.923  
       532.051         414.500          37.000          39.000  
 109121257.711 7  85029619.526 7  20765085.941                    20765102.618  
       316.094         246.219          44.000          43.000  
 113981795.396 7  88817048.306 7  21690015.892                    21690031.252  
     -1575.508       -1227.742          44.000          45.000  
 110656916.831 7  86226227.185 7  21057312.398                    21057326.320  
     -1615.043       -1258.680          44.000          42.000  
 117774600.988 7  91772502.199 6  22411761.689                    22411781.927  
      3098.105        2414.027          42.000          40.000  
 127488472.591 6  99341743.934 6  24260251.197                    24260270.730  
     -3162.426       -2464.035          36.000          41.000  
 24  1 10  3 15 17.0000000  0  6G24G10G18G23G32G15
 129692605.542 6 101059264.951 6  24679681.579                    24679703.944  
       531.887         414.027          37.000          39.000  
 109121226.141 7  85029594.931 7  20765079.973                    20765096.541  
       315.867         245.934          45.000          43.000  
 113981952.966 7  88817171.096 7  21690045.603                    21690061.082  
     -1575.762       -1228.109          44.000          45.000  
 110657078.370 7  86226353.046 7  21057343.177                    21057357.401  
     -1615.281       -1258.731          44.000          42.000  
 117774291.188 7  91772260.829 6  22411702.650                    22411722.279  
      3098.031        2413.816          42.000          40.000  
 127488788.844 6  99341990.346 6  24260311.049                    24260330.461  
     -3162.434       -2464.074          36.000          41.000  
 24  1 10  3 15 17.1000000  0  6G24G10G18G23G32G15
 129692552.396 6 101059223.525 6  24679671.466                    24679693.827  
       531.723         414.117          37.000          39.000  
 109121194.583 7  85029570.338 7  20765073.968                    20765090.535  
       315.633         245.895          45.000          43.000  
 113982110.553 7  88817293.892 7  21690075.591                    21690091.071  
     -1575.816       -1228.047          45.000          45.000  
 110657239.931 7  86226478.958 7  21057373.921                    21057388.150  
     -1615.469       -1259.051          44.000          42.000  
 117773981.399 7  91772019.452 6  22411643.699                    22411663.332  
      3098.023        2413.965          42.000          40.000  
 127489105.073 6  99342236.783 6  24260371.226                    24260390.644  
     -3162.441       -2464.211          36.000          41.000  
 24  1 10  3 15 17.2000000  0  6G24G10G18G23G32G15
 129692499.231 6 101059182.122 6  24679661.466                    24679683.661  
       531.500         413.895          37.000          39.000  
 109121163.027 7  85029545.738 7  20765068.010                    20765084.418  
       315.680         246.047          45.000          43.000  
 113982268.194 7  88817416.713 7  21690105.706                    21690120.955  
     -1576.062       -1228.203          45.000          45.000  
 110657401.508 7  86226604.862 7  21057404.418                    21057419.115  
     -1615.758       -1259.082          44.000          42.000  
 117773671.608 7  91771778.045 6  22411585.068                    22411604.081  
      3097.910        2413.879          42.000          40.000  
 127489421.358 6  99342483.233 6  24260431.593                    24260450.759  
     -3162.664       -2464.609          37.000          40.000  
 24  1 10  3 15 17.3000000  0  6G24G10G18G23G32G15
 129692446.244 6 101059140.812 6  24679651.383                    24679673.573  
       530.703         413.277          37.000          40.000  
 109121131.482 7  85029521.182 7  20765062.007                    20765078.421  
       315.539         245.633          45.000          43.000  
 113982425.858 7  88817539.564 7  21690135.709                    21690150.957  
     -1576.488       -1228.621          45.000          45.000  
 110657563.146 7  86226730.793 7  21057435.176                    21057449.869  
     -1616.059       -1259.438          43.000          43.000  
 117773361.824 7  91771536.684 6  22411526.118                    22411545.138  
      3097.895        2413.770          42.000          40.000  
 127489737.683 6  99342729.746 6  24260491.787                    24260510.960  
     -3163.070       -2464.949          36.000          41.000  
 24  1 10  3 15 17.4000000  0  6G24G10G18G23G32G15
 129692393.205 6 101059099.445 6  24679641.087                    24679663.635  
       530.605         413.621          36.000          40.000  
 109121099.940 7  85029496.606 7  20765056.012                    20765071.928  
       315.504         245.746          45.000          43.000  
 113982583.536 7  88817662.446 7  21690165.659                    21690180.810  
     -1576.594       -1228.762          45.000          44.000  
 110657724.765 7  86226856.732 7  21057465.510                    21057480.898  
     -1616.082       -1259.398          43.000          43.000  
 117773052.065 7  91771295.314 6  22411467.165                    22411485.459  
      3097.637        2413.754          42.000          40.000  
 127490054.111 6  99342976.224 6  24260551.791                    24260571.793  
     -3163.629       -2464.930          36.000          41.000  
 24  1 10  3 15 17.5000000  0  6G24G10G18G23G32G15
 129692340.255 5 101059058.111 6  24679631.011                    24679653.540  
       530.082         413.195          35.000          40.000  
 109121068.421 7  85029472.063 7  20765050.014                    20765065.934  
       315.332         245.539          46.000          43.000  
 113982741.212 7  88817785.328 7  21690195.664                    21690210.819  
     -1576.629       -1228.773          45.000          44.000  
 110657886.424 7  86226982.688 7  21057496.272                    21057511.658  
     -1616.371       -1259.500          42.000          43.000  
 117772742.309 6  91771053.940 6  22411408.221                    22411426.513  
      3097.734        2413.895          41.000          40.000  
 127490370.473 6  99343222.735 6  24260611.992                    24260631.994  
     -3163.566       -2465.074          37.000          41.000  
 24  1 10  3 15 17.6000000  0  6G24G10G18G23G32G15
 129692287.235 5 101059016.793 6  24679620.617                    24679644.059  
       530.055         413.129          35.000          40.000  
 109121036.911 7  85029447.481 7  20765044.183                    20765060.009  
       315.090         245.375          46.000          43.000  
 113982898.897 7  88817908.188 7  21690225.788                    21690240.299  
     -1576.848       -1228.746          45.000          44.000  
 110658048.067 7  86227108.644 7  21057527.032                    21057542.105  
     -1616.496       -1259.652          42.000          43.000  
 117772432.541 6  91770812.551 6  22411349.008                    22411368.157  
      3097.574        2413.828          41.000          40.000  
 127490686.824 6  99343469.240 7  24260672.028                    24260692.505  
     -3163.555       -2465.094          39.000          42.000  
 24  1 10  3 15 17.7000000  0  6G24G10G18G23G32G15
 129692234.187 5 101058975.543 6  24679610.522                    24679633.986  
       530.266         412.578          35.000          39.000  
 109121005.430 7  85029422.970 7  20765038.192                    20765054.023  
       314.969         245.316          46.000          43.000  
 113983056.593 7  88818031.091 7  21690255.796                    21690270.313  
     -1576.777       -1228.859          45.000          44.000  
 110658209.738 7  86227234.628 7  21057557.797                    21057572.872  
     -1616.566       -1259.766          42.000          43.000  
 117772122.827 6  91770571.185 6  22411290.072                    22411309.213  
      3097.512        2413.629          41.000          41.000  
 127491003.216 6  99343715.770 7  24260732.235                    24260752.710  
     -3163.664       -2465.230          40.000          42.000  
 24  1 10  3 15 17.8000000  0  6G24G10G18G23G32G15
 129692181.189 5 101058934.304 6  24679600.601                    24679623.571  
       530.160         412.492          35.000          39.000  
 109120973.938 7  85029398.433 7  20765032.285                    20765048.242  
       314.910         245.293          46.000          43.000  
 113983214.273 7  88818153.974 7  21690285.841                    21690300.158  
     -1576.844       -1228.895          45.000          44.000  
 110658371.419 7  86227360.598 7  21057588.462                    21057603.197  
     -1616.672       -1259.781          42.000          44.000  
 117771813.071 6  91770329.785 6  22411231.158                    22411250.573  
      3097.320        2413.660          41.000          41.000  
 127491319.601 7  99343962.332 7  24260793.105                    24260813.087  
     -3163.707       -2465.508          42.000          42.000  
 24  1 10  3 15 17.9000000  0  6G24G10G18G23G32G15
 129692128.162 5 101058892.985 6  24679590.510                    24679613.481  
       530.305         413.188          35.000          39.000  
 109120942.472 7  85029373.930 7  20765026.297                    20765042.258  
       314.863         245.211          46.000          43.000  
 113983371.977 7  88818276.863 7  21690315.851                    21690330.169  
     -1576.902       -1228.828          46.000          44.000  
 110658533.097 6  86227486.571 7  21057619.229                    21057633.961  
     -1616.781       -1259.766          41.000          44.000  
 117771503.360 6  91770088.454 6  22411172.222                    22411191.637  
      3097.348        2413.633          41.000          41.000  
 127491635.975 7  99344208.880 7  24260853.309                    24260873.297  
     -3163.824       -2465.570          43.000          42.000  
 24  1 10  3 15 18.0000000  0  6G24G10G18G23G32G15
 129692075.141 6 101058851.666 6  24679580.991                    24679603.437  
       530.227         413.207          36.000          39.000  
 109120911.038 7  85029349.447 7  20765020.214                    20765036.419  
       314.535         244.980          47.000          43.000  
 113983529.694 7  88818399.777 7  21690345.668                    21690360.209  
     -1577.078       -1229.254          45.000          44.000  
 110658694.802 6  86227612.564 7  21057650.195                    21057665.238  
     -1616.941       -1259.914          41.000          44.000  
 117771193.683 6  91769847.145 6  22411113.300                    22411133.160  
      3097.047        2413.188          41.000          41.000  
 127491952.368 7  99344455.439 6  24260913.993                    24260933.275  
     -3163.902       -2465.695          43.000          41.000  
 24  1 10  3 15 18.1000000  0  6G24G10G18G23G32G15
 129692022.128 6 101058810.350 6  24679570.903                    24679593.347  
       530.211         413.141          37.000          39.000  
 109120879.612 7  85029324.946 7  20765014.234                    20765030.436  
       314.305         244.660          47.000          43.000  
 113983687.407 7  88818522.672 7  21690375.680                    21690390.222  
     -1577.152       -1229.051          45.000          44.000  
 110658856.526 6  86227738.577 7  21057680.970                    21057696.011  
     -1617.082       -1260.059          40.000          45.000  
 117770884.037 6  91769605.853 7  22411054.377                    22411074.234  
      3096.605        2412.609          41.000          42.000  
 127492268.762 7  99344701.969 6  24260974.201                    24260993.480  
     -3163.848       -2465.199          43.000          41.000  
 24  1 10  3 15 18.2000000  0  6G24G10G18G23G32G15
 129691969.104 6 101058769.068 6  24679561.352                    24679583.258  
       530.141         412.711          37.000          39.000  
 109120848.203 7  85029300.477 7  20765008.499                    20765023.992  
       314.230         244.848          47.000          43.000  
 113983845.144 7  88818645.583 7  21690405.563                    21690420.081  
     -1577.297       -1229.047          44.000          44.000  
 110659018.218 6  86227864.567 7  21057711.599                    21057726.561  
     -1616.969       -1259.922          40.000          45.000  
 117770574.382 6  91769364.576 6  22410995.623                    22411015.461  
      3096.512        2412.746          41.000          41.000  
 127492585.147 7  99344948.473 6  24261034.540                    24261053.460  
     -3163.906       -2465.195          43.000          40.000  
 24  1 10  3 15 18.3000000  0  6G24G10G18G23G32G15
 129691916.072 6 101058727.720 6  24679551.260                    24679573.160  
       530.285         413.387          38.000          39.000  
 109120816.772 7  85029275.982 7  20765002.518                    20765018.010  
       314.332         244.914          47.000          43.000  
 113984002.895 7  88818768.490 7  21690435.582                    21690450.097  
     -1577.324       -1229.051          44.000          44.000  
 110659179.896 6  86227990.539 7  21057742.365                    21057757.324  
     -1616.914       -1259.801          40.000          45.000  
 117770264.741 6  91769123.301 6  22410936.700                    22410956.539  
      3096.578        2412.855          41.000          41.000  
 127492901.527 7  99345195.017 6  24261094.745                    24261113.668  
     -3163.820       -2465.430          43.000          40.000  
 24  1 10  3 15 18.4000000  0  6G24G10G18G23G32G15
 129691863.082 6 101058686.448 6  24679541.481                    24679562.878  
       530.020         412.672          38.000          39.000  
 109120785.371 7  85029251.514 7  20764996.324                    20765011.878  
       314.160         244.746          47.000          43.000  
 113984160.634 7  88818891.401 7  21690465.568                    21690480.167  
     -1577.324       -1229.125          44.000          44.000  
 110659341.566 6  86228116.537 7  21057772.778                    21057787.868  
     -1616.793       -1259.852          41.000          45.000  
 117769955.127 6  91768882.063 6  22410877.759                    22410897.821  
      3096.344        2412.355          41.000          41.000  
 127493217.929 7  99345441.559 6  24261154.947                    24261173.501  
     -3163.891       -2465.438          43.000          39.000  
 24  1 10  3 15 18.5000000  0  6G24G10G18G23G32G15
 129691810.103 6 101058645.164 6  24679531.400                    24679552.796  
       529.914         412.992          37.000          39.000  
 109120753.980 7  85029227.047 7  20764990.350                    20765005.903  
       314.008         244.672          47.000          43.000  
 113984318.400 7  88819014.341 7  21690495.590                    21690510.190  
     -1577.398       -1229.344          44.000          44.000  
 110659503.307 6  86228242.552 7  21057803.557                    21057818.642  
     -1617.039       -1260.121          41.000          44.000  
 117769645.499 6  91768640.789 6  22410818.839                    22410838.900  
      3096.203        2412.637          41.000          41.000  
 127493534.339 7  99345688.105 6  24261215.158                    24261233.711  
     -3163.980       -2465.605          44.000          39.000  
 24  1 10  3 15 18.6000000  0  6G24G10G18G23G32G15
 129691757.150 6 101058603.920 6  24679521.011                    24679543.091  
       529.789         412.426          37.000          38.000  
 109120722.624 7  85029202.611 7  20764984.274                    20765000.412  
       313.789         244.344          47.000          43.000  
 113984476.177 7  88819137.295 7  21690525.793                    21690540.623  
     -1577.699       -1229.625          44.000          44.000  
 110659665.049 6  86228368.581 7  21057834.272                    21057849.060  
     -1617.371       -1260.430          41.000          44.000  
 117769335.937 6  91768399.580 7  22410760.377                    22410779.642  
      3095.934        2412.094          41.000          42.000  
 127493850.770 7  99345934.717 6  24261275.458                    24261293.412  
     -3164.164       -2465.949          44.000          38.000  
 24  1 10  3 15 18.7000000  0  6G24G10G18G23G32G15
 129691704.215 6 101058562.681 6  24679510.937                    24679533.020  
       529.477         412.465          36.000          38.000  
 109120691.305 7  85029178.208 7  20764978.314                    20764994.453  
       313.434         244.000          47.000          43.000  
 113984633.976 7  88819260.240 7  21690555.822                    21690570.648  
     -1577.930       -1229.645          44.000          44.000  
 110659826.833 7  86228494.652 7  21057865.059                    21057879.848  
     -1617.551       -1260.699          42.000          44.000  
 117769026.355 7  91768158.345 6  22410701.465                    22410720.730  
      3095.766        2412.105          42.000          41.000  
 127494167.217 7  99346181.300 6  24261335.676                    24261353.630  
     -3164.324       -2465.945          44.000          38.000  
 24  1 10  3 15 18.8000000  0  6G24G10G18G23G32G15
 129691651.280 5 101058521.438 6  24679500.677                    24679522.519  
       529.434         412.363          35.000          38.000  
 109120659.982 7  85029153.806 7  20764972.237                    20764988.783  
       313.289         243.965          47.000          43.000  
 113984791.781 7  88819383.214 7  21690585.843                    21690600.875  
     -1577.992       -1229.844          44.000          44.000  
 110659988.593 7  86228620.721 7  21057896.317                    21057910.495  
     -1617.629       -1260.641          42.000          44.000  
 117768716.805 7  91767917.130 6  22410642.646                    22410661.823  
      3095.598        2412.121          42.000          41.000  
 127494483.674 7  99346427.938 6  24261396.052                    24261413.432  
     -3164.488       -2466.461          44.000          37.000  
 24  1 10  3 15 18.9000000  0  6G24G10G18G23G32G15
 129691598.364 5 101058480.209 6  24679490.607                    24679512.450  
       529.223         412.254          34.000          38.000  
 109120628.702 7  85029129.419 7  20764966.284                    20764982.827  
       313.133         243.965          47.000          43.000  
 113984949.628 7  88819506.215 7  21690615.880                    21690630.913  
     -1578.164       -1229.770          44.000          44.000  
 110660150.421 7  86228746.802 7  21057927.112                    21057941.285  
     -1617.856       -1260.715          42.000          44.000  
 117768407.253 7  91767675.954 6  22410583.740                    22410602.925  
      3095.715        2411.883          42.000          41.000  
 127494800.161 7  99346674.563 6  24261456.278                    24261473.660  
     -3164.656       -2466.004          44.000          37.000  
 24  1 10  3 15 19.0000000  0  6G24G10G18G23G32G15
 129691545.507 5 101058439.031 6  24679480.432                    24679501.972  
       528.859         411.938          34.000          38.000  
 109120597.432 7  85029105.056 7  20764959.912                    20764976.846  
       312.750         243.551          47.000          43.000  
 113985107.520 7  88819629.229 7  21690645.535                    21690661.009  
     -1578.535       -1230.125          43.000          44.000  
 110660312.218 7  86228872.896 7  21057958.448                    21057971.946  
     -1618.172       -1261.215          43.000          44.000  
 117768097.760 7  91767434.784 6  22410524.697                    22410544.443  
      3095.285        2411.961          42.000          41.000  
 127495116.668 7  99346921.175 6  24261516.749                    24261533.589  
     -3164.914       -2466.453          44.000          37.000  
 24  1 10  3 15 19.1000000  0  6G24G10G18G23G32G15
 129691492.716 5 101058397.824 6  24679470.386                    24679491.909  
       528.508         412.145          34.000          38.000  
 109120566.221 7  85029080.718 7  20764953.972                    20764970.902  
       312.465         243.289          46.000          43.000  
 113985265.414 7  88819752.263 7  21690675.582                    21690691.055  
     -1578.777       -1230.352          43.000          44.000  
 110660474.081 7  86228999.034 7  21057989.250                    21058002.750  
     -1618.328       -1261.375          43.000          44.000  
 117767788.241 7  91767193.601 6  22410465.798                    22410485.544  
      3095.145        2411.496          43.000          41.000  
 127495433.203 7  99347167.862 6  24261576.984                    24261593.832  
     -3165.141       -2466.469          45.000          37.000  
 24  1 10  3 15 19.2000000  0  6G24G10G18G23G32G15
 129691439.855 5 101058356.662 6  24679460.397                    24679481.857  
       528.469         411.656          34.000          39.000  
 109120535.025 7  85029056.430 7  20764948.177                    20764964.541  
       312.176         243.023          46.000          43.000  
 113985423.329 7  88819875.309 7  21690705.569                    21690720.455  
     -1579.078       -1230.504          43.000          44.000  
 110660635.979 7  86229125.219 7  21058020.027                    21058033.651  
     -1618.637       -1261.652          43.000          44.000  
 117767478.737 7  91766952.475 6  22410406.862                    22410426.229  
      3095.074        2411.285          43.000          41.000  
 127495749.747 7  99347414.546 6  24261637.454                    24261653.755  
     -3165.355       -2466.707          45.000          37.000  
 24  1 10  3 15 19.3000000  0  6G24G10G18G23G32G15
 129691387.037 6 101058315.502 6  24679450.346                    24679471.805  
       528.336         411.754          36.000          39.000  
 109120503.857 7  85029032.132 7  20764942.246                    20764958.608  
       311.898         242.957          46.000          43.000  
 113985581.242 7  88819998.363 7  21690735.619                    21690750.507  
     -1579.074       -1230.598          43.000          44.000  
 110660797.870 7  86229251.359 7  21058050.833                    21058064.456  
     -1618.773       -1261.469          43.000          44.000  
 117767169.260 7  91766711.319 6  22410347.970                    22410367.336  
      3094.977        2411.715          43.000          41.000  
 127496066.307 7  99347661.198 6  24261697.694                    24261713.990  
     -3165.516       -2466.707          45.000          37.000  
 24  1 10  3 15 19.4000000  0  6G24G10G18G23G32G15
 129691334.174 6 101058274.306 6  24679440.724                    24679462.135  
       528.504         411.773          36.000          39.000  
 109120472.714 7  85029007.853 7  20764936.476                    20764952.546  
       311.684         242.656          47.000          43.000  
 113985739.164 7  88820121.415 7  21690765.890                    21690780.776  
     -1579.207       -1230.695          43.000          44.000  
 110660959.794 7  86229377.529 7  21058081.506                    21058095.784  
     -1619.125       -1261.812          43.000          44.000  
 117766859.772 7  91766470.172 6  22410289.155                    22410308.321  
      3094.840        2411.246          43.000          41.000  
 127496382.886 7  99347907.899 6  24261757.835                    24261774.112  
     -3165.598       -2466.984          44.000          37.000  
 24  1 10  3 15 19.5000000  0  6G24G10G18G23G32G15
 129691281.363 6 101058233.152 6  24679430.675                    24679452.085  
       528.348         411.504          37.000          39.000  
 109120441.589 7  85028983.621 7  20764930.553                    20764946.628  
       311.410         242.438          47.000          43.000  
 113985897.126 7  88820244.518 7  21690795.949                    21690810.839  
     -1579.301       -1230.731          43.000          44.000  
 110661121.801 7  86229503.732 7  21058112.335                    21058126.604  
     -1619.566       -1261.852          42.000          45.000  
 117766550.309 7  91766229.026 6  22410230.266                    22410249.430  
      3094.609        2411.262          43.000          41.000  
 127496699.486 7  99348154.593 6  24261818.082                    24261834.357  
     -3165.801       -2466.926          44.000          36.000  
 24  1 10  3 15 19.6000000  0  6G24G10G18G23G32G15
 129691228.579 6 101058192.003 6  24679420.747                    24679442.262  
       527.992         411.543          37.000          39.000  
 109120410.463 7  85028959.381 7  20764925.122                    20764940.536  
       311.332         242.266          47.000          42.000  
 113986055.048 7  88820367.577 7  21690826.344                    21690841.329  
     -1579.356       -1230.797          44.000          44.000  
 110661283.752 6  86229629.903 7  21058142.677                    21058158.236  
     -1619.738       -1262.070          41.000          45.000  
 117766240.863 7  91765987.900 6  22410171.287                    22410190.740  
      3094.426        2411.234          42.000          41.000  
 127497016.092 7  99348401.395 6  24261878.190                    24261894.566  
     -3165.859       -2467.703          44.000          36.000  
 24  1 10  3 15 19.7000000  0  6G24G10G18G23G32G15
 129691175.766 6 101058150.865 6  24679410.697                    24679432.216  
       528.125         411.320          37.000          39.000  
 109120379.367 7  85028935.154 7  20764919.204                    20764934.620  
       311.117         242.191          47.000          42.000  
 113986213.021 7  88820490.705 7  21690856.405                    21690871.398  
     -1579.398       -1230.914          45.000          44.000  
 110661445.770 6  86229756.116 7  21058173.507                    21058189.059  
     -1619.859       -1261.973          41.000          46.000  
 117765931.471 7  91765746.784 6  22410112.411                    22410131.857  
      3094.281        2411.117          42.000          41.000  
 127497332.715 7  99348648.197 5  24261938.441                    24261954.837  
     -3166.180       -2467.680          43.000          35.000  
 24  1 10  3 15 19.8000000  0  6G24G10G18G23G32G15
 129691122.957 6 101058109.735 6  24679400.531                    24679422.242  
       528.125         411.492          36.000          39.000  
 109120348.296 7  85028910.972 7  20764913.221                    20764928.644  
       310.941         242.082          47.000          42.000  
 113986370.979 7  88820613.776 7  21690886.753                    21690901.617  
     -1579.590       -1230.797          45.000          45.000  
 110661607.767 7  86229882.342 7  21058204.272                    21058220.017  
     -1619.809       -1262.231          42.000          46.000  
 117765622.081 6  91765505.684 7  22410053.583                    22410073.298  
      3094.266        2411.207          41.000          42.000  
 127497649.370 7  99348894.902 5  24261998.269                    24262014.945  
     -3166.430       -2467.402          42.000          35.000  
 24  1 10  3 15 19.9000000  0  6G24G10G18G23G32G15
 129691070.156 6 101058068.565 6  24679390.483                    24679412.188  
       528.094         411.422          36.000          39.000  
 109120317.240 7  85028886.747 7  20764907.312                    20764922.728  
       310.660         242.090          46.000          42.000  
 113986528.936 7  88820736.850 7  21690916.811                    21690931.673  
     -1579.523       -1230.852          44.000          45.000  
 110661769.713 7  86230008.572 7  21058235.089                    21058250.844  
     -1619.758       -1262.348          43.000          45.000  
 117765312.646 6  91765264.546 7  22409994.700                    22410014.410  
      3094.211        2411.309          41.000          42.000  
 127497966.055 6  99349141.629 6  24262058.532                    24262075.198  
     -3166.520       -2467.273          41.000          36.000  
 24  1 10  3 15 20.0000000  0  6G24G10G18G23G32G15
 129691017.341 6 101058027.438 6  24679380.198                    24679402.183  
       528.129         411.293          36.000          39.000  
 109120286.181 7  85028862.542 7  20764901.011                    20764916.841  
       310.672         242.035          46.000          42.000  
 113986686.867 7  88820859.908 7  21690946.708                    21690962.092  
     -1579.426       -1230.566          43.000          45.000  
 110661931.691 7  86230134.800 7  21058266.514                    21058281.193  
     -1619.660       -1262.223          43.000          45.000  
 117765003.188 6  91765023.415 7  22409935.468                    22409955.484  
      3094.398        2411.301          41.000          42.000  
 127498282.722 6  99349388.345 6  24262118.159                    24262135.917  
     -3166.602       -2467.141          39.000          36.000  
 24  1 10  3 15 20.1000000  0  6G24G10G18G23G32G15
 129690964.529 6 101057986.268 6  24679370.149                    24679392.129  
       528.141         411.793          36.000          39.000  
 109120255.175 7  85028838.364 7  20764895.111                    20764910.936  
       310.398         241.785          46.000          42.000  
 113986844.839 7  88820982.998 7  21690976.769                    21690992.152  
     -1579.481       -1230.914          43.000          45.000  
 110662093.686 7  86230261.051 7  21058297.341                    21058312.025  
     -1619.781       -1262.449          44.000          45.000  
 117764693.757 6  91764782.298 7  22409876.585                    22409896.601  
      3094.336        2411.082          41.000          42.000  
 127498599.436 6  99349635.054 6  24262178.427                    24262196.166  
     -3166.898       -2467.117          38.000          37.000  
 24  1 10  3 15 20.2000000  0  6G24G10G18G23G32G15
 129690911.694 5 101057945.160 6  24679359.446                    24679381.879  
       528.223         411.277          35.000          39.000  
 109120224.226 7  85028814.263 7  20764888.659                    20764905.261  
       309.512         241.156          46.000          42.000  
 113987002.817 7  88821106.088 7  21691006.253                    21691021.813  
     -1580.148       -1231.098          43.000          45.000  
 110662255.704 7  86230387.342 7  21058328.523                    21058341.984  
     -1620.418       -1263.023          44.000          44.000  
 117764384.381 7  91764541.229 7  22409817.674                    22409837.683  
      3093.949        2410.711          42.000          42.000  
 127498916.094 6  99349881.778 6  24262238.303                    24262257.067  
     -3166.750       -2467.227          39.000          37.000  
 24  1 10  3 15 20.3000000  0  6G24G10G18G23G32G15
 129690858.947 5 101057904.000 6  24679349.409                    24679371.828  
       527.652         411.465          35.000          39.000  
 109120193.304 7  85028790.156 7  20764882.774                    20764899.374  
       309.188         241.016          46.000          42.000  
 113987160.782 7  88821229.154 7  21691036.313                    21691051.867  
     -1579.805       -1230.816          43.000          45.000  
 110662417.756 7  86230513.625 7  21058359.361                    21058372.824  
     -1620.434       -1262.844          44.000          44.000  
 117764075.008 7  91764300.185 7  22409758.802                    22409778.817  
      3093.777        2410.602          43.000          42.000  
 127499232.789 6  99350128.520 6  24262298.568                    24262317.324  
     -3166.863       -2467.398          39.000          38.000  
 24  1 10  3 15 20.4000000  0  6G24G10G18G23G32G15
 129690806.119 5 101057862.825 6  24679339.098                    24679361.733  
       528.227         411.902          35.000          39.000  
 109120162.374 7  85028766.034 7  20764876.850                    20764893.702  
       309.328         241.121          46.000          42.000  
 113987318.697 7  88821352.222 7  21691066.738                    21691081.242  
     -1579.352       -1230.637          43.000          44.000  
 110662579.817 7  86230639.874 7  21058390.200                    21058403.342  
     -1620.488       -1262.559          43.000          44.000  
 117763765.606 7  91764059.095 7  22409700.628                    22409719.847  
      3093.922        2410.711          43.000          42.000  
 127499549.416 6  99350375.255 6  24262359.124                    24262377.821  
     -3166.457       -2467.320          40.000          38.000  
 24  1 10  3 15 20.5000000  0  6G24G10G18G23G32G15
 129690753.187 6 101057821.586 6  24679329.025                    24679351.662  
       528.824         412.293          36.000          39.000  
 109120131.457 7  85028741.951 7  20764870.966                    20764887.821  
       309.316         240.922          46.000          42.000  
 113987476.631 7  88821475.307 7  21691096.792                    21691111.301  
     -1579.141       -1230.481          44.000          44.000  
 110662741.873 7  86230766.151 7  21058421.038                    21058434.181  
     -1620.484       -1262.688          43.000          44.000  
 117763456.231 7  91763818.013 7  22409641.756                    22409660.972  
      3093.820        2410.762          43.000          42.000  
 127499866.020 6  99350622.005 6  24262419.372                    24262438.080  
     -3166.230       -2467.492          41.000          38.000  
 24  1 10  3 15 20.6000000  0  6G24G10G18G23G32G15
 129690700.329 6 101057780.399 6  24679318.990                    24679341.573  
       528.645         411.949          36.000          39.000  
 109120100.570 7  85028717.895 7  20764865.464                    20764881.922  
       309.090         240.750          46.000          43.000  
 113987634.543 7  88821598.360 7  21691127.154                    21691141.398  
     -1579.152       -1230.555          44.000          45.000  
 110662903.938 7  86230892.429 7  21058451.675                    21058465.535  
     -1620.535       -1262.684          43.000          44.000  
 117763146.851 7  91763576.955 7  22409582.899                    22409602.150  
      3093.754        2410.652          43.000          42.000  
 127500182.669 7  99350868.764 6  24262479.980                    24262498.216  
     -3166.336       -2467.340          42.000          39.000  
 24  1 10  3 15 20.7000000  0  6G24G10G18G23G32G15
 129690647.419 5 101057739.177 6  24679308.922                    24679331.506  
       529.035         412.324          35.000          39.000  
 109120069.696 7  85028693.840 7  20764859.588                    20764876.048  
       308.875         240.453          46.000          43.000  
 113987792.420 7  88821721.396 7  21691157.197                    21691171.445  
     -1578.875       -1230.406          44.000          45.000  
 110663065.986 7  86231018.691 7  21058482.512                    21058496.369  
     -1620.652       -1262.887          42.000          45.000  
 117762837.492 7  91763335.908 6  22409524.029                    22409543.284  
      3093.797        2410.496          43.000          41.000  
 127500499.295 7  99351115.471 6  24262540.232                    24262558.465  
     -3166.465       -2467.480          43.000          39.000  
 24  1 10  3 15 20.8000000  0  6G24G10G18G23G32G15
 129690594.506 5 101057697.920 6  24679298.634                    24679321.157  
       528.801         412.500          35.000          39.000  
 109120038.858 7  85028669.798 7  20764854.173                    20764870.146  
       308.578         240.445          46.000          43.000  
 113987950.305 7  88821844.421 7  21691187.062                    21691201.833  
     -1578.953       -1230.328          44.000          45.000  
 110663228.037 7  86231144.981 7  21058513.185                    21058527.640  
     -1620.508       -1262.613          42.000          45.000  
 117762528.135 7  91763094.857 6  22409464.723                    22409483.902  
      3093.684        2410.539          43.000          41.000  
 127500815.894 7  99351362.189 6  24262601.127                    24262619.130  
     -3166.117       -2466.965          43.000          39.000  
 24  1 10  3 15 20.9000000  0  6G24G10G18G23G32G15
 129690541.517 5 101057656.693 6  24679288.551                    24679311.089  
       529.656         412.348          34.000          39.000  
 109120008.057 7  85028645.793 7  20764848.312                    20764864.283  
       308.238         239.820          46.000          43.000  
 113988108.178 7  88821967.420 7  21691217.104                    21691231.870  
     -1578.781       -1230.102          45.000          45.000  
 110663390.128 7  86231271.274 7  21058544.030                    21058558.482  
     -1620.777       -1263.008          42.000          45.000  
 117762218.774 7  91762853.756 6  22409405.854                    22409425.022  
      3093.492        2410.617          42.000          41.000  
 127501132.542 7  99351608.915 6  24262661.383                    24262679.383  
     -3166.219       -2467.148          44.000          39.000  
 24  1 10  3 15 21.0000000  0  6G24G10G18G23G32G15
 129690488.690 5 101057615.372 6  24679278.240                    24679300.849  
       528.715         412.996          33.000          39.000  
 109119977.303 7  85028621.852 7  20764842.030                    20764858.366  
       307.812         239.551          46.000          43.000  
 113988266.051 7  88822090.431 7  21691247.264                    21691262.106  
     -1578.703       -1230.031          45.000          45.000  
 110663552.209 7  86231397.569 7  21058574.912                    21058589.301  
     -1620.762       -1263.078          42.000          45.000  
 117761909.469 7  91762612.755 6  22409346.995                    22409365.847  
      3093.246        2410.180          42.000          41.000  
 127501449.148 7  99351855.649 6  24262721.780                    24262739.638  
     -3166.387       -2467.594          44.000          40.000  
 24  1 10  3 15 21.1000000  0  6G24G10G18G23G32G15
 129690435.604 5 101057574.093 6  24679268.138                    24679290.769  
       529.965         412.766          33.000          39.000  
 109119946.595 7  85028597.931 7  20764836.187                    20764852.524  
       307.449         239.180          46.000          43.000  
 113988423.891 7  88822213.396 7  21691277.300                    21691292.136  
     -1578.621       -1229.824          44.000          45.000  
 110663714.264 7  86231523.885 7  21058605.750                    21058620.149  
     -1620.520       -1262.883          42.000          45.000  
 117761600.138 7  91762371.726 6  22409288.131                    22409306.985  
      3093.344        2410.230          42.000          41.000  
 127501765.753 7  99352102.338 6  24262782.028                    24262799.882  
     -3166.016       -2466.551          44.000          40.000  
 24  1 10  3 15 21.2000000  0  6G24G10G18G23G32G15
 129690382.594 5 101057532.767 6  24679257.777                    24679280.473  
       530.059         413.262          34.000          39.000  
 109119915.929 7  85028574.021 7  20764830.492                    20764847.162  
       307.016         238.980          47.000          43.000  
 113988581.680 7  88822336.383 7  21691307.115                    21691322.155  
     -1578.117       -1229.582          44.000          45.000  
 110663876.368 7  86231650.200 7  21058636.675                    21058651.105  
     -1620.856       -1263.234          42.000          44.000  
 117761290.852 7  91762130.742 6  22409229.003                    22409247.955  
      3093.180        2410.035          42.000          41.000  
 127502082.372 7  99352349.045 6  24262842.106                    24262860.450  
     -3165.980       -2467.066          44.000          40.000  
 24  1 10  3 15 21.3000000  0  6G24G10G18G23G32G15
 129690329.461 5 101057491.389 6  24679247.666                    24679270.368  
       530.746         413.930          34.000          39.000  
 109119885.282 7  85028550.145 7  20764824.660                    20764841.331  
       306.750         238.887          47.000          43.000  
 113988739.470 7  88822459.331 7  21691337.141                    21691352.180  
     -1578.023       -1229.512          44.000          45.000  
 110664038.443 7  86231776.465 7  21058667.517                    21058681.941  
     -1620.969       -1262.840          42.000          44.000  
 117760981.533 7  91761889.705 6  22409170.141                    22409189.091  
      3093.109        2410.277          42.000          41.000  
 127502398.905 7  99352595.725 6  24262902.341                    24262920.692  
     -3165.758       -2466.934          44.000          40.000  
 24  1 10  3 15 21.4000000  0  6G24G10G18G23G32G15
 129690276.316 5 101057449.968 6  24679237.725                    24679260.315  
       531.082         414.043          35.000          39.000  
 109119854.638 7  85028526.273 7  20764819.250                    20764835.134  
       306.523         238.543          46.000          43.000  
 113988897.193 7  88822582.220 7  21691366.952                    21691382.370  
     -1577.656       -1229.141          45.000          45.000  
 110664200.539 7  86231902.766 7  21058698.090                    21058713.003  
     -1620.883       -1263.055          42.000          44.000  
 117760672.229 7  91761648.675 6  22409111.549                    22409130.440  
      3093.004        2409.930          42.000          41.000  
 127502715.479 7  99352842.385 6  24262962.591                    24262980.820  
     -3165.766       -2466.699          43.000          40.000  
 24  1 10  3 15 21.5000000  0  6G24G10G18G23G32G15
 129690223.190 6 101057408.560 6  24679227.616                    24679250.203  
       531.219         414.391          37.000          39.000  
 109119824.078 7  85028502.441 7  20764813.435                    20764829.314  
       306.027         238.387          46.000          43.000  
 113989054.861 7  88822705.087 7  21691396.955                    21691412.376  
     -1576.973       -1228.539          45.000          45.000  
 110664362.621 7  86232029.087 7  21058728.933                    21058743.852  
     -1620.856       -1262.863          42.000          44.000  
 117760362.920 7  91761407.680 6  22409052.689                    22409071.586  
      3093.023        2410.074          42.000          41.000  
 127503031.998 7  99353089.081 6  24263022.822                    24263041.065  
     -3165.340       -2466.727          43.000          41.000  
 24  1 10  3 15 21.6000000  0  6G24G10G18G23G32G15
 129690169.905 6 101057367.029 6  24679218.015                    24679239.897  
       532.738         414.801          38.000          39.000  
 109119793.491 7  85028478.601 7  20764807.052                    20764823.508  
       305.746         238.305          46.000          43.000  
 113989212.455 7  88822827.901 7  21691427.319                    21691442.173  
     -1576.059       -1228.098          45.000          45.000  
 110664524.655 7  86232155.319 7  21058759.806                    21058774.859  
     -1620.344       -1262.484          43.000          44.000  
 117760053.601 7  91761166.642 6  22408993.655                    22409012.715  
      3093.402        2410.816          43.000          41.000  
 127503348.498 7  99353335.720 6  24263083.019                    24263101.180  
     -3164.996       -2466.348          43.000          41.000  
 24  1 10  3 15 21.7000000  0  6G24G10G18G23G32G15
 129690116.617 6 101057325.557 6  24679207.875                    24679229.769  
       532.945         415.000          38.000          39.000  
 109119762.898 7  85028454.836 7  20764801.230                    20764817.704  
       305.980         237.734          46.000          43.000  
 113989370.014 7  88822950.674 7  21691457.302                    21691472.155  
     -1575.449       -1227.590          45.000          45.000  
 110664686.658 7  86232281.516 7  21058790.634                    21058805.678  
     -1620.172       -1262.367          43.000          44.000  
 117759744.265 7  91760925.547 6  22408934.791                    22408953.837  
      3093.156        2410.496          43.000          40.000  
 127503664.977 7  99353582.207 6  24263143.243                    24263161.375  
     -3164.941       -2465.559          44.000          40.000  
 24  1 10  3 15 21.8000000  0  6G24G10G18G23G32G15
 129690063.203 6 101057283.967 6  24679197.999                    24679219.620  
       533.914         415.695          38.000          39.000  
 109119732.315 7  85028430.969 7  20764795.504                    20764812.173  
       305.820         238.996          46.000          43.000  
 113989527.456 7  88823073.321 7  21691487.293                    21691502.365  
     -1574.606       -1226.941          45.000          45.000  
 110664848.600 7  86232407.779 7  21058821.451                    21058835.888  
     -1619.098       -1261.863          42.000          44.000  
 117759434.894 7  91760684.513 6  22408876.201                    22408894.919  
      3093.930        2410.500          43.000          40.000  
 127503981.349 7  99353828.789 6  24263203.548                    24263221.600  
     -3163.879       -2465.848          43.000          40.000  
 24  1 10  3 15 21.9000000  0  6G24G10G18G23G32G15
 129690009.796 6 101057242.298 6  24679187.836                    24679209.444  
       534.176         416.926          38.000          39.000  
 109119701.686 7  85028407.018 7  20764789.676                    20764806.323  
       306.250         238.605          46.000          43.000  
 113989684.799 7  88823195.937 7  21691517.235                    21691532.309  
     -1573.254       -1225.871          45.000          45.000  
 110665010.489 7  86232533.906 7  21058852.257                    21058866.689  
     -1618.965       -1261.281          43.000          44.000  
 117759125.404 7  91760443.392 6  22408817.307                    22408836.035  
      3095.125        2411.273          42.000          41.000  
 127504297.681 7  99354075.376 6  24263263.744                    24263281.819  
     -3162.840       -2464.387          42.000          39.000  
 24  1 10  3 15 22.0000000  0  6G24G10G18G23G32G15
 129689956.280 6 101057200.600 6  24679177.449                    24679198.909  
       535.605         416.781          38.000          39.000  
 109119671.019 7  85028383.213 7  20764783.965                    20764800.369  
       306.750         239.027          46.000          43.000  
 113989842.072 7  88823318.491 7  21691547.710                    21691562.230  
     -1572.336       -1225.117          45.000          45.000  
 110665172.316 7  86232659.957 7  21058882.614                    21058897.386  
     -1617.672       -1260.992          43.000          44.000  
 117758815.920 7  91760202.169 6  22408758.351                    22408777.040  
      3094.492        2412.168          43.000          41.000  
 127504614.045 7  99354321.600 6  24263323.329                    24263341.340  
     -3163.809       -2463.812          42.000          38.000  
 24  1 10  3 15 22.1000000  0  6G24G10G18G23G32G15
 129689902.645 6 101057158.893 6  24679167.243                    24679188.724  
       536.781         417.199          37.000          39.000  
 109119640.387 7  85028359.330 7  20764778.136                    20764794.537  
       306.266         238.527          46.000          43.000  
 113989999.286 7  88823441.005 7  21691577.626                    21691592.149  
     -1571.816       -1224.887          46.000          45.000  
 110665334.135 7  86232786.076 7  21058913.407                    21058928.186  
     -1617.707       -1260.766          43.000          44.000  
 117758506.411 7  91759961.068 6  22408699.454                    22408718.161  
      3095.336        2411.203          43.000          41.000  
 127504930.382 7  99354568.261 6  24263383.526                    24263401.578  
     -3163.363       -2466.562          43.000          39.000  
 24  1 10  3 15 22.2000000  0  6G24G10G18G23G32G15
 129689849.116 6 101057117.132 6  24679157.010                    24679178.705  
       534.520         417.336          37.000          39.000  
 109119609.719 7  85028335.407 7  20764772.558                    20764788.648  
       306.773         239.062          46.000          42.000  
 113990156.412 7  88823563.421 7  21691607.144                    21691621.622  
     -1570.988       -1224.613          46.000          45.000  
 110665495.886 7  86232912.129 7  21058944.344                    21058958.766  
     -1617.699       -1260.723          43.000          44.000  
 117758196.810 7  91759719.754 6  22408640.172                    22408659.432  
      3096.348        2412.684          43.000          41.000  
 127505246.750 7  99354814.849 6  24263443.830                    24263461.008  
     -3163.449       -2464.668          42.000          38.000  
 24  1 10  3 15 22.3000000  0  6G24G10G18G23G32G15
 129689795.381 6 101057075.418 6  24679146.784                    24679168.518  
       538.840         417.160          36.000          39.000  
 109119579.089 7  85028311.577 7  20764766.729                    20764782.828  
       306.309         238.797          46.000          43.000  
 113990313.541 7  88823685.874 7  21691637.044                    21691651.527  
     -1571.016       -1224.250          45.000          45.000  
 110665657.700 7  86233038.208 7  21058975.136                    21058989.556  
     -1618.246       -1260.570          43.000          44.000  
 117757887.245 7  91759478.560 6  22408581.263                    22408600.530  
      3095.242        2412.188          43.000          41.000  
 127505562.958 7  99355061.143 6  24263504.003                    24263521.155  
     -3161.730       -2464.516          42.000          38.000  
 24  1 10  3 15 22.4000000  0  6G24G10G18G23G32G15
 129689741.766 5 101057033.568 6  24679137.246                    24679158.689  
       535.176         418.375          35.000          39.000  
 109119548.472 7  85028287.697 7  20764760.629                    20764776.825  
       305.836         238.137          46.000          43.000  
 113990470.623 7  88823808.287 7  21691666.749                    21691681.421  
     -1570.797       -1224.051          45.000          45.000  
 110665819.441 7  86233164.268 7  21059005.985                    21059020.700  
     -1617.598       -1260.629          43.000          44.000  
 117757577.653 7  91759237.299 6  22408522.381                    22408542.143  
      3095.934        2412.414          43.000          41.000  
 127505879.378 7  99355307.702 6  24263564.114                    24263581.305  
     -3164.324       -2464.562          42.000          38.000  
 24  1 10  3 15 22.5000000  0  6G24G10G18G23G32G15
 129689688.205 6 101056991.673 6  24679127.054                    24679148.458  
       535.953         418.875          37.000          38.000  
 109119517.812 7  85028263.790 7  20764754.795                    20764770.986  
       306.812         239.066          46.000          42.000  
 113990627.596 7  88823930.598 7  21691696.619                    21691711.291  
     -1569.547       -1223.234          45.000          44.000  
 110665981.170 7  86233290.265 7  21059036.761                    21059051.470  
     -1616.848       -1260.055          43.000          44.000  
 117757267.991 7  91758996.047 6  22408463.454                    22408483.227  
      3097.148        2412.715          43.000          41.000  
 127506195.580 7  99355554.072 6  24263624.285                    24263641.471  
     -3161.859       -2464.410          42.000          38.000  
 24  1 10  3 15 22.6000000  0  6G24G10G18G23G32G15
 129689634.328 6 101056949.835 6  24679116.895                    24679138.576  
       538.473         418.422          37.000          38.000  
 109119487.174 7  85028239.929 7  20764748.973                    20764765.042  
       306.293         238.551          46.000          43.000  
 113990784.539 7  88824052.856 7  21691726.305                    21691741.108  
     -1569.520       -1222.805          45.000          45.000  
 110666142.861 7  86233416.265 7  21059067.693                    21059082.631  
     -1617.020       -1260.117          43.000          44.000  
 117756958.304 7  91758754.686 6  22408404.507                    22408423.917  
      3096.824        2413.512          43.000          41.000  
 127506511.857 7  99355800.563 6  24263684.072                    24263701.690  
     -3162.590       -2464.262          42.000          38.000  
 24  1 10  3 15 22.7000000  0  6G24G10G18G23G32G15
 129689580.688 6 101056907.915 6  24679106.687                    24679128.339  
       536.422         419.027          38.000          38.000  
 109119456.554 7  85028216.041 7  20764743.146                    20764759.208  
       306.246         238.484          46.000          42.000  
 113990941.465 7  88824175.185 7  21691756.167                    21691770.982  
     -1569.035       -1222.812          45.000          45.000  
 110666304.571 7  86233542.269 7  21059098.466                    21059113.402  
     -1616.926       -1259.891          43.000          44.000  
 117756648.641 7  91758513.431 6  22408345.580                    22408365.000  
      3096.660        2412.957          43.000          41.000  
 127506828.116 7  99356047.028 6  24263744.254                    24263761.879  
     -3162.555       -2465.238          42.000          38.000  
 24  1 10  3 15 22.8000000  0  6G24G10G18G23G32G15
 129689526.774 6 101056866.045 6  24679096.850                    24679117.895  
       539.406         418.797          37.000          39.000  
 109119425.945 7  85028192.212 7  20764737.649                    20764753.428  
       306.215         238.789          46.000          42.000  
 113991098.337 7  88824297.414 7  21691785.870                    21691801.004  
     -1568.887       -1222.371          45.000          45.000  
 110666466.271 7  86233668.278 7  21059129.166                    21059143.855  
     -1616.824       -1259.988          43.000          44.000  
 117756338.889 7  91758272.046 6  22408286.559                    22408306.247  
      3097.043        2413.445          43.000          41.000  
 127507144.463 7  99356293.468 6  24263804.383                    24263822.195  
     -3163.086       -2464.039          42.000          38.000  
 24  1 10  3 15 22.9000000  0  6G24G10G18G23G32G15
 129689472.968 6 101056824.085 6  24679086.611                    24679107.648  
       538.238         419.609          37.000          38.000  
 109119395.329 7  85028168.357 7  20764731.823                    20764747.603  
       305.957         238.719          46.000          42.000  
 113991255.155 7  88824419.595 7  21691815.712                    21691830.842  
     -1568.242       -1221.824          45.000          45.000  
 110666627.929 7  86233794.244 7  21059159.929                    21059174.617  
     -1616.727       -1259.586          43.000          44.000  
 117756029.143 7  91758030.675 6  22408227.616                    22408247.302  
      3097.250        2413.434          43.000          41.000  
 127507460.678 7  99356539.918 6  24263864.556                    24263882.381  
     -3162.195       -2463.848          42.000          38.000  
 24  1 10  3 15 23.0000000  0  6G24G10G18G23G32G15
 129689419.054 6 101056782.012 6  24679076.375                    24679097.264  
       538.625         419.922          36.000          38.000  
 109119364.751 7  85028144.527 7  20764726.184                    20764742.033  
       305.629         238.129          46.000          42.000  
 113991411.930 7  88824541.724 7  21691845.920                    21691860.706  
     -1567.895       -1221.668          45.000          45.000  
 110666789.611 7  86233920.208 7  21059190.500                    21059205.269  
     -1616.812       -1259.754          43.000          44.000  
 117755719.384 7  91757789.338 6  22408168.647                    22408188.833  
      3097.668        2413.867          42.000          41.000  
 127507776.897 7  99356786.233 6  24263925.286                    24263942.338  
     -3162.254       -2464.348          42.000          38.000  
 24  1 10  3 15 23.1000000  0  6G24G10G18G23G32G15
 129689365.262 6 101056740.100 6  24679066.139                    24679087.029  
       538.570         419.715          37.000          38.000  
 109119334.224 7  85028120.749 7  20764720.375                    20764736.226  
       305.574         237.941          46.000          42.000  
 113991568.721 7  88824663.935 7  21691875.757                    21691890.551  
     -1567.723       -1221.613          45.000          45.000  
 110666951.267 7  86234046.210 7  21059221.262                    21059236.040  
     -1616.785       -1259.922          43.000          44.000  
 117755409.647 7  91757547.955 6  22408109.706                    22408129.885  
      3097.473        2413.547          43.000          41.000  
 127508093.152 7  99357032.813 6  24263985.467                    24264002.556  
     -3162.102       -2464.438          42.000          38.000  
 24  1 10  3 15 23.2000000  0  6G24G10G18G23G32G15
 129689311.172 6 101056698.011 6  24679055.674                    24679077.070  
       540.258         420.332          37.000          38.000  
 109119303.738 7  85028096.983 7  20764714.253                    20764730.383  
       304.754         237.535          46.000          42.000  
 113991725.484 7  88824786.074 7  21691905.127                    21691920.457  
     -1567.520       -1221.461          45.000          45.000  
 110667112.992 7  86234172.228 7  21059251.624                    21059266.807  
     -1617.070       -1259.949          43.000          43.000  
 117755099.917 7  91757306.627 6  22408051.110                    22408070.935  
      3097.543        2413.895          43.000          41.000  
 127508409.358 7  99357279.078 6  24264045.115                    24264063.087  
     -3162.918       -2463.996          42.000          38.000  
 24  1 10  3 15 23.3000000  0  6G24G10G18G23G32G15
 129689257.351 6 101056655.977 6  24679045.432                    24679066.805  
       539.453         420.520          38.000          38.000  
 109119273.244 7  85028073.235 7  20764708.451                    20764724.584  
       304.820         237.711          46.000          42.000  
 113991882.162 7  88824908.166 7  21691934.942                    21691950.273  
     -1566.941       -1220.918          45.000          45.000  
 110667274.655 7  86234298.182 7  21059282.387                    21059297.567  
     -1616.797       -1259.930          44.000          43.000  
 117754790.129 7  91757065.227 6  22407992.160                    22408011.982  
      3098.000        2413.965          43.000          41.000  
 127508725.637 7  99357525.642 6  24264105.301                    24264123.300  
     -3162.371       -2464.445          42.000          38.000  
 24  1 10  3 15 23.4000000  0  6G24G10G18G23G32G15
 129689203.179 6 101056613.813 6  24679035.037                    24679056.149  
       540.043         421.652          37.000          38.000  
 109119242.805 7  85028049.510 7  20764702.408                    20764718.954  
       304.695         237.488          46.000          42.000  
 113992038.769 7  88825030.186 7  21691964.891                    21691980.079  
     -1566.008       -1220.285          45.000          45.000  
 110667436.327 7  86234424.163 7  21059313.652                    21059328.473  
     -1616.566       -1259.637          43.000          43.000  
 117754480.306 7  91756823.812 6  22407932.819                    22407953.034  
      3098.207        2414.266          43.000          41.000  
 127509041.797 7  99357771.941 6  24264165.254                    24264184.277  
     -3161.840       -2463.562          42.000          38.000  
 24  1 10  3 15 23.5000000  0  6G24G10G18G23G32G15
 129689149.052 6 101056571.677 6  24679024.737                    24679045.859  
       541.832         421.191          38.000          39.000  
 109119212.348 7  85028025.783 7  20764696.612                    20764713.159  
       304.465         237.332          46.000          42.000  
 113992195.321 7  88825152.194 7  21691994.682                    21692009.875  
     -1565.465       -1219.910          45.000          45.000  
 110667597.952 7  86234550.099 7  21059344.409                    21059359.228  
     -1616.289       -1259.410          43.000          43.000  
 117754170.458 7  91756582.376 6  22407873.857                    22407894.073  
      3098.246        2414.066          43.000          41.000  
 127509357.953 7  99358018.271 6  24264225.416                    24264244.433  
     -3161.309       -2463.016          42.000          38.000  
 24  1 10  3 15 23.6000000  0  6G24G10G18G23G32G15
 129689094.892 6 101056529.475 6  24679014.431                    24679035.451  
       541.367         422.426          38.000          39.000  
 109119181.972 7  85028002.108 7  20764690.809                    20764707.323  
       303.766         236.652          46.000          42.000  
 113992351.830 7  88825274.137 7  21692024.535                    21692039.811  
     -1565.238       -1219.457          46.000          45.000  
 110667759.618 7  86234676.089 7  21059375.188                    21059389.840  
     -1616.492       -1259.668          43.000          43.000  
 117753860.656 7  91756340.959 6  22407815.013                    22407835.460  
      3098.324        2414.609          43.000          41.000  
 127509674.090 7  99358264.677 6  24264285.778                    24264304.827  
     -3161.402       -2464.320          42.000          38.000  
 24  1 10  3 15 23.7000000  0  6G24G10G18G23G32G15
 129689040.703 6 101056487.115 6  24679004.119                    24679025.107  
       542.922         422.930          39.000          39.000  
 109119151.650 7  85027978.483 7  20764685.039                    20764701.554  
       303.352         236.371          46.000          42.000  
 113992508.305 7  88825396.072 7  21692054.311                    21692069.588  
     -1564.535       -1219.176          46.000          45.000  
 110667921.260 7  86234802.030 7  21059405.948                    21059420.596  
     -1616.598       -1259.625          43.000          43.000  
 117753550.826 7  91756099.548 6  22407756.055                    22407776.505  
      3098.203        2413.957          42.000          41.000  
 127509990.203 7  99358510.942 6  24264345.932                    24264364.967  
     -3160.926       -2462.637          43.000          38.000  
 24  1 10  3 15 23.8000000  0  6G24G10G18G23G32G15
 129688986.293 6 101056444.890 6  24678993.320                    24679014.818  
       542.777         422.613          38.000          39.000  
 109119121.370 7  85027954.877 7  20764679.441                    20764695.633  
       302.566         235.516          46.000          42.000  
 113992664.705 7  88825517.934 7  21692083.878                    21692099.145  
     -1564.211       -1218.816          46.000          45.000  
 110668082.897 7  86234928.016 7  21059436.839                    21059451.504  
     -1616.469       -1259.770          43.000          43.000  
 117753241.013 7  91755858.118 6  22407697.529                    22407717.194  
      3098.074        2413.926          42.000          41.000  
 127510306.321 7  99358757.321 6  24264406.361                    24264424.940  
     -3161.035       -2463.773          43.000          38.000  
 24  1 10  3 15 23.9000000  0  6G24G10G18G23G32G15
 129688931.974 6 101056402.508 6  24678982.983                    24679004.468  
       543.547         423.918          39.000          39.000  
 109119091.123 7  85027931.319 7  20764673.685                    20764689.879  
       302.430         235.730          46.000          42.000  
 113992821.049 7  88825639.777 7  21692113.629                    21692128.901  
     -1563.371       -1218.266          45.000          45.000  
 110668244.567 7  86235053.961 7  21059467.604                    21059482.261  
     -1616.457       -1259.543          43.000          43.000  
 117752931.153 7  91755616.654 6  22407638.564                    22407658.226  
      3098.336        2414.492          42.000          41.000  
 127510622.339 7  99359003.460 6  24264466.497                    24264485.050  
     -3160.477       -2461.523          43.000          38.000  
 24  1 10  3 15 24.0000000  0  6G24G10G18G23G32G15
 129688877.417 6 101056359.927 6  24678972.711                    24678994.397  
       545.703         425.289          39.000          39.000  
 109119060.956 7  85027907.803 7  20764668.280                    20764684.012  
       301.852         235.172          46.000          42.000  
 113992977.312 7  88825761.533 7  21692143.295                    21692158.932  
     -1562.695       -1217.844          45.000          45.000  
 110668406.203 7  86235179.921 7  21059498.135                    21059513.138  
     -1616.180       -1259.539          43.000          43.000  
 117752621.362 7  91755375.289 6  22407579.465                    22407598.681  
      3098.332        2414.039          42.000          41.000  
 127510938.332 7  99359249.747 6  24264526.715                    24264544.844  
     -3160.215       -2463.551          43.000          38.000  
 24  1 10  3 15 24.1000000  0  6G24G10G18G23G32G15
 129688822.893 6 101056317.496 6  24678962.335                    24678984.035  
       545.371         424.480          39.000          39.000  
 109119030.792 7  85027884.307 7  20764662.540                    20764678.274  
       301.645         235.000          46.000          42.000  
 113993133.510 7  88825883.233 7  21692173.018                    21692188.652  
     -1561.957       -1216.879          45.000          45.000  
 110668567.771 7  86235305.810 7  21059528.881                    21059543.882  
     -1616.125       -1259.176          43.000          43.000  
 117752311.468 7  91755133.816 6  22407520.494                    22407539.710  
      3098.594        2414.691          42.000          41.000  
 127511254.322 7  99359496.016 6  24264586.846                    24264604.986  
     -3159.871       -2461.820          43.000          38.000  
 24  1 10  3 15 24.2000000  0  6G24G10G18G23G32G15
 129688768.262 6 101056274.957 6  24678951.908                    24678973.936  
       546.539         425.516          39.000          39.000  
 109119000.682 7  85027860.846 7  20764656.678                    20764672.474  
       300.691         234.582          46.000          42.000  
 113993289.701 7  88826004.949 7  21692202.701                    21692218.181  
     -1561.590       -1217.004          45.000          45.000  
 110668729.388 7  86235431.738 7  21059559.776                    21059574.471  
     -1616.625       -1259.363          43.000          43.000  
 117752001.638 7  91754892.375 6  22407461.535                    22407480.912  
      3098.586        2414.574          42.000          41.000  
 127511570.280 7  99359742.144 6  24264646.775                    24264665.218  
     -3159.605       -2462.137          43.000          38.000  
 24  1 10  3 15 24.3000000  0  6G24G10G18G23G32G15
 129688713.575 6 101056232.303 6  24678941.502                    24678963.519  
       546.895         426.078          39.000          39.000  
 109118970.642 7  85027837.444 7  20764650.961                    20764666.759  
       300.215         233.973          46.000          42.000  
 113993445.830 7  88826126.618 7  21692232.412                    21692247.894  
     -1561.398       -1216.738          45.000          45.000  
 110668891.046 7  86235557.704 7  21059590.538                    21059605.233  
     -1616.090       -1259.641          43.000          43.000  
 117751691.809 7  91754650.965 6  22407402.577                    22407421.957  
      3098.469        2414.227          42.000          41.000  
 127511886.219 7  99359988.394 6  24264706.896                    24264725.354  
     -3159.238       -2461.844          42.000          38.000  
 24  1 10  3 15 24.4000000  0  6G24G10G18G23G32G15
 129688658.850 6 101056189.729 6  24678931.017                    24678953.052  
       547.262         425.770          38.000          39.000  
 109118940.670 7  85027814.067 7  20764645.133                    20764660.902  
       300.027         233.512          46.000          42.000  
 113993601.945 7  88826248.248 7  21692262.127                    21692277.316  
     -1561.051       -1216.492          45.000          45.000  
 110669052.705 7  86235683.704 7  21059620.926                    21059635.613  
     -1616.375       -1259.699          43.000          43.000  
 117751381.987 7  91754409.547 6  22407343.096                    22407362.907  
      3097.992        2414.484          43.000          41.000  
 127512202.141 7  99360234.570 6  24264766.920                    24264785.707  
     -3159.535       -2462.199          42.000          38.000  
 24  1 10  3 15 24.5000000  0  6G24G10G18G23G32G15
 129688604.119 6 101056147.024 6  24678920.603                    24678942.623  
       547.930         427.176          38.000          39.000  
 109118910.717 7  85027790.763 7  20764639.433                    20764655.211  
       299.191         233.301          46.000          42.000  
 113993758.019 7  88826369.853 7  21692291.827                    21692307.013  
     -1560.574       -1216.047          45.000          45.000  
 110669214.351 7  86235809.618 7  21059651.686                    21059666.362  
     -1616.617       -1259.586          43.000          43.000  
 117751072.133 7  91754168.078 6  22407284.133                    22407303.938  
      3098.496        2414.289          43.000          41.000  
 127512518.049 7  99360480.611 6  24264827.036                    24264845.793  
     -3159.031       -2460.809          43.000          38.000  
 24  1 10  3 15 24.6000000  0  6G24G10G18G23G32G15
 129688549.312 6 101056104.285 6  24678910.126                    24678932.319  
       548.711         426.840          39.000          38.000  
 109118880.795 7  85027767.417 7  20764633.825                    20764649.509  
       299.039         233.070          46.000          42.000  
 113993914.060 7  88826491.455 7  21692321.505                    21692336.803  
     -1560.188       -1215.766          45.000          45.000  
 110669375.978 7  86235935.578 7  21059682.537                    21059697.279  
     -1616.625       -1259.914          43.000          43.000  
 117750762.276 7  91753926.660 6  22407225.419                    22407245.184  
      3098.906        2414.496          43.000          41.000  
 127512833.937 7  99360726.941 6  24264887.452                    24264906.098  
     -3159.020       -2462.859          43.000          39.000  
 24  1 10  3 15 24.7000000  0  6G24G10G18G23G32G15
 129688494.435 6 101056061.544 6  24678899.683                    24678921.881  
       548.414         427.488          39.000          38.000  
 109118850.983 7  85027744.200 7  20764628.152                    20764643.839  
       298.387         232.523          46.000          42.000  
 113994070.060 7  88826613.025 7  21692351.191                    21692366.492  
     -1560.121       -1215.746          45.000          45.000  
 110669537.751 7  86236061.662 7  21059713.321                    21059728.070  
     -1616.906       -1259.863          43.000          43.000  
 117750452.438 7  91753685.227 6  22407166.459                    22407186.224  
      3098.461        2414.133          42.000          41.000  
 127513149.851 7  99360972.937 6  24264947.568                    24264966.173  
     -3159.363       -2460.430          43.000          38.000  
 24  1 10  3 15 24.8000000  0  6G24G10G18G23G32G15
 129688439.535 6 101056018.812 6  24678889.190                    24678910.953  
       549.293         427.336          38.000          38.000  
 109118821.187 7  85027720.972 7  20764622.638                    20764638.479  
       297.883         232.180          46.000          42.000  
 113994226.053 7  88826734.561 7  21692380.961                    21692396.469  
     -1560.012       -1215.535          45.000          45.000  
 110669699.426 7  86236187.603 7  21059744.329                    21059758.709  
     -1616.828       -1260.070          43.000          43.000  
 117750142.580 7  91753443.748 6  22407107.768                    22407127.346  
      3098.391        2414.363          42.000          41.000  
 127513465.749 7  99361219.111 6  24265007.877                    24265026.346  
     -3159.000       -2462.016          42.000          38.000  
 24  1 10  3 15 24.9000000  0  6G24G10G18G23G32G15
 129688384.657 6 101055975.980 6  24678878.747                    24678900.493  
       548.617         428.238          38.000          38.000  
 109118791.430 7  85027697.785 7  20764616.975                    20764632.817  
       297.566         231.852          46.000          42.000  
 113994382.005 7  88826856.087 7  21692410.638                    21692426.147  
     -1559.383       -1215.242          45.000          45.000  
 110669861.113 7  86236313.620 7  21059775.097                    21059789.484  
     -1617.039       -1260.070          44.000          43.000  
 117749832.775 7  91753202.367 6  22407048.814                    22407068.398  
      3098.543        2414.410          42.000          41.000  
 127513781.631 7  99361465.369 6  24265067.987                    24265086.484  
     -3158.906       -2462.027          42.000          39.000  
 24  1 10  3 15 25.0000000  0  6G24G10G18G23G32G15
 129688329.664 6 101055933.114 6  24678868.430                    24678889.408  
       550.195         428.254          38.000          38.000  
 109118761.686 7  85027674.611 7  20764611.479                    20764627.204  
       297.336         231.594          46.000          42.000  
 113994537.895 7  88826977.576 7  21692440.529                    21692455.824  
     -1559.098       -1214.910          45.000          45.000  
 110670022.822 7  86236439.599 7  21059805.948                    21059820.296  
     -1617.047       -1259.957          44.000          43.000  
 117749522.852 7  91752960.872 6  22406989.893                    22407009.376  
      3098.535        2414.410          42.000          41.000  
 127514097.518 7  99361711.382 6  24265127.638                    24265146.602  
     -3158.844       -2460.738          43.000          38.000  
 24  1 10  3 15 25.1000000  0  6G24G10G18G23G32G15
 129688274.677 6 101055890.357 6  24678857.966                    24678878.966  
       550.000         428.273          39.000          38.000  
 109118732.010 7  85027651.488 7  20764605.832                    20764621.557  
       296.840         231.320          46.000          42.000  
 113994693.810 7  88827099.041 7  21692470.199                    21692485.487  
     -1558.770       -1214.481          45.000          45.000  
 110670184.497 7  86236565.601 7  21059836.713                    21059851.067  
     -1617.031       -1259.801          44.000          43.000  
 117749213.016 7  91752719.429 6  22406930.933                    22406950.413  
      3098.703        2414.578          43.000          41.000  
 127514413.389 7  99361957.633 6  24265187.746                    24265206.739  
     -3158.410       -2461.578          42.000          38.000  
 24  1 10  3 15 25.2000000  0  6G24G10G18G23G32G15
 129688219.602 6 101055847.380 6  24678847.424                    24678868.681  
       551.188         429.266          39.000          38.000  
 109118702.352 7  85027628.393 7  20764599.704                    20764615.878  
       296.785         231.016          46.000          42.000  
 113994849.617 7  88827220.466 7  21692499.879                    21692515.210  
     -1558.340       -1214.461          45.000          45.000  
 110670346.203 7  86236691.590 7  21059867.282                    21059881.897  
     -1617.121       -1260.305          43.000          43.000  
 117748903.159 7  91752477.984 6  22406871.758                    22406891.575  
      3098.727        2414.457          42.000          41.000  
 127514729.245 7  99362203.697 6  24265247.953                    24265266.752  
     -3158.684       -2460.898          42.000          38.000  
 24  1 10  3 15 25.3000000  0  6G24G10G18G23G32G15
 129688164.463 6 101055804.437 6  24678836.931                    24678858.194  
       550.527         429.539          38.000          38.000  
 109118672.693 7  85027605.245 7  20764594.060                    20764610.225  
       296.555         231.078          46.000          42.000  
 113995005.410 7  88827341.857 7  21692529.526                    21692544.855  
     -1557.809       -1213.676          45.000          45.000  
 110670507.882 7  86236817.596 7  21059898.048                    21059912.669  
     -1616.895       -1259.973          43.000          43.000  
 117748593.223 7  91752236.468 6  22406812.779                    22406832.594  
      3099.293        2414.844          42.000          41.000  
 127515045.073 7  99362449.797 6  24265308.053                    24265326.852  
     -3158.547       -2461.004          42.000          38.000  
 24  1 10  3 15 25.4000000  0  6G24G10G18G23G32G15
 129688109.395 6 101055761.491 6  24678826.319                    24678848.035  
       551.637         429.430          39.000          38.000  
 109118643.057 7  85027582.175 7  20764588.233                    20764604.498  
       296.535         230.883          46.000          42.000  
 113995161.142 7  88827463.202 7  21692559.129                    21692574.356  
     -1557.195       -1213.461          45.000          45.000  
 110670669.609 7  86236943.602 7  21059928.808                    21059943.668  
     -1616.707       -1259.637          43.000          43.000  
 117748283.302 7  91751994.972 6  22406753.827                    22406773.673  
      3099.047        2415.148          42.000          41.000  
 127515360.894 7  99362695.869 6  24265368.222                    24265386.665  
     -3158.195       -2460.820          42.000          38.000  
 24  1 10  3 15 25.5000000  0  6G24G10G18G23G32G15
 129688054.130 6 101055718.498 6  24678815.803                    24678837.535  
       551.887         429.891          38.000          38.000  
 109118613.442 7  85027559.097 7  20764582.597                    20764598.862  
       296.176         230.625          46.000          42.000  
 113995316.826 7  88827584.543 7  21692588.755                    21692603.989  
     -1556.949       -1213.191          45.000          45.000  
 110670831.255 7  86237069.564 7  21059959.568                    21059974.429  
     -1616.570       -1259.711          43.000          43.000  
 117747973.390 7  91751753.501 6  22406694.852                    22406714.703  
      3099.227        2414.867          42.000          41.000  
 127515676.689 7  99362941.974 6  24265428.316                    24265446.766  
     -3158.176       -2461.363          42.000          39.000  
 24  1 10  3 15 25.6000000  0  6G24G10G18G23G32G15
 129687998.968 6 101055675.424 6  24678805.399                    24678827.243  
       551.719         430.309          38.000          38.000  
 109118583.862 7  85027536.023 7  20764577.094                    20764593.282  
       295.727         230.551          46.000          42.000  
 113995472.493 7  88827705.831 7  21692618.581                    21692633.312  
     -1556.754       -1213.141          45.000          45.000  
 110670992.951 7  86237195.574 7  21059990.549                    21060004.913  
     -1616.582       -1259.914          43.000          43.000  
 117747663.463 7  91751511.996 6  22406636.063                    22406655.655  
      3099.387        2414.910          42.000          41.000  
 127515992.493 7  99363188.039 6  24265488.513                    24265507.037  
     -3157.961       -2460.621          42.000          38.000  
 24  1 10  3 15 25.7000000  0  6G24G10G18G23G32G15
 129687943.708 6 101055632.434 6  24678794.884                    24678816.744  
       552.398         430.637          38.000          38.000  
 109118554.317 7  85027513.029 7  20764571.471                    20764587.666  
       295.562         230.289          46.000          42.000  
 113995628.173 7  88827827.140 7  21692648.205                    21692662.936  
     -1556.668       -1213.074          45.000          45.000  
 110671154.646 7  86237321.587 7  21060021.319                    21060035.686  
     -1616.777       -1259.953          43.000          43.000  
 117747353.580 7  91751270.527 6  22406577.094                    22406596.685  
      3098.879        2414.625          42.000          41.000  
 127516308.319 7  99363434.128 6  24265548.613                    24265567.135  
     -3158.074       -2459.988          42.000          38.000  
 24  1 10  3 15 25.8000000  0  6G24G10G18G23G32G15
 129687888.436 6 101055589.339 6  24678784.233                    24678805.751  
       552.613         430.297          38.000          38.000  
 109118524.807 7  85027490.043 7  20764565.778                    20764582.045  
       295.367         230.016          46.000          43.000  
 113995783.811 7  88827948.387 7  21692677.768                    21692692.499  
     -1556.746       -1212.766          45.000          45.000  
 110671316.315 7  86237447.536 7  21060052.091                    21060065.788  
     -1616.793       -1259.922          43.000          43.000  
 117747043.702 7  91751029.057 6  22406517.743                    22406537.599  
      3098.938        2414.594          42.000          41.000  
 127516624.116 7  99363680.314 6  24265609.011                    24265627.185  
     -3158.051       -2461.980          42.000          39.000  
 24  1 10  3 15 25.9000000  0  6G24G10G18G23G32G15
 129687833.171 6 101055546.286 6  24678773.716                    24678795.237  
       552.543         431.062          38.000          38.000  
 109118495.304 7  85027467.033 7  20764560.164                    20764576.426  
       295.211         229.848          46.000          42.000  
 113995939.413 7  88828069.658 7  21692707.378                    21692722.115  
     -1556.199       -1212.406          45.000          45.000  
 110671477.983 7  86237573.525 7  21060082.855                    21060096.556  
     -1616.688       -1259.691          43.000          43.000  
 117746733.796 7  91750787.566 6  22406458.770                    22406478.624  
      3098.945        2414.828          42.000          41.000  
 127516939.793 7  99363926.138 6  24265669.083                    24265687.218  
     -3157.715       -2459.383          43.000          38.000  
 24  1 10  3 15 26.0000000  0  6G24G10G18G23G32G15
 129687777.810 6 101055503.095 6  24678763.049                    24678784.955  
       553.086         431.332          38.000          38.000  
 109118465.819 7  85027444.070 7  20764554.982                    20764570.857  
       295.094         229.742          46.000          43.000  
 113996094.999 7  88828190.878 7  21692736.907                    21692751.835  
     -1556.055       -1212.309          45.000          45.000  
 110671639.631 7  86237699.462 7  21060113.155                    21060127.553  
     -1616.773       -1259.668          43.000          43.000  
 117746423.886 7  91750546.106 6  22406399.734                    22406419.915  
      3099.059        2414.922          42.000          41.000  
 127517255.584 7  99364172.313 6  24265728.949                    24265746.774  
     -3157.598       -2460.945          42.000          38.000  
 24  1 10  3 15 26.1000000  0  6G24G10G18G23G32G15
 129687722.516 6 101055460.095 6  24678752.527                    24678774.454  
       552.988         430.590          38.000          38.000  
 109118436.375 7  85027421.145 7  20764549.379                    20764565.258  
       294.699         229.340          46.000          43.000  
 113996250.596 7  88828312.143 7  21692766.516                    21692781.450  
     -1555.895       -1212.285          46.000          45.000  
 110671801.303 7  86237825.426 7  21060143.920                    21060158.315  
     -1616.645       -1259.812          43.000          43.000  
 117746114.013 7  91750304.613 6  22406340.767                    22406360.940  
      3098.852        2414.645          42.000          41.000  
 127517571.371 7  99364418.397 6  24265789.042                    24265806.871  
     -3157.594       -2460.855          42.000          38.000  
 24  1 10  3 15 26.2000000  0  6G24G10G18G23G32G15
 129687667.166 6 101055416.906 6  24678742.095                    24678764.157  
       553.242         431.777          38.000          38.000  
 109118406.928 7  85027398.171 7  20764543.784                    20764559.406  
       294.582         229.379          46.000          42.000  
 113996406.166 7  88828433.383 7  21692796.073                    21692811.339  
     -1555.859       -1212.473          46.000          45.000  
 110671962.994 7  86237951.438 7  21060174.704                    21060189.432  
     -1616.859       -1259.957          43.000          43.000  
 117745804.124 6  91750063.147 6  22406282.016                    22406301.714  
      3098.801        2414.660          41.000          41.000  
 127517887.148 7  99364664.401 6  24265849.038                    24265866.986  
     -3157.621       -2460.312          42.000          38.000  
 24  1 10  3 15 26.3000000  0  6G24G10G18G23G32G15
 129687611.835 6 101055373.796 6  24678731.566                    24678753.629  
       553.211         430.980          38.000          38.000  
 109118377.483 7  85027375.231 7  20764538.180                    20764553.804  
       294.484         229.527          46.000          43.000  
 113996561.701 7  88828554.564 7  21692825.670                    21692840.932  
     -1555.555       -1212.031          45.000          45.000  
 110672124.657 7  86238077.411 7  21060205.468                    21060220.196  
     -1616.680       -1259.582          43.000          43.000  
 117745494.288 6  91749821.729 6  22406223.056                    22406242.757  
      3098.773        2414.578          41.000          41.000  
 127518202.854 7  99364910.518 6  24265909.115                    24265927.090  
     -3157.410       -2460.957          43.000          38.000  
 24  1 10  3 15 26.4000000  0  6G24G10G18G23G32G15
 129687556.421 6 101055330.667 6  24678721.381                    24678743.143  
       553.688         431.629          38.000          38.000  
 109118348.037 7  85027352.276 7  20764532.601                    20764548.237  
       294.410         229.355          46.000          43.000  
 113996717.240 7  88828675.760 7  21692855.167                    21692870.350  
     -1555.430       -1211.844          45.000          45.000  
 110672286.305 7  86238203.371 7  21060236.346                    21060251.465  
     -1616.496       -1259.523          43.000          43.000  
 117745184.400 6  91749580.257 6  22406164.047                    22406183.600  
      3098.598        2414.461          41.000          41.000  
 127518518.592 7  99365156.413 6  24265969.393                    24265987.008  
     -3157.340       -2459.957          43.000          38.000  
 24  1 10  3 15 26.5000000  0  6G24G10G18G23G32G15
 129687501.050 6 101055287.480 6  24678710.844                    24678732.597  
       553.914         431.531          38.000          38.000  
 109118318.594 7  85027329.359 7  20764526.998                    20764542.640  
       294.449         229.512          46.000          43.000  
 113996872.729 7  88828796.914 7  21692884.755                    21692899.937  
     -1555.168       -1211.664          45.000          45.000  
 110672447.966 7  86238329.343 7  21060267.109                    21060282.228  
     -1616.477       -1259.324          43.000          43.000  
 117744874.547 6  91749338.816 6  22406105.084                    22406124.637  
      3098.770        2414.656          41.000          41.000  
 127518834.283 7  99365402.402 6  24266029.467                    24266047.081  
     -3157.109       -2459.949          43.000          38.000  
 24  1 10  3 15 26.6000000  0  6G24G10G18G23G32G15
 129687445.658 6 101055244.324 6  24678700.256                    24678722.128  
       553.688         431.625          37.000          38.000  
 109118289.149 7  85027306.406 7  20764521.348                    20764537.176  
       294.500         229.430          46.000          43.000  
 113997028.229 7  88828918.093 7  21692914.487                    21692929.835  
     -1555.035       -1211.660          45.000          45.000  
 110672609.491 7  86238455.205 7  21060297.776                    21060312.684  
     -1616.000       -1259.176          43.000          43.000  
 117744564.678 6  91749097.360 6  22406046.133                    22406065.366  
      3098.590        2414.582          41.000          41.000  
 127519149.984 7  99365648.470 6  24266089.324                    24266106.900  
     -3157.020       -2460.227          43.000          38.000  
 24  1 10  3 15 26.7000000  0  6G24G10G18G23G32G15
 129687390.274 6 101055201.138 6  24678689.717                    24678711.581  
       553.855         431.457          38.000          39.000  
 109118259.706 7  85027283.452 7  20764515.745                    20764531.570  
       294.441         229.387          46.000          43.000  
 113997183.694 7  88829039.225 7  21692944.071                    21692959.417  
     -1554.867       -1211.356          45.000          45.000  
 110672771.163 7  86238581.195 7  21060328.541                    21060343.452  
     -1616.148       -1259.332          43.000          44.000  
 117744254.815 6  91748855.904 6  22405987.168                    22406006.401  
      3098.500        2414.367          41.000          41.000  
 127519465.674 7  99365894.477 6  24266149.398                    24266166.977  
     -3156.891       -2459.918          43.000          38.000  
 24  1 10  3 15 26.8000000  0  6G24G10G18G23G32G15
 129687334.752 6 101055157.924 6  24678679.292                    24678700.880  
       554.609         432.504          38.000          38.000  
 109118230.240 7  85027260.485 7  20764510.138                    20764526.266  
       294.609         229.617          46.000          43.000  
 113997339.114 7  88829160.330 7  21692973.818                    21692988.812  
     -1554.441       -1210.988          45.000          45.000  
 110672932.643 7  86238707.013 7  21060359.277                    21060374.272  
     -1615.734       -1258.731          43.000          43.000  
 117743944.994 6  91748614.484 6  22405928.344                    22405947.123  
      3098.672        2414.500          41.000          41.000  
 127519781.291 7  99366140.335 6  24266209.216                    24266227.081  
     -3156.715       -2459.453          43.000          38.000  
 24  1 10  3 15 26.9000000  0  6G24G10G18G23G32G15
 129687279.330 6 101055114.713 6  24678668.746                    24678690.327  
       554.422         432.055          38.000          38.000  
 109118200.722 7  85027237.534 7  20764504.521                    20764520.661  
       294.930         229.754          46.000          43.000  
 113997494.480 7  88829281.415 7  21693003.383                    21693018.382  
     -1554.016       -1210.637          45.000          45.000  
 110673094.159 7  86238832.851 7  21060390.013                    21060405.003  
     -1615.340       -1258.375          43.000          43.000  
 117743635.066 6  91748372.986 6  22405869.367                    22405888.147  
      3098.809        2414.715          41.000          41.000  
 127520096.929 7  99366386.282 6  24266269.280                    24266287.143  
     -3156.391       -2459.020          43.000          38.000  
 24  1 10  3 15 27.0000000  0  6G24G10G18G23G32G15
 129687223.840 6 101055071.472 6  24678658.225                    24678679.353  
       554.703         432.309          37.000          38.000  
 109118171.222 7  85027214.509 7  20764498.782                    20764514.944  
       294.996         230.051          46.000          43.000  
 113997649.853 7  88829402.476 7  21693032.575                    21693047.439  
     -1553.770       -1210.609          45.000          45.000  
 110673255.701 7  86238958.750 7  21060420.652                    21060435.811  
     -1615.219       -1258.531          43.000          43.000  
 117743325.236 6  91748131.551 6  22405810.307                    22405829.420  
      3098.629        2414.594          41.000          41.000  
 127520412.583 7  99366632.259 6  24266329.339                    24266347.042  
     -3156.438       -2459.727          42.000          38.000  
 24  1 10  3 15 27.1000000  0  6G24G10G18G23G32G15
 129687168.387 6 101055028.265 6  24678647.673                    24678668.801  
       554.660         432.605          37.000          38.000  
 109118141.685 7  85027191.488 7  20764493.161                    20764509.322  
       295.137         230.000          46.000          43.000  
 113997805.193 7  88829523.508 7  21693062.135                    21693076.996  
     -1553.578       -1210.430          45.000          45.000  
 110673417.136 7  86239084.514 7  21060451.372                    21060466.524  
     -1614.797       -1258.285          43.000          43.000  
 117743015.302 6  91747890.061 6  22405751.328                    22405770.446  
      3098.805        2414.695          41.000          41.000  
 127520728.186 7  99366878.222 6  24266389.396                    24266407.108  
     -3156.098       -2458.645          42.000          38.000  
 24  1 10  3 15 27.2000000  0  6G24G10G18G23G32G15
 129687112.831 6 101054985.009 6  24678636.976                    24678658.136  
       554.938         432.770          37.000          38.000  
 109118112.149 7  85027168.477 7  20764487.470                    20764503.531  
       295.453         230.414          46.000          43.000  
 113997960.476 7  88829644.526 7  21693091.926                    21693106.721  
     -1553.082       -1209.957          45.000          45.000  
 110673578.619 7  86239210.372 7  21060482.577                    21060496.939  
     -1614.430       -1257.750          43.000          43.000  
 117742705.427 6  91747648.605 6  22405692.494                    22405711.738  
      3098.922        2414.770          41.000          41.000  
 127521043.755 7  99367124.116 6  24266449.424                    24266467.689  
     -3155.988       -2458.965          43.000          38.000  
 24  1 10  3 15 27.3000000  0  6G24G10G18G23G32G15
 129687057.315 6 101054941.751 6  24678626.412                    24678647.572  
       555.203         432.430          37.000          38.000  
 109118082.591 7  85027145.438 7  20764481.846                    20764497.905  
       295.480         230.363          46.000          43.000  
 113998115.742 7  88829765.490 7  21693121.473                    21693136.262  
     -1553.039       -1209.961          45.000          45.000  
 110673739.977 7  86239336.108 7  21060513.283                    21060527.645  
     -1614.203       -1257.777          43.000          43.000  
 117742395.538 6  91747407.123 6  22405633.524                    22405652.765  
      3099.000        2414.723          41.000          41.000  
 127521359.291 7  99367370.000 6  24266509.468                    24266527.737  
     -3155.812       -2459.613          42.000          38.000  
 24  1 10  3 15 27.4000000  0  6G24G10G18G23G32G15
 129687001.793 6 101054898.524 6  24678615.854                    24678636.938  
       555.285         432.020          37.000          38.000  
 109118052.979 7  85027122.390 7  20764476.054                    20764492.565  
       295.715         230.484          46.000          43.000  
 113998270.993 7  88829886.479 7  21693150.914                    21693165.746  
     -1552.680       -1209.801          45.000          45.000  
 110673901.359 7  86239461.842 7  21060543.774                    21060558.452  
     -1614.062       -1257.391          43.000          43.000  
 117742085.645 6  91747165.634 6  22405574.373                    22405593.518  
      3098.926        2414.840          41.000          41.000  
 127521674.902 7  99367615.901 6  24266569.746                    24266587.452  
     -3155.773       -2458.816          43.000          38.000  
 24  1 10  3 15 27.5000000  0  6G24G10G18G23G32G15
 129686946.362 6 101054855.229 6  24678605.306                    24678626.365  
       554.781         432.941          38.000          38.000  
 109118023.427 7  85027099.341 7  20764470.431                    20764486.936  
       295.605         230.414          46.000          43.000  
 113998426.269 7  88830007.458 7  21693180.462                    21693195.291  
     -1552.707       -1209.676          45.000          45.000  
 110674062.710 7  86239587.593 7  21060574.478                    21060589.162  
     -1613.852       -1257.566          43.000          43.000  
 117741775.756 6  91746924.192 6  22405515.404                    22405534.555  
      3098.832        2414.457          41.000          41.000  
 127521990.410 7  99367861.720 6  24266629.785                    24266647.484  
     -3155.738       -2459.090          43.000          38.000  
 24  1 10  3 15 27.6000000  0  6G24G10G18G23G32G15
 129686890.779 6 101054811.960 6  24678594.495                    24678616.196  
       555.203         432.531          37.000          38.000  
 109117993.871 7  85027076.305 7  20764464.963                    20764481.287  
       295.668         230.332          46.000          43.000  
 113998581.524 7  88830128.450 7  21693209.897                    21693224.846  
     -1552.547       -1209.887          45.000          45.000  
 110674224.085 7  86239713.323 7  21060605.257                    21060620.187  
     -1613.906       -1257.453          43.000          44.000  
 117741465.934 6  91746682.751 6  22405456.157                    22405475.577  
      3098.555        2414.410          41.000          41.000  
 127522306.026 7  99368107.684 6  24266690.282                    24266707.465  
     -3155.715       -2458.867          43.000          38.000  
 24  1 10  3 15 27.7000000  0  6G24G10G18G23G32G15
 129686835.344 6 101054768.831 6  24678583.946                    24678605.664  
       555.113         432.199          37.000          38.000  
 109117964.295 7  85027053.274 7  20764459.335                    20764475.663  
       295.672         230.426          46.000          43.000  
 113998736.790 7  88830249.444 7  21693239.443                    21693254.394  
     -1552.625       -1209.930          45.000          45.000  
 110674385.476 7  86239839.103 7  21060635.969                    21060650.904  
     -1613.773       -1257.418          43.000          44.000  
 117741156.110 6  91746441.344 6  22405397.200                    22405416.623  
      3098.223        2413.938          41.000          41.000  
 127522621.543 7  99368353.553 6  24266750.323                    24266767.508  
     -3155.676       -2459.207          43.000          38.000  
 24  1 10  3 15 27.8000000  0  6G24G10G18G23G32G15
 129686779.848 6 101054725.508 6  24678572.862                    24678594.990  
       555.086         431.852          37.000          38.000  
 109117934.722 7  85027030.225 7  20764453.754                    20764469.979  
       295.719         230.445          46.000          43.000  
 113998892.020 7  88830370.388 7  21693269.279                    21693283.836  
     -1552.477       -1209.684          45.000          45.000  
 110674546.878 7  86239964.853 7  21060666.901                    21060681.863  
     -1613.481       -1257.106          43.000          44.000  
 117740846.308 6  91746199.913 6  22405338.411                    22405357.788  
      3098.203        2414.258          41.000          41.000  
 127522937.093 7  99368599.457 6  24266810.534                    24266827.561  
     -3155.504       -2458.840          43.000          38.000  
 24  1 10  3 15 27.9000000  0  6G24G10G18G23G32G15
 129686724.343 6 101054682.247 6  24678562.299                    24678584.425  
       555.188         432.781          38.000          38.000  
 109117905.158 7  85027007.180 7  20764448.128                    20764464.351  
       295.676         230.473          46.000          43.000  
 113999047.277 7  88830491.393 7  21693298.824                    21693313.387  
     -1552.527       -1209.793          45.000          45.000  
 110674708.164 7  86240090.526 7  21060697.593                    21060712.554  
     -1613.434       -1257.320          43.000          44.000  
 117740536.514 6  91745958.526 6  22405279.459                    22405298.839  
      3098.004        2413.977          41.000          41.000  
 127523252.650 7  99368845.315 6  24266870.583                    24266887.602  
     -3155.516       -2458.711          43.000          38.000  
 24  1 10  3 15 28.0000000  0  6G24G10G18G23G32G15
 129686668.906 6 101054639.073 6  24678551.945                    24678573.749  
       554.684         432.453          38.000          38.000  
 109117875.621 7  85026984.156 7  20764442.406                    20764458.823  
       295.547         230.121          46.000          43.000  
 113999202.566 7  88830612.380 7  21693328.148                    21693343.425  
     -1552.738       -1209.984          45.000          45.000  
 110674869.511 7  86240216.261 7  21060728.507                    21060743.322  
     -1613.543       -1257.281          43.000          44.000  
 117740226.768 6  91745717.167 6  22405220.360                    22405239.998  
      3097.625        2413.594          41.000          41.000  
 127523568.212 7  99369091.233 6  24266930.538                    24266947.564  
     -3155.438       -2458.848          43.000          38.000  
 24  1 10  3 15 28.1000000  0  6G24G10G18G23G32G15
 129686613.455 6 101054595.889 6  24678541.393                    24678563.203  
       554.789         431.422          37.000          38.000  
 109117846.074 7  85026961.169 7  20764436.783                    20764453.209  
       295.453         230.082          46.000          43.000  
 113999357.831 7  88830733.372 7  21693357.694                    21693372.973  
     -1552.715       -1210.082          45.000          45.000  
 110675030.857 7  86240341.977 7  21060759.210                    21060774.023  
     -1613.684       -1257.340          43.000          44.000  
 117739917.090 6  91745475.868 6  22405161.430                    22405181.071  
      3097.301        2413.273          41.000          41.000  
 127523883.753 7  99369337.070 6  24266990.584                    24267007.600  
     -3155.461       -2459.086          43.000          38.000  
 24  1 10  3 15 28.2000000  0  6G24G10G18G23G32G15
 129686558.007 6 101054552.608 6  24678530.592                    24678552.837  
       554.535         432.250          38.000          38.000  
 109117816.523 7  85026938.118 7  20764431.457                    20764447.392  
       295.441         230.273          46.000          43.000  
 113999513.133 7  88830854.367 7  21693387.200                    21693402.263  
     -1552.895       -1210.035          45.000          45.000  
 110675192.188 7  86240467.717 7  21060790.106                    21060804.300  
     -1613.320       -1257.270          43.000          44.000  
 117739607.401 6  91745234.547 6  22405102.607                    22405122.270  
      3097.016        2413.160          41.000          41.000  
 127524199.284 7  99369582.952 6  24267050.534                    24267067.842  
     -3155.426       -2458.922          43.000          38.000  
 24  1 10  3 15 28.3000000  0  6G24G10G18G23G32G15
 129686502.571 6 101054509.472 6  24678520.043                    24678542.302  
       554.195         431.543          37.000          38.000  
 109117787.033 7  85026915.133 7  20764425.845                    20764441.779  
       295.230         229.918          46.000          43.000  
 113999668.450 7  88830975.417 7  21693416.756                    21693431.825  
     -1553.016       -1210.391          45.000          45.000  
 110675353.579 7  86240593.446 7  21060820.818                    21060835.005  
     -1613.590       -1257.535          43.000          44.000  
 117739297.764 6  91744993.282 6  22405043.686                    22405063.351  
      3096.695        2412.621          41.000          41.000  
 127524514.825 7  99369828.803 6  24267110.579                    24267127.881  
     -3155.527       -2458.832          43.000          38.000  
 24  1 10  3 15 28.4000000  0  6G24G10G18G23G32G15
 129686447.168 6 101054466.303 6  24678509.477                    24678531.971  
       554.148         431.898          37.000          38.000  
 109117757.584 7  85026892.198 7  20764420.085                    20764435.741  
       294.523         229.531          46.000          43.000  
 113999823.848 7  88831096.501 7  21693446.007                    21693461.059  
     -1554.207       -1210.856          45.000          45.000  
 110675514.973 7  86240719.221 7  21060851.397                    21060865.533  
     -1614.477       -1257.984          43.000          44.000  
 117738988.189 6  91744752.066 6  22404985.002                    22405004.061  
      3095.859        2412.172          41.000          41.000  
 127524830.395 7  99370074.740 6  24267170.575                    24267188.074  
     -3155.691       -2459.289          43.000          38.000  
 24  1 10  3 15 28.5000000  0  6G24G10G18G23G32G15
 129686391.809 6 101054423.171 6  24678498.942                    24678521.438  
       553.949         431.234          37.000          38.000  
 109117728.140 7  85026869.238 7  20764414.482                    20764430.133  
       294.137         229.395          46.000          43.000  
 113999979.237 7  88831217.574 7  21693475.576                    21693490.626  
     -1554.066       -1211.051          45.000          45.000  
 110675676.425 7  86240845.004 7  21060882.121                    21060896.250  
     -1614.211       -1258.051          43.000          44.000  
 117738678.640 6  91744510.831 6  22404926.097                    22404945.149  
      3095.172        2411.793          40.000          41.000  
 127525145.979 7  99370320.618 6  24267230.629                    24267248.120  
     -3155.660       -2459.027          43.000          38.000  
 24  1 10  3 15 28.6000000  0  6G24G10G18G23G32G15
 129686336.470 6 101054380.007 6  24678488.661                    24678510.467  
       553.637         431.508          37.000          38.000  
 109117698.671 7  85026846.279 7  20764408.765                    20764424.620  
       294.688         229.723          46.000          43.000  
 114000134.645 7  88831338.669 7  21693505.173                    21693520.245  
     -1553.887       -1210.719          45.000          45.000  
 110675837.851 7  86240970.826 7  21060912.534                    21060927.024  
     -1613.891       -1257.434          43.000          44.000  
 117738369.121 6  91744269.640 6  22404867.306                    22404886.474  
      3095.699        2412.133          41.000          41.000  
 127525461.513 7  99370566.446 6  24267290.423                    24267308.115  
     -3155.473       -2457.984          43.000          38.000  
 24  1 10  3 15 28.7000000  0  6G24G10G18G23G32G15
 129686281.004 6 101054336.867 6  24678478.107                    24678499.932  
       554.359         431.395          37.000          37.000  
 109117669.152 7  85026823.302 7  20764403.147                    20764419.009  
       294.973         229.699          46.000          43.000  
 114000290.025 7  88831459.744 7  21693534.740                    21693549.813  
     -1553.836       -1210.668          45.000          45.000  
 110675999.188 7  86241096.526 7  21060943.235                    21060957.721  
     -1613.758       -1257.418          42.000          44.000  
 117738059.558 6  91744028.442 6  22404808.399                    22404827.571  
      3095.430        2411.781          41.000          41.000  
 127525777.046 7  99370812.411 6  24267350.467                    24267368.182  
     -3155.312       -2458.508          43.000          38.000  
 24  1 10  3 15 28.8000000  0  6G24G10G18G23G32G15
 129686225.632 6 101054293.626 6  24678467.601                    24678489.833  
       554.035         431.758          37.000          38.000  
 109117639.616 7  85026800.291 7  20764397.433                    20764413.515  
       295.234         230.312          46.000          43.000  
 114000445.373 7  88831580.818 7  21693564.240                    21693579.428  
     -1553.457       -1210.680          45.000          45.000  
 110676160.502 7  86241222.199 7  21060974.128                    21060988.178  
     -1613.531       -1256.871          42.000          44.000  
 117737750.062 6  91743787.276 6  22404749.449                    22404768.801  
      3095.484        2411.941          40.000          41.000  
 127526092.566 7  99371058.229 6  24267410.337                    24267428.581  
     -3155.156       -2458.867          43.000          38.000  
 24  1 10  3 15 28.9000000  0  6G24G10G18G23G32G15
 129686170.285 6 101054250.579 6  24678457.069                    24678479.320  
       553.863         430.887          37.000          38.000  
 109117610.111 7  85026777.280 7  20764391.818                    20764407.895  
       295.250         230.176          46.000          43.000  
 114000600.797 7  88831701.909 7  21693593.816                    21693608.999  
     -1553.949       -1210.973          45.000          45.000  
 110676321.836 7  86241347.943 7  21061004.829                    21061018.886  
     -1613.363       -1257.117          42.000          44.000  
 117737440.554 6  91743546.115 6  22404690.551                    22404709.907  
      3095.086        2411.512          41.000          41.000  
 127526408.045 7  99371304.069 6  24267470.370                    24267488.617  
     -3155.137       -2458.969          43.000          38.000  
 24  1 10  3 15 29.0000000  0  6G24G10G18G23G32G15
 129686115.021 6 101054207.437 6  24678446.513                    24678469.151  
       553.242         431.039          36.000          37.000  
 109117580.552 7  85026754.251 7  20764386.326                    20764402.380  
       295.305         230.094          46.000          43.000  
 114000756.234 7  88831823.025 7  21693623.566                    21693638.655  
     -1554.184       -1211.160          45.000          45.000  
 110676483.235 7  86241473.707 7  21061035.386                    21061049.692  
     -1613.320       -1257.215          42.000          44.000  
 117737131.103 6  91743304.978 6  22404631.649                    22404651.323  
      3094.691        2411.367          41.000          41.000  
 127526723.592 7  99371549.923 6  24267530.839                    24267548.829  
     -3155.480       -2458.562          43.000          38.000  
 24  1 10  3 15 29.1000000  0  6G24G10G18G23G32G15
 129686059.736 6 101054164.409 6  24678435.993                    24678458.644  
       553.113         430.328          36.000          38.000  
 109117551.009 7  85026731.235 7  20764380.704                    20764396.760  
       295.453         230.129          46.000          43.000  
 114000911.667 7  88831944.147 7  21693653.144                    21693668.234  
     -1554.328       -1211.356          44.000          45.000  
 110676644.552 7  86241599.383 7  21061066.083                    21061080.383  
     -1613.352       -1257.207          43.000          44.000  
 117736821.644 6  91743063.806 6  22404572.761                    22404592.427  
      3094.531        2411.117          41.000          41.000  
 127527039.158 7  99371795.838 6  24267590.889                    24267608.884  
     -3155.578       -2458.703          43.000          38.000  
 24  1 10  3 15 29.2000000  0  6G24G10G18G23G32G15
 129686004.526 6 101054121.350 6  24678425.549                    24678447.550  
       552.539         430.340          36.000          37.000  
 109117521.481 7  85026708.223 7  20764374.859                    20764391.093  
       295.488         230.184          46.000          43.000  
 114001067.166 7  88832065.312 7  21693682.821                    21693697.512  
     -1554.633       -1211.566          44.000          45.000  
 110676805.953 7  86241725.169 7  21061096.562                    21061111.016  
     -1613.488       -1257.320          42.000          44.000  
 117736512.249 6  91742822.747 6  22404513.799                    22404533.847  
      3094.352        2410.941          41.000          41.000  
 127527354.745 7  99372041.750 6  24267650.701                    24267668.813  
     -3155.535       -2459.082          43.000          38.000  
 24  1 10  3 15 29.3000000  0  6G24G10G18G23G32G15
 129685949.337 6 101054078.372 6  24678415.047                    24678437.054  
       552.168         430.051          36.000          37.000  
 109117491.914 7  85026685.176 7  20764369.233                    20764385.465  
       295.418         230.379          46.000          43.000  
 114001222.665 7  88832186.472 7  21693712.411                    21693727.100  
     -1554.875       -1211.602          45.000          45.000  
 110676967.294 7  86241850.858 7  21061127.265                    21061141.711  
     -1613.801       -1257.246          43.000          44.000  
 117736202.824 6  91742581.633 6  22404454.918                    22404474.964  
      3094.207        2410.988          41.000          41.000  
 127527670.257 7  99372287.607 6  24267710.741                    24267728.854  
     -3155.527       -2458.820          43.000          38.000  
 24  1 10  3 15 29.4000000  0  6G24G10G18G23G32G15
 129685894.064 5 101054035.356 6  24678404.646                    24678426.471  
       552.266         430.137          35.000          37.000  
 109117462.355 7  85026662.141 7  20764363.834                    20764380.004  
       295.621         230.430          46.000          43.000  
 114001378.164 7  88832307.654 7  21693742.080                    21693756.983  
     -1555.016       -1211.859          44.000          45.000  
 110677128.592 7  86241976.571 7  21061157.951                    21061173.122  
     -1613.387       -1257.262          42.000          44.000  
 117735893.453 6  91742340.569 6  22404395.906                    22404416.110  
      3094.039        2410.871          41.000          41.000  
 127527985.872 7  99372533.527 6  24267771.129                    24267788.824  
     -3155.758       -2459.039          42.000          38.000  
 24  1 10  3 15 29.5000000  0  6G24G10G18G23G32G15
 129685839.016 5 101053992.401 6  24678394.171                    24678415.981  
       551.520         429.707          35.000          37.000  
 109117432.803 7  85026639.115 7  20764358.211                    20764374.380  
       295.578         230.289          46.000          43.000  
 114001533.763 7  88832428.889 7  21693771.690                    21693786.590  
     -1555.449       -1212.090          44.000          45.000  
 110677289.983 7  86242102.325 7  21061188.663                    21061203.832  
     -1613.742       -1257.551          42.000          44.000  
 117735584.119 6  91742099.556 6  22404337.041                    22404357.252  
      3093.848        2410.430          41.000          41.000  
 127528301.508 7  99372779.491 6  24267831.192                    24267848.891  
     -3156.137       -2459.637          42.000          38.000  
 24  1 10  3 15 29.6000000  0  6G24G10G18G23G32G15
 129685783.928 5 101053949.476 6  24678383.821                    24678405.616  
       551.102         429.055          35.000          37.000  
 109117403.231 7  85026616.080 7  20764352.732                    20764368.544  
       295.688         230.352          46.000          43.000  
 114001689.260 7  88832550.067 7  21693801.053                    21693816.472  
     -1555.469       -1212.242          44.000          45.000  
 110677451.262 7  86242227.996 7  21061219.462                    21061234.507  
     -1613.582       -1257.219          43.000          44.000  
 117735274.714 6  91741858.434 6  22404278.257                    22404298.422  
      3093.566        2410.652          41.000          41.000  
 127528617.096 7  99373025.382 6  24267891.020                    24267908.979  
     -3156.145       -2459.211          42.000          38.000  
 24  1 10  3 15 29.7000000  0  6G24G10G18G23G32G15
 129685728.787 5 101053906.543 6  24678373.328                    24678395.131  
       551.086         429.375          35.000          37.000  
 109117373.673 7  85026593.051 7  20764347.107                    20764362.920  
       295.688         230.273          46.000          43.000  
 114001844.926 7  88832671.357 7  21693830.675                    21693846.092  
     -1555.891       -1212.598          44.000          45.000  
 110677612.697 7  86242353.797 7  21061250.182                    21061265.229  
     -1613.645       -1257.746          43.000          44.000  
 117734965.428 6  91741617.438 6  22404219.402                    22404239.568  
      3093.336        2410.160          41.000          41.000  
 127528932.744 7  99373271.360 6  24267951.086                    24267969.050  
     -3156.297       -2459.879          42.000          38.000  
 24  1 10  3 15 29.8000000  0  6G24G10G18G23G32G15
 129685673.870 6 101053863.756 6  24678363.190                    24678385.104  
       550.773         427.492          36.000          37.000  
 109117344.250 7  85026570.126 7  20764341.281                    20764357.689  
       293.621         229.418          46.000          43.000  
 114002000.698 7  88832792.741 7  21693860.443                    21693875.563  
     -1557.941       -1213.820          44.000          45.000  
 110677774.212 7  86242479.669 7  21061281.004                    21061295.843  
     -1615.809       -1258.652          42.000          44.000  
 117734656.267 6  91741376.546 6  22404160.711                    22404180.685  
      3091.312        2409.254          41.000          41.000  
 127529248.473 7  99373517.371 6  24268011.253                    24268029.050  
     -3157.398       -2460.500          42.000          38.000  
 24  1 10  3 15 29.9000000  0  6G24G10G18G23G32G15
 129685619.080 5 101053820.999 6  24678352.764                    24678374.662  
       547.266         427.062          35.000          37.000  
 109117315.047 7  85026547.348 7  20764335.724                    20764352.126  
       291.180         227.461          46.000          43.000  
 114002156.757 7  88832914.353 7  21693890.140                    21693905.262  
     -1561.516       -1215.957          44.000          45.000  
 110677936.030 7  86242605.727 7  21061311.796                    21061326.627  
     -1619.180       -1260.492          42.000          44.000  
 117734347.276 6  91741135.734 6  22404101.912                    22404121.877  
      3089.098        2407.762          41.000          41.000  
 127529564.379 7  99373763.569 6  24268071.368                    24268089.174  
     -3158.672       -2461.516          42.000          38.000  
 24  1 10  3 15 30.0000000  0  6G24G10G18G23G32G15
 129685564.382 5 101053778.404 6  24678342.441                    24678364.151  
       545.844         426.434          35.000          37.000  
 109117286.115 7  85026524.827 7  20764330.258                    20764346.392  
       287.996         225.266          46.000          43.000  
 114002313.057 7  88833036.143 7  21693919.898                    21693934.622  
     -1564.816       -1217.992          44.000          45.000  
 110678098.050 7  86242731.992 7  21061342.472                    21061357.244  
     -1621.477       -1262.859          42.000          44.000  
 117734038.454 6  91740895.128 6  22404042.778                    22404062.782  
      3086.801        2405.887          41.000          41.000  
 127529880.381 7  99374009.728 6  24268131.337                    24268149.601  
     -3160.379       -2462.160          42.000          38.000  
 24  1 10  3 15 30.1000000  0  6G24G10G18G23G32G15
 129685509.805 5 101053735.931 6  24678332.055                    24678353.778  
       545.191         424.500          35.000          37.000  
 109117257.487 7  85026502.508 7  20764324.810                    20764340.941  
       284.566         222.871          46.000          43.000  
 114002469.703 7  88833158.190 7  21693949.707                    21693964.427  
     -1567.930       -1220.969          44.000          45.000  
 110678260.469 7  86242858.593 7  21061373.379                    21061388.161  
     -1626.184       -1265.652          42.000          44.000  
 117733729.912 6  91740654.690 6  22403984.065                    22404004.065  
      3083.617        2403.742          41.000          41.000  
 127530196.524 7  99374256.134 6  24268191.497                    24268209.776  
     -3162.504       -2464.027          43.000          38.000  
 24  1 10  3 15 30.2000000  0  6G24G10G18G23G32G15
 129685455.584 6 101053693.700 6  24678321.644                    24678343.598  
       541.832         422.750          36.000          38.000  
 109117229.087 7  85026480.369 7  20764319.078                    20764335.496  
       282.742         220.844          46.000          43.000  
 114002626.583 7  88833280.477 7  21693979.521                    21693994.392  
     -1570.246       -1223.305          44.000          45.000  
 110678423.173 7  86242985.281 7  21061404.176                    21061418.990  
     -1628.562       -1267.613          42.000          45.000  
 117733421.555 6  91740414.405 6  22403925.293                    22403945.455  
      3081.965        2402.367          41.000          41.000  
 127530512.774 7  99374502.619 6  24268251.771                    24268270.025  
     -3162.641       -2464.703          42.000          38.000  
 24  1 10  3 15 30.3000000  0  6G24G10G18G23G32G15
 129685401.359 6 101053651.320 6  24678311.325                    24678333.248  
       542.812         423.277          36.000          37.000  
 109117200.863 7  85026458.384 7  20764313.707                    20764330.127  
       281.414         219.754          46.000          43.000  
 114002783.742 7  88833402.833 7  21694009.427                    21694024.273  
     -1572.547       -1224.098          44.000          45.000  
 110678585.950 7  86243112.069 7  21061435.152                    21061449.953  
     -1628.301       -1268.500          42.000          45.000  
 117733113.328 6  91740174.222 6  22403866.639                    22403886.800  
      3082.258        2401.344          40.000          41.000  
 127530829.210 7  99374749.135 6  24268311.987                    24268330.226  
     -3165.273       -2465.250          43.000          38.000  
 24  1 10  3 15 30.4000000  0  6G24G10G18G23G32G15
 129685347.197 5 101053609.128 6  24678301.253                    24678323.007  
       540.828         422.180          35.000          37.000  
 109117172.677 7  85026436.462 7  20764308.359                    20764324.929  
       282.230         219.566          46.000          43.000  
 114002941.007 7  88833525.439 7  21694039.127                    21694054.402  
     -1573.219       -1225.820          43.000          44.000  
 110678748.933 7  86243239.091 7  21061466.151                    21061480.887  
     -1630.301       -1269.324          42.000          45.000  
 117732805.267 6  91739934.188 6  22403808.462                    22403828.290  
      3080.188        2400.625          41.000          41.000  
 127531145.672 7  99374995.557 6  24268372.551                    24268390.140  
     -3165.086       -2464.801          44.000          37.000  
 24  1 10  3 15 30.5000000  0  6G24G10G18G23G32G15
 129685293.172 5 101053567.002 6  24678290.972                    24678312.720  
       540.391         421.406          34.000          36.000  
 109117144.491 7  85026414.482 7  20764302.995                    20764319.562  
       281.863         219.691          46.000          43.000  
 114003098.348 7  88833648.022 7  21694069.069                    21694084.338  
     -1573.352       -1225.938          43.000          44.000  
 110678911.878 7  86243366.010 7  21061497.158                    21061511.882  
     -1629.410       -1269.484          42.000          46.000  
 117732497.230 6  91739694.180 6  22403749.845                    22403769.678  
      3080.406        2400.297          41.000          41.000  
 127531462.052 7  99375242.135 6  24268432.757                    24268450.357  
     -3163.430       -2465.648          43.000          37.000  
 24  1 10  3 15 30.6000000  0  6G24G10G18G23G32G15
 129685239.351 5 101053524.886 5  24678280.840                    24678301.630  
       536.719         421.000          32.000          35.000  
 109117116.160 7  85026392.387 7  20764298.112                    20764314.181  
       284.137         220.617          45.000          44.000  
 114003255.923 7  88833770.838 7  21694099.078                    21694114.011  
     -1576.801       -1227.469          43.000          43.000  
 110679074.698 7  86243492.897 7  21061528.220                    21061543.440  
     -1627.344       -1269.254          43.000          46.000  
 117732189.225 6  91739454.165 6  22403691.515                    22403710.798  
      3080.070        2399.844          41.000          41.000  
 127531778.664 6  99375488.990 6  24268493.279                    24268510.141  
     -3166.492       -2467.141          41.000          37.000  
 24  1 10  3 15 30.7000000  0  6G24G10G18G23G32G15
 129685185.639 5 101053483.109 5  24678270.619                    24678291.427  
       537.176         418.023          31.000          35.000  
 109117087.771 7  85026370.336 7  20764292.709                    20764308.797  
       284.465         221.297          45.000          44.000  
 114003413.470 7  88833893.544 7  21694129.058                    21694143.977  
     -1575.223       -1228.094          43.000          43.000  
 110679237.708 7  86243619.978 7  21061559.240                    21061574.474  
     -1630.215       -1269.481          43.000          46.000  
 117731881.325 6  91739214.260 6  22403632.923                    22403652.211  
      3078.742        2399.391          41.000          41.000  
 127532095.206 6  99375735.531 6  24268553.515                    24268570.349  
     -3165.949       -2466.625          41.000          37.000  
 24  1 10  3 15 30.8000000  0  6G24G10G18G23G32G15
 129685132.112 5 101053441.480 5  24678260.300                    24678281.089  
       534.680         416.801          32.000          35.000  
 109117059.319 7  85026348.128 7  20764286.850                    20764303.428  
       284.723         222.129          45.000          44.000  
 114003571.251 7  88834016.516 7  21694159.465                    21694174.469  
     -1578.254       -1229.281          42.000          43.000  
 110679400.534 7  86243746.792 7  21061590.326                    21061605.303  
     -1627.754       -1269.305          43.000          46.000  
 117731573.486 6  91738974.370 6  22403574.211                    22403593.588  
      3078.719        2399.145          41.000          40.000  
 127532411.797 6  99375982.312 6  24268613.511                    24268631.131  
     -3165.504       -2466.797          40.000          36.000  
 24  1 10  3 15 30.9000000  0  6G24G10G18G23G32G15
 129685078.710 5 101053399.963 5  24678250.138                    24678270.950  
       532.883         415.371          32.000          35.000  
 109117030.749 7  85026325.804 7  20764281.413                    20764297.976  
       286.035         223.047          45.000          44.000  
 114003729.191 6  88834139.664 7  21694189.520                    21694204.543  
     -1580.383       -1230.461          41.000          42.000  
 110679563.465 7  86243873.758 7  21061621.331                    21061636.309  
     -1629.270       -1269.250          44.000          46.000  
 117731265.688 6  91738734.543 6  22403515.639                    22403535.020  
      3077.438        2397.965          41.000          40.000  
 127532728.482 6  99376229.087 6  24268673.774                    24268691.396  
     -3167.246       -2468.012          41.000          36.000  
 24  1 10  3 15 31.0000000  0  6G24G10G18G23G32G15
 129685025.648 5 101053358.580 5  24678240.174                    24678260.875  
       530.008         413.426          33.000          35.000  
 109117001.942 7  85026303.422 7  20764275.947                    20764292.565  
       288.660         223.934          45.000          44.000  
 114003887.182 6  88834262.714 7  21694219.530                    21694235.077  
     -1580.625       -1231.695          41.000          42.000  
 110679726.351 7  86244000.717 7  21061652.390                    21061667.165  
     -1628.699       -1269.262          45.000          46.000  
 117730957.964 6  91738494.736 6  22403457.073                    22403476.129  
      3076.797        2398.082          41.000          40.000  
 127533045.312 7  99376476.006 6  24268734.330                    24268752.032  
     -3168.438       -2468.652          42.000          37.000  
 24  1 10  3 15 31.1000000  0  6G24G10G18G23G32G15
 129684972.730 5 101053317.397 5  24678230.104                    24678250.818  
       528.441         412.480          32.000          35.000  
 109116973.180 7  85026281.018 7  20764270.474                    20764287.093  
       287.883         224.426          45.000          44.000  
 114004045.298 7  88834385.931 6  21694249.619                    21694265.168  
     -1581.488       -1232.254          42.000          41.000  
 110679889.238 7  86244127.607 7  21061683.386                    21061698.153  
     -1628.797       -1269.410          45.000          46.000  
 117730650.283 6  91738255.009 6  22403398.523                    22403417.585  
      3076.355        2397.230          41.000          40.000  
 127533362.191 7  99376722.876 6  24268794.630                    24268812.320  
     -3169.547       -2469.293          42.000          37.000  
 24  1 10  3 15 31.2000000  0  6G24G10G18G23G32G15
 129684919.987 5 101053276.183 5  24678220.106                    24678240.995  
       525.840         411.602          32.000          34.000  
 109116944.306 7  85026258.474 7  20764265.354                    20764281.635  
       288.797         225.117          45.000          45.000  
 114004203.756 6  88834509.375 6  21694279.936                    21694294.994  
     -1584.992       -1234.090          41.000          41.000  
 110680052.185 7  86244254.620 7  21061714.815                    21061729.101  
     -1629.641       -1269.746          45.000          45.000  
 117730342.659 6  91738015.259 6  22403339.906                    22403359.364  
      3075.777        2397.242          41.000          41.000  
 127533679.170 7  99376969.871 6  24268855.230                    24268872.733  
     -3170.152       -2469.988          42.000          37.000  
 24  1 10  3 15 31.3000000  0  6G24G10G18G23G32G15
 129684867.521 5 101053235.400 5  24678210.122                    24678231.036  
       525.234         408.445          33.000          35.000  
 109116915.135 7  85026235.770 7  20764259.803                    20764276.090  
       293.203         226.707          45.000          45.000  
 114004362.169 6  88834632.872 6  21694310.081                    21694325.153  
     -1584.496       -1234.738          41.000          41.000  
 110680215.025 7  86244381.524 7  21061745.803                    21061760.092  
     -1628.074       -1268.941          44.000          45.000  
 117730035.085 6  91737775.591 6  22403281.377                    22403300.834  
      3075.938        2396.695          41.000          40.000  
 127533996.114 6  99377216.825 6  24268915.543                    24268933.041  
     -3169.488       -2469.086          41.000          36.000  
 24  1 10  3 15 31.4000000  0  6G24G10G18G23G32G15
 129684815.189 5 101053194.646 5  24678200.125                    24678221.372  
       523.234         407.594          32.000          35.000  
 109116885.974 7  85026213.077 7  20764254.262                    20764270.338  
       291.902         227.539          45.000          45.000  
 114004520.768 6  88834756.445 6  21694340.184                    21694355.597  
     -1586.539       -1236.520          41.000          41.000  
 110680377.887 7  86244508.433 7  21061776.482                    21061790.717  
     -1628.359       -1268.941          44.000          45.000  
 117729727.481 6  91737535.936 6  22403222.771                    22403242.292  
      3075.508        2396.449          41.000          41.000  
 127534313.167 6  99377463.736 5  24268975.353                    24268992.761  
     -3170.844       -2469.758          39.000          35.000  
 24  1 10  3 15 31.5000000  0  6G24G10G18G23G32G15
 129684763.082 5 101053154.010 5  24678190.209                    24678211.449  
       518.961         406.141          31.000          34.000  
 109116856.724 7  85026190.238 7  20764248.696                    20764264.760  
       292.926         228.109          45.000          45.000  
 114004679.616 6  88834880.243 6  21694370.411                    21694385.829  
     -1589.254       -1237.359          41.000          40.000  
 110680540.866 7  86244635.388 7  21061807.496                    21061821.721  
     -1630.805       -1269.797          44.000          45.000  
 117729420.074 6  91737296.393 6  22403164.274                    22403183.794  
      3073.773        2395.820          41.000          41.000  
 127534630.260 6  99377710.998 5  24269035.693                    24269053.145  
     -3169.758       -2472.137          37.000          34.000  
 24  1 10  3 15 31.6000000  0  6G24G10G18G23G32G15
 129684711.31435 101053113.572 5  24678180.639                    24678201.683  
       519.137         404.867          32.000          34.000  
 109116827.401 7  85026167.378 7  20764243.186                    20764258.935  
       293.121         228.203          45.000          45.000  
 114004838.542 6  88835004.010 6  21694400.716                    21694416.031  
     -1589.559       -1238.148          41.000          40.000  
 110680703.780 7  86244762.339 7  21061838.364                    21061852.685  
     -1628.981       -1269.809          44.000          45.000  
 117729112.634 6  91737056.877 6  22403105.551                    22403125.419  
      3074.500        2395.113          41.000          41.000  
 127534947.522 6  99377958.198 5  24269095.434                    24269112.608  
     -3174.047       -2471.801          36.000          35.000  
 24  1 10  3 15 31.7000000  0  6G24G10G18G23G32G15
 129684659.32325 101053073.163 5  24678170.745                    24678191.814  
       517.250         404.145          31.000          34.000  
 109116797.990 7  85026144.536 7  20764237.589                    20764253.357  
       294.730         228.867          45.000          45.000  
 114004997.604 6  88835128.005 6  21694430.985                    21694446.312  
     -1591.348       -1239.621          41.000          41.000  
 110680866.786 7  86244889.394 7  21061869.384                    21061883.713  
     -1629.984       -1270.078          45.000          45.000  
 117728805.234 6  91736817.347 6  22403047.055                    22403066.923  
      3073.688        2395.078          41.000          41.000  
 127535264.952 6  99378205.485 5  24269155.838                    24269172.998  
     -3174.223       -2473.375          36.000          35.000  
 24  1 10  3 15 31.8000000  0  6G24G10G18G23G32G15
 129684607.86825 101053032.944 5  24678160.782                    24678181.891  
       514.301         401.820          31.000          34.000  
 109116768.591 7  85026121.596 7  20764231.722                    20764248.059  
       293.758         229.328          45.000          45.000  
 114005156.798 7  88835252.037 6  21694460.888                    21694476.477  
     -1592.488       -1240.578          42.000          41.000  
 110681029.779 7  86245016.424 7  21061900.494                    21061915.204  
     -1630.188       -1270.453          43.000          46.000  
 117728497.910 6  91736577.871 6  22402988.424                    22403008.573  
      3073.426        2394.793          41.000          41.000  
 127535582.399 6  99378452.928 6  24269215.684                    24269233.262  
     -3174.875       -2473.910          37.000          36.000  
 24  1 10  3 15 31.9000000  0  6G24G10G18G23G32G15
 129684556.46025 101052992.919 5  24678150.999                    24678172.116  
       514.734         400.895          31.000          35.000  
 109116739.154 7  85026098.603 7  20764226.120                    20764242.444  
       294.422         229.410          46.000          44.000  
 114005316.100 7  88835376.136 6  21694491.202                    21694506.783  
     -1593.492       -1241.422          42.000          41.000  
 110681192.865 7  86245143.487 7  21061931.528                    21061946.234  
     -1631.223       -1270.738          42.000          46.000  
 117728190.604 6  91736338.402 6  22402929.946                    22402950.093  
      3072.965        2394.816          41.000          41.000  
 127535899.914 6  99378700.314 6  24269276.105                    24269293.676  
     -3175.027       -2473.949          38.000          36.000  
 24  1 10  3 15 32.0000000  0  6G24G10G18G23G32G15
 129684504.98035 101052952.864 6  24678141.297                    24678162.108  
       513.508         400.336          30.000          36.000  
 109116709.678 7  85026075.645 7  20764220.597                    20764236.596  
       294.926         229.926          46.000          44.000  
 114005475.478 7  88835500.359 7  21694521.585                    21694536.846  
     -1593.871       -1241.777          43.000          42.000  
 110681355.995 7  86245270.559 7  21061961.883                    21061976.961  
     -1631.270       -1270.770          43.000          46.000  
 117727883.266 7  91736098.904 6  22402871.751                    22402891.550  
      3073.090        2394.809          42.000          41.000  
 127536217.353 6  99378947.722 6  24269337.051                    24269354.736  
     -3174.512       -2473.844          39.000          36.000  
 24  1 10  3 15 32.1000000  0  6G24G10G18G23G32G15
 129684453.68825 101052912.924 6  24678131.536                    24678152.354  
       513.219         399.590          30.000          36.000  
 109116680.169 7  85026052.649 7  20764214.981                    20764230.980  
       295.250         229.723          46.000          44.000  
 114005634.977 7  88835624.589 7  21694551.937                    21694567.184  
     -1595.668       -1242.719          43.000          42.000  
 110681519.059 7  86245397.646 7  21061992.913                    21062007.997  
     -1630.496       -1271.090          43.000          46.000  
 117727576.007 7  91735859.449 6  22402813.281                    22402833.072  
      3072.766        2394.691          43.000          41.000  
 127536535.087 6  99379195.211 6  24269397.514                    24269415.175  
     -3177.914       -2475.113          41.000          36.000  
