     2.11           OBSERVATION DATA    M (MIXED)           RINEX VERSION / TYPE
GPP.DLL V3.2.21                         18 - MAR - 24 07:43 PGM / RUN BY / DATE 
                                                            MARKER NAME         
                                                            MARKER NUMBER       
                                                            OBSERVER / AGENCY   
6028C00128          APX-15v3 AV         5.50                REC # / TYPE / VERS 
                    E                                       ANT # / TYPE        
 -4667971.3695  2554554.5152 -3504733.1011                  APPROX POSITION XYZ 
        0.0000       -0.0000       -0.0000                  ANTENNA: DELTA H/E/N
     1     1                                                WAVELENGTH FACT L1/2
     8    L1    L2    C1    C2    D1    D2    S1    S2      # / TYPES OF OBSERV 
     0.100                                                  INTERVAL            
  2024     1    10     3    24    0.0000000     GPS         TIME OF FIRST OBS   
  2024     1    10     3    24   59.9000000     GPS         TIME OF LAST OBS    
    18                                                      LEAP SECONDS        
     7                                                      # OF SATELLITES     
   G08   600   600   600   600   600   600   600   600      PRN / # OF OBS      
   G10   600   600   600   600   600   600   600   600      PRN / # OF OBS      
   G15   600   600   600   600   600   600   600   600      PRN / # OF OBS      
   G18   600   600   600   600   600   600   600   600      PRN / # OF OBS      
   G23   600   600   600   600   600   600   600   600      PRN / # OF OBS      
   G24   600   600   600   600   600   600   600   600      PRN / # OF OBS      
   G32   600   600   600   600   600   600   600   600      PRN / # OF OBS      
                                                            END OF HEADER       
 24  1 10  3 24  0.0000000  0  7G08G18G23G24G10G15G32
 128124320.03125  99837217.284 5  24381259.387    24381280.313        2718.574  
      2119.055          30.000          35.000  
 113342276.433 7  88318720.667 7  21568319.620    21568335.327       -1914.453  
     -1491.820          43.000          43.000  
 110020641.830 7  85730427.542 7  20936232.549    20936246.968       -1889.508  
     -1472.551          42.000          42.000  
 127962468.245 5  99711107.710 6  24350448.328    24350469.254         142.770  
       111.789          35.000          38.000  
 107495100.695 7  83762484.011 7  20455639.574    20455655.714         -31.801  
       -25.145          46.000          45.000  
 127656964.583 5  99473033.622 5  24292317.758    24292334.302       -3421.012  
     -2665.031          32.000          34.000  
 114695820.612 7  89373454.878 7  21825887.568    21825906.748        2744.105  
      2137.941          45.000          43.000  
 24  1 10  3 24  0.1000000  0  7G08G18G23G24G10G15G32
 128124048.22325  99837005.408 5  24381207.663    24381228.570        2718.785  
      2118.648          30.000          35.000  
 113342467.840 7  88318869.839 7  21568356.044    21568371.756       -1913.918  
     -1491.695          43.000          44.000  
 110020830.852 7  85730574.877 7  20936268.518    20936282.949       -1890.184  
     -1472.836          42.000          43.000  
 127962453.896 5  99711096.553 6  24350445.598    24350466.529         143.039  
       111.559          35.000          38.000  
 107495104.037 7  83762486.667 7  20455640.210    20455656.363         -33.812  
       -26.078          46.000          45.000  
 127657306.664 5  99473300.222 5  24292382.854    24292399.408       -3421.199  
     -2665.941          32.000          35.000  
 114695546.120 7  89373241.021 7  21825835.334    21825854.522        2745.613  
      2138.801          46.000          43.000  
 24  1 10  3 24  0.2000000  0  7G08G18G23G24G10G15G32
 128123776.46224  99836793.677 5  24381156.175    24381177.004        2717.188  
      2117.094          29.000          34.000  
 113342659.229 7  88319018.980 7  21568392.777    21568407.943       -1913.965  
     -1491.219          44.000          44.000  
 110021019.902 7  85730722.146 7  20936305.048    20936319.999       -1890.934  
     -1472.988          43.000          43.000  
 127962439.629 5  99711085.406 6  24350442.656    24350463.776         143.492  
       111.234          35.000          38.000  
 107495107.382 7  83762489.251 7  20455639.909    20455657.229         -33.715  
       -26.074          46.000          45.000  
 127657648.850 5  99473566.921 5  24292447.657    24292464.828       -3422.555  
     -2666.766          33.000          35.000  
 114695271.561 7  89373027.037 7  21825783.369    21825802.304        2745.715  
      2140.039          46.000          43.000  
 24  1 10  3 24  0.3000000  0  7G08G18G23G24G10G15G32
 128123504.92824  99836582.060 5  24381104.504    24381125.325        2715.422  
      2116.504          29.000          34.000  
 113342850.619 7  88319168.124 7  21568429.197    21568444.366       -1913.809  
     -1491.488          44.000          44.000  
 110021209.074 7  85730869.548 7  20936341.046    20936355.996       -1892.027  
     -1474.145          43.000          43.000  
 127962425.323 5  99711074.282 6  24350439.934    24350461.059         142.148  
       111.227          35.000          38.000  
 107495110.731 7  83762491.896 7  20455640.546    20455657.875         -33.578  
       -26.379          46.000          45.000  
 127657991.223 5  99473833.617 5  24292512.809    24292529.958       -3423.527  
     -2667.289          32.000          35.000  
 114694996.891 7  89372812.958 7  21825731.101    21825750.024        2747.285  
      2140.586          46.000          43.000  
 24  1 10  3 24  0.4000000  0  7G08G18G23G24G10G15G32
 128123233.33624  99836370.475 5  24381053.041    24381073.685        2715.562  
      2115.980          29.000          34.000  
 113343041.987 7  88319317.253 7  21568465.910    21568480.574       -1913.605  
     -1491.359          44.000          43.000  
 110021398.241 7  85731016.980 7  20936377.559    20936391.673       -1891.996  
     -1474.418          43.000          43.000  
 127962411.130 6  99711063.197 6  24350437.116    24350458.063         142.672  
       111.004          36.000          39.000  
 107495114.210 7  83762494.588 7  20455640.872    20455657.594         -35.164  
       -26.680          46.000          44.000  
 127658333.614 5  99474100.500 5  24292578.050    24292595.337       -3424.004  
     -2668.391          33.000          35.000  
 114694722.066 7  89372598.862 7  21825679.311    21825697.458        2748.926  
      2141.160          46.000          43.000  
 24  1 10  3 24  0.5000000  0  7G08G18G23G24G10G15G32
 128122961.99824  99836158.970 5  24381001.407    24381022.033        2713.332  
      2115.023          29.000          33.000  
 113343233.346 7  88319466.333 7  21568502.324    21568516.981       -1913.695  
     -1490.777          44.000          43.000  
 110021587.508 7  85731164.492 7  20936413.576    20936427.697       -1892.949  
     -1474.898          42.000          43.000  
 127962396.869 6  99711052.103 6  24350434.402    24350455.354         142.047  
       110.562          36.000          39.000  
 107495117.677 7  83762497.262 7  20455641.532    20455658.247         -34.688  
       -27.219          46.000          44.000  
 127658676.160 5  99474367.378 5  24292643.234    24292660.511       -3425.480  
     -2669.004          34.000          35.000  
 114694447.146 7  89372384.658 7  21825626.995    21825645.147        2749.559  
      2142.082          46.000          43.000  
 24  1 10  3 24  0.6000000  0  7G08G18G23G24G10G15G32
 128122690.70324  99835947.683 5  24380949.742    24380969.802        2710.953  
      2113.012          29.000          33.000  
 113343424.712 7  88319615.410 7  21568538.842    21568553.309       -1913.754  
     -1490.828          44.000          43.000  
 110021776.935 7  85731312.038 7  20936448.997    20936463.065       -1894.539  
     -1475.508          42.000          42.000  
 127962382.723 5  99711041.064 6  24350431.788    24350452.885         141.234  
       110.570          35.000          39.000  
 107495121.255 7  83762500.057 7  20455642.760    20455658.555         -36.004  
       -27.586          47.000          44.000  
 127659018.808 5  99474634.341 6  24292708.523    24292725.644       -3426.805  
     -2669.559          34.000          36.000  
 114694172.175 7  89372170.392 7  21825574.576    21825593.056        2749.977  
      2142.879          46.000          43.000  
 24  1 10  3 24  0.7000000  0  7G08G18G23G24G10G15G32
 128122419.67324  99835736.415 5  24380898.167    24380918.208        2709.527  
      2112.918          29.000          33.000  
 113343616.078 7  88319764.542 7  21568575.257    21568589.728       -1913.520  
     -1491.250          44.000          43.000  
 110021966.422 7  85731459.674 7  20936485.055    20936499.119       -1895.301  
     -1476.324          43.000          43.000  
 127962368.620 5  99711030.023 6  24350429.105    24350450.188         140.969  
       110.273          35.000          39.000  
 107495124.936 7  83762502.924 7  20455643.460    20455659.255         -37.457  
       -28.621          47.000          44.000  
 127659361.554 5  99474901.364 6  24292773.746    24292790.853       -3428.551  
     -2670.129          34.000          36.000  
 114693897.103 7  89371956.057 7  21825522.232    21825540.713        2750.707  
      2142.930          46.000          43.000  
 24  1 10  3 24  0.8000000  0  7G08G18G23G24G10G15G32
 128122148.650 5  99835525.255 5  24380846.843    24380866.805        2710.824  
      2111.602          30.000          34.000  
 113343807.406 7  88319913.609 7  21568611.494    21568626.733       -1913.223  
     -1491.113          44.000          44.000  
 110022155.945 7  85731607.354 7  20936521.222    20936535.074       -1895.473  
     -1477.059          43.000          43.000  
 127962354.469 6  99711019.043 6  24350426.560    24350447.890         141.969  
       109.934          36.000          40.000  
 107495128.584 7  83762505.798 7  20455644.475    20455660.012         -36.527  
       -29.109          47.000          44.000  
 127659704.325 5  99475168.564 6  24292839.270    24292856.489       -3427.488  
     -2671.934          34.000          36.000  
 114693621.970 7  89371741.680 7  21825469.845    21825488.485        2751.438  
      2144.223          46.000          43.000  
 24  1 10  3 24  0.9000000  0  7G08G18G23G24G10G15G32
 128121877.750 4  99835314.138 5  24380795.292    24380815.248        2707.566  
      2111.184          29.000          34.000  
 113343998.754 7  88320062.775 7  21568647.906    21568663.161       -1913.484  
     -1490.945          44.000          44.000  
 110022345.550 7  85731755.161 7  20936557.303    20936571.170       -1896.582  
     -1477.984          42.000          43.000  
 127962340.287 6  99711008.056 6  24350423.862    24350445.206         141.727  
       109.832          36.000          40.000  
 107495132.365 7  83762508.754 7  20455645.194    20455660.734         -37.934  
       -28.980          47.000          44.000  
 127660047.259 5  99475435.701 5  24292904.528    24292921.727       -3429.465  
     -2671.637          32.000          35.000  
 114693346.733 7  89371527.142 7  21825417.469    21825436.092        2753.137  
      2144.984          46.000          43.000  
 24  1 10  3 24  1.0000000  0  7G08G18G23G24G10G15G32
 128121607.009 4  99835103.258 5  24380743.920    24380764.061        2707.777  
      2109.207          29.000          33.000  
 113344190.054 7  88320211.812 7  21568683.864    21568699.620       -1913.230  
     -1491.051          43.000          44.000  
 110022535.295 7  85731903.034 7  20936592.957    20936607.751       -1898.023  
     -1478.344          42.000          43.000  
 127962326.308 6  99710997.054 6  24350421.006    24350442.403         139.848  
       109.863          36.000          40.000  
 107495136.142 7  83762511.707 7  20455646.210    20455661.712         -37.828  
       -29.984          46.000          44.000  
 127660390.307 5  99475703.033 5  24292969.433    24292987.192       -3431.891  
     -2672.844          31.000          35.000  
 114693071.392 7  89371312.619 7  21825365.511    21825383.469        2753.719  
      2145.453          47.000          43.000  
 24  1 10  3 24  1.1000000  0  7G08G18G23G24G10G15G32
 128121336.399 4  99834892.374 5  24380692.425    24380712.561        2704.293  
      2108.848          29.000          33.000  
 113344381.397 7  88320360.967 7  21568720.276    21568736.045       -1913.062  
     -1490.793          43.000          44.000  
 110022725.046 7  85732050.819 7  20936629.065    20936643.842       -1897.762  
     -1478.137          42.000          43.000  
 127962312.222 6  99710986.100 6  24350418.326    24350439.727         141.117  
       109.688          36.000          39.000  
 107495140.047 7  83762514.712 7  20455646.953    20455662.446         -39.449  
       -29.902          47.000          44.000  
 127660733.443 5  99475970.348 6  24293034.730    24293052.473       -3430.465  
     -2673.066          31.000          36.000  
 114692795.923 7  89371098.006 7  21825313.091    21825331.059        2755.406  
      2146.270          46.000          43.000  
 24  1 10  3 24  1.2000000  0  7G08G18G23G24G10G15G32
 128121065.957 4  99834681.584 5  24380640.923    24380660.991        2704.012  
      2107.816          29.000          33.000  
 113344572.660 7  88320509.926 7  21568756.758    21568772.735       -1912.523  
     -1490.262          44.000          44.000  
 110022914.911 7  85732198.771 7  20936665.180    20936680.661       -1898.930  
     -1479.430          43.000          43.000  
 127962298.098 6  99710975.144 6  24350415.575    24350436.700         140.465  
       109.465          36.000          40.000  
 107495143.981 7  83762517.746 7  20455647.826    20455663.125         -39.453  
       -30.430          46.000          43.000  
 127661076.553 5  99476237.783 5  24293100.154    24293117.361       -3431.391  
     -2674.309          32.000          35.000  
 114692520.350 7  89370883.306 7  21825260.284    21825278.955        2755.969  
      2147.223          46.000          43.000  
 24  1 10  3 24  1.3000000  0  7G08G18G23G24G10G15G32
 128120795.561 4  99834470.883 5  24380589.468    24380609.535        2702.902  
      2107.105          29.000          33.000  
 113344763.916 7  88320658.990 7  21568793.152    21568809.138       -1911.926  
     -1490.176          44.000          44.000  
 110023104.806 7  85732346.751 7  20936701.316    20936716.799       -1899.137  
     -1480.094          43.000          43.000  
 127962284.082 6  99710964.216 6  24350412.908    24350434.032         140.363  
       109.258          36.000          40.000  
 107495147.904 7  83762520.839 7  20455648.573    20455663.880         -39.375  
       -30.840          46.000          44.000  
 127661419.691 5  99476505.236 6  24293165.451    24293182.676       -3431.914  
     -2674.320          31.000          36.000  
 114692244.651 7  89370668.457 7  21825207.820    21825226.487        2757.672  
      2148.344          46.000          43.000  
 24  1 10  3 24  1.4000000  0  7G08G18G23G24G10G15G32
 128120525.369 4  99834260.347 5  24380538.404    24380558.331        2702.160  
      2105.715          27.000          33.000  
 113344955.135 7  88320807.981 7  21568829.845    21568845.468       -1912.324  
     -1490.148          44.000          44.000  
 110023294.832 7  85732494.842 7  20936738.156    20936752.597       -1900.496  
     -1480.930          43.000          42.000  
 127962270.048 6  99710953.292 6  24350410.269    24350431.161         140.531  
       109.199          37.000          39.000  
 107495151.949 7  83762523.985 7  20455648.655    20455664.719         -40.645  
       -31.582          46.000          44.000  
 127661763.175 4  99476772.796 6  24293231.103    24293248.072       -3435.750  
     -2675.625          29.000          36.000  
 114691968.934 7  89370453.609 7  21825154.548    21825174.003        2757.078  
      2148.828          46.000          43.000  
 24  1 10  3 24  1.5000000  0  7G08G18G23G24G10G15G32
 128120255.170 4  99834049.820 5  24380486.986    24380506.918        2701.102  
      2105.129          29.000          34.000  
 113345146.425 7  88320957.068 7  21568866.246    21568881.877       -1912.895  
     -1490.484          44.000          44.000  
 110023484.893 7  85732642.933 7  20936774.323    20936788.762       -1900.855  
     -1480.715          43.000          43.000  
 127962256.057 6  99710942.332 6  24350407.606    24350428.484         139.215  
       109.520          37.000          39.000  
 107495156.025 7  83762527.161 7  20455649.431    20455665.494         -41.145  
       -31.332          46.000          44.000  
 127662106.681 5  99477040.497 6  24293296.470    24293313.447       -3434.535  
     -2677.062          30.000          36.000  
 114691693.111 7  89370238.606 7  21825102.061    21825121.497        2758.656  
      2149.285          46.000          43.000  
 24  1 10  3 24  1.6000000  0  7G08G18G23G24G10G15G32
 128119985.156 4  99833839.413 5  24380435.589    24380455.488        2700.539  
      2103.938          29.000          34.000  
 113345337.637 7  88321106.048 7  21568902.484    21568917.681       -1911.883  
     -1489.719          44.000          44.000  
 110023674.987 7  85732791.069 7  20936811.013    20936825.220       -1901.387  
     -1481.266          44.000          43.000  
 127962242.054 6  99710931.414 6  24350404.504    24350425.584         140.484  
       109.250          37.000          39.000  
 107495160.125 7  83762530.337 7  20455649.672    20455666.051         -41.086  
       -32.191          46.000          43.000  
 127662450.191 5  99477308.194 6  24293361.596    24293378.923       -3434.527  
     -2676.832          31.000          36.000  
 114691417.137 7  89370023.648 7  21825050.068    21825068.971        2760.051  
      2149.949          46.000          43.000  
 24  1 10  3 24  1.7000000  0  7G08G18G23G24G10G15G32
 128119715.175 4  99833629.070 5  24380384.213    24380404.120        2697.762  
      2103.363          29.000          34.000  
 113345528.825 7  88321254.982 7  21568938.866    21568954.052       -1911.578  
     -1489.789          45.000          44.000  
 110023865.178 7  85732939.244 7  20936847.205    20936861.406       -1902.301  
     -1482.023          44.000          43.000  
 127962228.011 6  99710920.492 6  24350401.832    24350422.916         139.547  
       109.105          36.000          39.000  
 107495164.338 7  83762533.679 7  20455650.474    20455666.867         -42.707  
       -32.680          46.000          43.000  
 127662793.733 5  99477575.870 6  24293426.970    24293444.292       -3436.856  
     -2677.188          30.000          36.000  
 114691141.170 7  89369808.572 7  21824997.553    21825016.447        2759.918  
      2150.965          46.000          43.000  
 24  1 10  3 24  1.8000000  0  7G08G18G23G24G10G15G32
 128119445.463 4  99833418.855 5  24380332.967    24380353.104        2697.328  
      2102.285          29.000          34.000  
 113345720.054 7  88321404.047 7  21568975.513    21568990.956       -1912.621  
     -1490.012          45.000          44.000  
 110024055.467 7  85733087.509 7  20936883.845    20936897.895       -1903.488  
     -1482.551          44.000          43.000  
 127962214.041 6  99710909.636 6  24350398.666    24350420.023         138.918  
       108.793          36.000          39.000  
 107495168.598 7  83762536.940 7  20455651.777    20455667.484         -43.027  
       -33.328          46.000          44.000  
 127663137.523 5  99477843.683 6  24293491.914    24293509.460       -3438.808  
     -2677.637          31.000          36.000  
 114690865.178 7  89369593.461 7  21824944.823    21824963.977        2759.945  
      2150.801          46.000          43.000  
 24  1 10  3 24  1.9000000  0  7G08G18G23G24G10G15G32
 128119175.738 4  99833208.725 5  24380281.640    24380301.788        2697.523  
      2100.965          28.000          34.000  
 113345911.297 7  88321553.048 7  21569011.906    21569027.343       -1912.836  
     -1490.348          45.000          44.000  
 110024245.831 7  85733235.873 7  20936920.070    20936934.127       -1903.660  
     -1483.859          43.000          43.000  
 127962200.153 6  99710898.774 6  24350396.023    24350417.370         140.035  
       108.641          36.000          39.000  
 107495172.953 7  83762540.343 7  20455652.605    20455668.315         -43.887  
       -33.625          46.000          44.000  
 127663481.272 5  99478111.551 5  24293557.327    24293574.876       -3437.254  
     -2678.242          31.000          35.000  
 114690589.031 7  89369378.314 7  21824892.274    21824911.436        2761.820  
      2151.379          46.000          43.000  
 24  1 10  3 24  2.0000000  0  7G08G18G23G24G10G15G32
 128118906.132 4  99832998.729 5  24380230.164    24380250.661        2695.641  
      2100.668          28.000          34.000  
 113346102.527 7  88321702.033 7  21569048.108    21569063.735       -1912.086  
     -1489.871          45.000          44.000  
 110024436.272 7  85733384.292 7  20936955.474    20936970.357       -1905.023  
     -1483.914          43.000          43.000  
 127962186.131 6  99710887.875 6  24350393.253    24350414.927         139.387  
       108.691          36.000          39.000  
 107495177.359 7  83762543.791 7  20455653.358    20455669.642         -44.125  
       -34.738          46.000          44.000  
 127663825.068 5  99478379.428 5  24293622.312    24293640.381       -3437.930  
     -2678.805          32.000          35.000  
 114690312.882 7  89369163.199 7  21824840.373    21824858.559        2761.766  
      2151.555          47.000          43.000  
 24  1 10  3 24  2.1000000  0  7G08G18G23G24G10G15G32
 128118636.686 4  99832788.676 5  24380178.890    24380199.364        2693.590  
      2100.012          28.000          34.000  
 113346293.738 7  88321851.068 7  21569084.494    21569100.131       -1911.789  
     -1490.164          45.000          44.000  
 110024626.769 7  85733532.670 7  20936991.725    20937006.592       -1905.430  
     -1484.102          43.000          44.000  
 127962172.245 6  99710877.090 6  24350390.611    24350412.294         139.020  
       107.910          36.000          38.000  
 107495181.883 7  83762547.315 7  20455654.219    20455670.502         -45.691  
       -34.707          46.000          44.000  
 127664168.954 5  99478647.519 5  24293687.751    24293705.851       -3439.641  
     -2680.492          32.000          34.000  
 114690036.724 7  89368947.954 7  21824787.822    21824805.994        2761.469  
      2152.500          47.000          43.000  
 24  1 10  3 24  2.2000000  0  7G08G18G23G24G10G15G32
 128118367.345 4  99832578.758 5  24380127.612    24380148.201        2694.184  
      2099.434          29.000          34.000  
 113346484.968 7  88322000.047 7  21569121.314    21569136.950       -1912.121  
     -1489.949          45.000          44.000  
 110024817.334 7  85733681.179 7  20937027.675    20937043.344       -1905.793  
     -1485.047          43.000          43.000  
 127962158.321 6  99710866.241 6  24350388.063    24350409.441         139.152  
       108.652          36.000          38.000  
 107495186.377 7  83762550.791 7  20455655.332    20455671.288         -45.051  
       -35.102          46.000          43.000  
 127664512.922 5  99478915.526 5  24293753.230    24293770.848       -3440.164  
     -2680.426          32.000          34.000  
 114689760.363 7  89368732.617 7  21824735.490    21824753.289        2763.996  
      2153.344          46.000          43.000  
 24  1 10  3 24  2.3000000  0  7G08G18G23G24G10G15G32
 128118098.146 4  99832369.015 5  24380076.386    24380096.980        2691.391  
      2097.406          28.000          34.000  
 113346676.182 7  88322149.028 7  21569157.701    21569173.333       -1912.527  
     -1490.125          45.000          44.000  
 110025008.001 7  85733829.775 7  20937063.958    20937079.633       -1907.379  
     -1485.930          43.000          43.000  
 127962144.463 6  99710855.442 6  24350385.426    24350406.804         138.492  
       107.805          36.000          38.000  
 107495190.941 7  83762554.380 7  20455656.200    20455672.165         -45.809  
       -35.918          46.000          43.000  
 127664857.108 5  99479183.626 5  24293818.726    24293836.321       -3442.648  
     -2681.004          33.000          34.000  
 114689484.023 7  89368517.278 7  21824682.904    21824700.701        2763.309  
      2152.809          46.000          43.000  
 24  1 10  3 24  2.4000000  0  7G08G18G23G24G10G15G32
 128117828.958 4  99832159.262 5  24380024.997    24380045.240        2691.707  
      2097.590          29.000          34.000  
 113346867.337 7  88322297.995 7  21569193.975    21569209.423       -1911.516  
     -1489.887          45.000          44.000  
 110025198.704 7  85733978.365 7  20937100.349    20937115.303       -1906.949  
     -1485.789          43.000          43.000  
 127962130.611 6  99710844.647 6  24350383.126    24350403.761         138.602  
       108.207          36.000          38.000  
 107495195.571 7  83762558.001 7  20455656.886    20455673.237         -46.047  
       -35.891          46.000          43.000  
 127665201.328 5  99479451.764 5  24293884.409    24293901.506       -3441.371  
     -2681.547          31.000          35.000  
 114689207.556 7  89368301.880 7  21824629.536    21824647.982        2765.223  
      2154.277          46.000          42.000  
 24  1 10  3 24  2.5000000  0  7G08G18G23G24G10G15G32
 128117559.911 4  99831949.628 5  24379973.799    24379994.046        2689.852  
      2096.387          29.000          33.000  
 113347058.521 7  88322447.004 7  21569230.356    21569245.813       -1911.867  
     -1489.461          45.000          44.000  
 110025389.445 7  85734126.987 7  20937136.646    20937151.598       -1907.613  
     -1486.574          43.000          43.000  
 127962116.714 6  99710833.824 6  24350380.481    24350401.118         139.152  
       108.344          36.000          38.000  
 107495200.211 7  83762561.597 7  20455657.769    20455674.115         -46.887  
       -36.125          46.000          43.000  
 127665545.454 5  99479720.000 5  24293949.894    24293967.012       -3442.672  
     -2682.453          31.000          35.000  
 114688931.001 7  89368086.380 7  21824576.910    21824595.355        2766.180  
      2155.230          46.000          43.000  
 24  1 10  3 24  2.6000000  0  7G08G18G23G24G10G15G32
 128117290.844 4  99831740.013 5  24379922.753    24379942.902        2688.281  
      2096.125          29.000          33.000  
 113347249.638 7  88322595.867 7  21569267.131    21569282.292       -1910.953  
     -1489.215          45.000          44.000  
 110025580.211 7  85734275.640 7  20937172.877    20937187.814       -1907.875  
     -1486.527          43.000          43.000  
 127962102.855 6  99710823.036 6  24350377.688    24350398.656         138.410  
       107.836          36.000          38.000  
 107495204.892 7  83762565.219 7  20455658.910    20455675.429         -46.723  
       -36.199          46.000          44.000  
 127665889.753 5  99479988.350 5  24294015.380    24294032.999       -3442.664  
     -2682.938          32.000          35.000  
 114688654.355 7  89367870.773 7  21824523.664    21824543.139        2767.160  
      2155.777          47.000          43.000  
 24  1 10  3 24  2.7000000  0  7G08G18G23G24G10G15G32
 128117022.027 4  99831530.519 5  24379871.599    24379891.742        2688.703  
      2094.918          29.000          33.000  
 113347440.745 7  88322744.822 7  21569303.497    21569318.668       -1910.781  
     -1489.324          45.000          44.000  
 110025771.027 7  85734424.302 7  20937209.188    20937224.119       -1908.270  
     -1486.484          43.000          43.000  
 127962089.062 6  99710812.270 6  24350375.063    24350396.026         137.977  
       107.812          36.000          39.000  
 107495209.540 7  83762568.857 7  20455659.794    20455676.318         -46.488  
       -36.656          46.000          44.000  
 127666234.215 5  99480256.647 5  24294080.929    24294098.520       -3445.234  
     -2683.242          32.000          34.000  
 114688377.595 7  89367655.125 7  21824470.998    21824490.475        2768.160  
      2156.184          47.000          43.000  
 24  1 10  3 24  2.8000000  0  7G08G18G23G24G10G15G32
 128116753.16434  99831321.075 5  24379820.249    24379840.851        2686.480  
      2094.496          29.000          33.000  
 113347631.853 7  88322893.759 7  21569340.137    21569354.688       -1911.012  
     -1488.988          46.000          44.000  
 110025961.917 7  85734573.045 7  20937245.662    20937260.655       -1908.664  
     -1487.770          43.000          43.000  
 127962075.279 6  99710801.514 6  24350372.213    24350393.751         137.809  
       107.398          36.000          39.000  
 107495214.306 7  83762572.593 7  20455660.623    20455676.667         -47.617  
       -36.695          46.000          44.000  
 127666578.655 5  99480525.046 5  24294146.583    24294164.448       -3444.430  
     -2683.688          32.000          34.000  
 114688100.777 8  89367439.458 7  21824419.697    21824438.088        2768.715  
      2157.754          48.000          43.000  
 24  1 10  3 24  2.9000000  0  7G08G18G23G24G10G15G32
 128116484.57124  99831111.700 5  24379769.137    24379789.720        2686.234  
      2093.992          29.000          34.000  
 113347822.959 7  88323042.660 7  21569376.503    21569391.051       -1911.234  
     -1489.125          46.000          44.000  
 110026152.875 7  85734721.858 7  20937282.000    20937296.996       -1910.078  
     -1487.949          43.000          43.000  
 127962061.507 6  99710790.796 6  24350369.593    24350391.134         137.777  
       107.219          36.000          39.000  
 107495219.021 7  83762576.256 7  20455661.520    20455677.562         -47.820  
       -37.094          46.000          44.000  
 127666923.104 5  99480793.533 5  24294212.130    24294230.016       -3446.531  
     -2684.891          32.000          35.000  
 114687823.877 7  89367223.656 7  21824367.004    21824385.387        2769.293  
      2157.508          47.000          43.000  
 24  1 10  3 24  3.0000000  0  7G08G18G23G24G10G15G32
 128116215.94724  99830902.365 5  24379717.942    24379738.535        2685.508  
      2092.707          29.000          34.000  
 113348014.013 7  88323191.501 7  21569413.094    21569427.095       -1909.996  
     -1488.648          46.000          44.000  
 110026343.836 7  85734870.691 7  20937318.354    20937333.226       -1909.645  
     -1488.106          42.000          43.000  
 127962047.767 6  99710780.047 6  24350366.767    24350388.884         137.488  
       107.516          36.000          39.000  
 107495223.811 7  83762579.997 7  20455662.283    20455678.405         -48.062  
       -37.508          46.000          44.000  
 127667267.823 5  99481062.090 5  24294277.673    24294295.795       -3446.250  
     -2685.164          31.000          35.000  
 114687546.873 7  89367007.802 7  21824314.480    21824332.478        2770.707  
      2158.387          47.000          43.000  
 24  1 10  3 24  3.1000000  0  7G08G18G23G24G10G15G32
 128115947.34924  99830693.146 5  24379666.829    24379687.442        2684.855  
      2092.660          29.000          34.000  
 113348205.062 7  88323340.385 7  21569449.450    21569463.454       -1910.473  
     -1488.715          45.000          44.000  
 110026534.913 7  85735019.518 7  20937354.715    20937369.571       -1910.988  
     -1488.711          43.000          43.000  
 127962034.008 6  99710769.314 6  24350364.149    24350386.263         137.109  
       107.066          36.000          39.000  
 107495228.588 7  83762583.694 7  20455663.192    20455679.308         -47.508  
       -36.898          46.000          44.000  
 127667612.431 5  99481330.697 5  24294343.250    24294361.392       -3447.266  
     -2686.055          32.000          35.000  
 114687269.755 7  89366791.898 7  21824261.746    21824279.752        2771.406  
      2159.344          46.000          42.000  
 24  1 10  3 24  3.2000000  0  7G08G18G23G24G10G15G32
 128115679.04424  99830483.962 5  24379616.046    24379636.373        2683.586  
      2091.809          29.000          33.000  
 113348395.990 7  88323489.176 7  21569485.446    21569500.415       -1909.043  
     -1487.934          45.000          44.000  
 110026725.896 7  85735168.364 7  20937391.222    20937406.155       -1909.785  
     -1488.594          43.000          43.000  
 127962020.271 6  99710758.663 6  24350361.636    24350383.912         138.293  
       106.715          36.000          39.000  
 107495233.326 7  83762587.389 7  20455664.461    20455680.320         -47.262  
       -37.164          46.000          44.000  
 127667957.218 5  99481599.331 5  24294408.978    24294427.183       -3447.438  
     -2686.059          33.000          35.000  
 114686992.485 7  89366575.821 7  21824207.741    21824226.726        2773.184  
      2160.523          46.000          42.000  
 24  1 10  3 24  3.3000000  0  7G08G18G23G24G10G15G32
 128115410.43925  99830274.779 5  24379564.932    24379585.288        2686.773  
      2092.207          30.000          34.000  
 113348586.728 7  88323637.795 7  21569521.742    21569536.710       -1906.062  
     -1485.891          45.000          44.000  
 110026916.557 7  85735316.935 7  20937427.504    20937442.437       -1904.961  
     -1485.535          43.000          43.000  
 127962006.279 6  99710747.779 6  24350358.974    24350381.254         140.180  
       108.879          36.000          39.000  
 107495237.862 7  83762590.917 7  20455665.324    20455681.182         -44.539  
       -35.340          47.000          43.000  
 127668301.665 5  99481867.715 6  24294474.524    24294492.725       -3442.820  
     -2684.117          35.000          36.000  
 114686715.167 7  89366359.721 7  21824154.969    21824173.952        2773.730  
      2161.484          46.000          42.000  
 24  1 10  3 24  3.4000000  0  7G08G18G23G24G10G15G32
 128115141.72925  99830065.351 6  24379513.931    24379534.425        2687.859  
      2094.281          33.000          36.000  
 113348777.429 7  88323786.416 7  21569557.539    21569573.317       -1907.430  
     -1485.941          45.000          44.000  
 110027107.235 7  85735465.522 7  20937463.828    20937478.943       -1905.926  
     -1485.043          44.000          44.000  
 127961992.294 6  99710736.799 6  24350356.617    24350379.072         139.578  
       109.195          36.000          40.000  
 107495242.301 7  83762594.446 7  20455666.216    20455681.746         -43.402  
       -34.812          46.000          44.000  
 127668645.958 6  99482136.046 6  24294540.291    24294558.777       -3443.524  
     -2683.488          36.000          38.000  
 114686437.951 7  89366143.637 6  21824102.381    21824121.214        2771.230  
      2160.734          47.000          41.000  
 24  1 10  3 24  3.5000000  0  7G08G18G23G24G10G15G32
 128114873.04726  99829855.950 6  24379462.802    24379483.287        2686.539  
      2093.809          37.000          37.000  
 113348968.301 7  88323935.157 7  21569593.861    21569609.641       -1908.711  
     -1487.148          44.000          44.000  
 110027297.929 7  85735614.105 7  20937500.115    20937515.228       -1907.391  
     -1486.148          44.000          45.000  
 127961978.399 6  99710725.961 6  24350353.973    24350376.425         138.641  
       108.582          36.000          40.000  
 107495246.859 7  83762598.047 7  20455667.083    20455682.626         -45.996  
       -35.590          45.000          45.000  
 127668990.343 6  99482404.402 6  24294605.825    24294624.313       -3444.055  
     -2683.523          38.000          39.000  
 114686160.861 7  89365927.773 6  21824049.652    21824068.497        2770.152  
      2158.500          46.000          41.000  
 24  1 10  3 24  3.6000000  0  7G08G18G23G24G10G15G32
 128114604.32226  99829646.569 6  24379411.182    24379432.248        2687.402  
      2093.973          38.000          38.000  
 113349159.252 7  88324083.908 7  21569629.721    21569645.600       -1910.609  
     -1488.141          43.000          43.000  
 110027488.694 7  85735762.737 7  20937536.112    20937550.986       -1907.895  
     -1486.797          44.000          45.000  
 127961964.439 5  99710715.162 6  24350351.442    24350373.109         138.750  
       108.121          35.000          40.000  
 107495251.516 7  83762601.657 7  20455667.891    20455683.281         -47.414  
       -36.746          45.000          45.000  
 127669334.691 6  99482672.766 6  24294670.805    24294689.733       -3442.906  
     -2683.414          39.000          40.000  
 114685883.997 7  89365712.043 6  21823996.865    21824015.728        2767.188  
      2157.480          45.000          40.000  
 24  1 10  3 24  3.7000000  0  7G08G18G23G24G10G15G32
 128114335.47826  99829437.082 6  24379360.022    24379381.089        2688.988  
      2094.805          38.000          39.000  
 113349350.245 7  88324232.746 7  21569666.066    21569681.948       -1909.789  
     -1488.488          42.000          43.000  
 110027679.386 7  85735911.349 7  20937572.400    20937587.279       -1906.523  
     -1485.902          44.000          45.000  
 127961950.492 5  99710704.283 6  24350348.788    24350370.452         139.379  
       108.547          34.000          40.000  
 107495256.169 7  83762605.257 7  20455668.777    20455684.160         -46.664  
       -36.590          45.000          45.000  
 127669678.964 6  99482940.976 6  24294736.318    24294755.232       -3441.945  
     -2682.250          40.000          41.000  
 114685607.358 7  89365496.401 6  21823944.222    21823963.066        2765.383  
      2155.188          44.000          39.000  
 24  1 10  3 24  3.8000000  0  7G08G18G23G24G10G15G32
 128114066.44026  99829227.433 6  24379308.584    24379329.687        2691.223  
      2096.250          38.000          40.000  
 113349541.223 7  88324381.540 7  21569702.259    21569717.418       -1910.387  
     -1488.570          42.000          43.000  
 110027869.996 7  85736059.841 7  20937608.664    20937623.612       -1905.934  
     -1484.977          44.000          46.000  
 127961936.520 5  99710693.394 6  24350346.105    24350366.980         140.410  
       109.211          34.000          40.000  
 107495260.809 7  83762608.898 7  20455669.597    20455685.291         -45.984  
       -36.031          44.000          45.000  
 127670022.921 6  99483208.992 6  24294802.005    24294821.028       -3439.344  
     -2680.422          41.000          41.000  
 114685330.927 7  89365281.056 6  21823891.916    21823910.305        2763.004  
      2153.770          44.000          39.000  
 24  1 10  3 24  3.9000000  0  7G08G18G23G24G10G15G32
 128113797.24426  99829017.675 6  24379257.357    24379278.462        2692.539  
      2097.535          38.000          40.000  
 113349732.283 7  88324530.458 7  21569738.617    21569753.785       -1910.500  
     -1488.547          42.000          43.000  
 110028060.406 7  85736208.187 7  20937644.897    20937659.840       -1903.324  
     -1483.871          44.000          46.000  
 127961922.436 5  99710682.394 6  24350343.425    24350364.294         141.352  
       109.691          34.000          40.000  
 107495265.386 7  83762612.450 7  20455670.468    20455686.159         -45.375  
       -35.578          44.000          45.000  
 127670366.724 6  99483476.861 6  24294867.429    24294886.444       -3437.000  
     -2678.703          41.000          41.000  
 114685054.678 7  89365065.842 6  21823839.348    21823857.747        2761.785  
      2152.215          44.000          38.000  
 24  1 10  3 24  4.0000000  0  7G08G18G23G24G10G15G32
 128113527.84126  99828807.757 6  24379206.115    24379227.292        2694.527  
      2099.199          39.000          41.000  
 113349923.329 7  88324679.313 7  21569775.112    21569789.997       -1910.102  
     -1488.609          42.000          42.000  
 110028250.712 7  85736356.520 7  20937681.213    20937696.229       -1902.184  
     -1482.859          45.000          46.000  
 127961908.239 5  99710671.343 6  24350341.060    24350361.751         141.902  
       110.523          34.000          40.000  
 107495269.922 7  83762616.027 7  20455671.089    20455687.251         -44.863  
       -35.234          44.000          45.000  
 127670710.335 6  99483744.599 6  24294933.066    24294951.954       -3435.430  
     -2677.609          41.000          41.000  
 114684778.611 7  89364850.685 6  21823787.017    21823805.196        2759.730  
      2151.273          43.000          38.000  
 24  1 10  3 24  4.1000000  0  7G08G18G23G24G10G15G32
 128113258.28026  99828597.696 6  24379154.820    24379175.993        2696.309  
      2100.570          38.000          40.000  
 113350114.386 6  88324828.222 7  21569811.469    21569826.362       -1910.984  
     -1488.875          41.000          42.000  
 110028440.932 7  85736504.745 7  20937717.411    20937732.427       -1901.555  
     -1482.066          44.000          46.000  
 127961894.093 5  99710660.283 6  24350338.368    24350359.050         141.680  
       110.559          33.000          40.000  
 107495274.372 7  83762619.455 7  20455671.936    20455688.088         -44.293  
       -34.637          44.000          45.000  
 127671053.799 6  99484012.250 6  24294998.425    24295017.317       -3433.871  
     -2676.426          41.000          41.000  
 114684502.760 7  89364635.703 6  21823734.524    21823752.695        2757.348  
      2149.750          43.000          38.000  
 24  1 10  3 24  4.2000000  0  7G08G18G23G24G10G15G32
 128112988.50926  99828387.500 6  24379103.343    24379125.013        2698.383  
      2101.750          38.000          41.000  
 113350305.427 7  88324977.044 7  21569848.081    21569862.526       -1910.129  
     -1488.312          42.000          42.000  
 110028630.959 7  85736652.795 7  20937753.759    20937768.707       -1899.496  
     -1480.668          44.000          46.000  
 127961879.846 5  99710649.138 6  24350335.961    24350356.836         142.699  
       111.367          33.000          40.000  
 107495278.717 7  83762622.858 7  20455673.138    20455688.708         -43.082  
       -34.156          44.000          45.000  
 127671397.082 6  99484279.708 6  24295063.406    24295081.789       -3432.266  
     -2674.695          40.000          41.000  
 114684227.067 7  89364420.883 6  21823682.038    21823700.625        2756.133  
      2147.949          43.000          39.000  
 24  1 10  3 24  4.3000000  0  7G08G18G23G24G10G15G32
 128112718.56526  99828177.132 6  24379051.975    24379073.638        2700.395  
      2103.691          39.000          41.000  
 113350496.492 7  88325125.938 7  21569884.439    21569898.887       -1910.586  
     -1488.934          42.000          42.000  
 110028820.851 7  85736800.787 7  20937789.894    20937804.848       -1898.367  
     -1479.680          44.000          46.000  
 127961865.457 5  99710637.985 6  24350333.223    24350354.113         143.699  
       111.320          33.000          40.000  
 107495282.991 7  83762626.209 7  20455673.951    20455689.527         -42.008  
       -33.125          44.000          45.000  
 127671740.131 6  99484547.075 6  24295128.686    24295147.083       -3430.199  
     -2673.676          40.000          40.000  
 114683951.568 7  89364206.289 6  21823629.613    21823648.218        2754.344  
      2146.438          44.000          39.000  
 24  1 10  3 24  4.4000000  0  7G08G18G23G24G10G15G32
 128112448.36826  99827966.607 6  24379000.644    24379022.648        2702.637  
      2105.047          39.000          41.000  
 113350687.609 7  88325274.880 7  21569920.808    21569935.784       -1911.180  
     -1489.508          42.000          42.000  
 110029010.666 7  85736948.674 7  20937825.929    20937840.776       -1897.516  
     -1478.793          45.000          46.000  
 127961851.062 5  99710626.788 6  24350330.414    24350351.027         144.184  
       112.051          33.000          40.000  
 107495287.199 7  83762629.443 7  20455674.525    20455690.566         -42.125  
       -32.578          44.000          45.000  
 127672083.029 6  99484814.251 6  24295193.922    24295211.939       -3428.836  
     -2671.953          39.000          40.000  
 114683676.277 7  89363991.681 6  21823577.211    21823596.332        2752.141  
      2145.723          43.000          39.000  
 24  1 10  3 24  4.5000000  0  7G08G18G23G24G10G15G32
 128112178.17126  99827756.053 6  24378949.227    24378971.229        2702.406  
      2105.578          39.000          41.000  
 113350878.791 6  88325423.843 7  21569957.188    21569972.162       -1912.227  
     -1489.496          41.000          42.000  
 110029200.379 7  85737096.498 7  20937862.030    20937876.876       -1897.273  
     -1478.594          45.000          46.000  
 127961836.787 5  99710615.667 6  24350327.697    24350348.311         142.113  
       111.270          32.000          40.000  
 107495291.436 7  83762632.730 7  20455675.332    20455691.369         -42.293  
       -32.641          44.000          46.000  
 127672425.909 6  99485081.425 6  24295259.169    24295277.186       -3428.785  
     -2671.871          39.000          40.000  
 114683401.064 7  89363777.283 6  21823524.840    21823543.974        2751.297  
      2143.723          44.000          39.000  
 24  1 10  3 24  4.6000000  0  7G08G18G23G24G10G15G32
 128111907.76926  99827545.363 6  24378897.990    24378919.448        2704.410  
      2106.945          38.000          40.000  
 113351069.978 7  88325572.773 7  21569993.523    21570008.189       -1911.930  
     -1489.336          42.000          43.000  
 110029389.978 7  85737244.283 7  20937898.149    20937913.037       -1895.445  
     -1477.520          44.000          46.000  
 127961822.426 5  99710604.467 6  24350324.878    24350345.591         144.176  
       112.180          34.000          40.000  
 107495295.561 7  83762635.920 7  20455675.710    20455692.297         -40.996  
       -32.074          44.000          46.000  
 127672768.646 6  99485348.461 6  24295324.226    24295342.368       -3426.812  
     -2670.402          38.000          40.000  
 114683126.074 7  89363562.996 6  21823472.011    21823490.878        2749.684  
      2143.070          45.000          40.000  
 24  1 10  3 24  4.7000000  0  7G08G18G23G24G10G15G32
 128111637.19326  99827334.547 6  24378846.501    24378867.964        2705.973  
      2108.125          38.000          40.000  
 113351261.096 7  88325721.700 7  21570029.892    21570044.558       -1910.898  
     -1489.535          42.000          43.000  
 110029579.508 7  85737391.969 7  20937934.215    20937949.104       -1895.207  
     -1476.898          44.000          46.000  
 127961808.001 5  99710593.214 6  24350322.133    24350342.843         144.730  
       112.383          33.000          40.000  
 107495299.581 7  83762639.029 7  20455676.475    20455693.056         -39.645  
       -31.234          44.000          46.000  
 127673111.266 6  99485615.437 6  24295389.424    24295407.566       -3425.606  
     -2669.859          37.000          39.000  
 114682851.079 7  89363348.713 6  21823419.681    21823438.547        2749.996  
      2142.555          46.000          41.000  
 24  1 10  3 24  4.8000000  0  7G08G18G23G24G10G15G32
 128111366.53826  99827123.629 6  24378794.833    24378816.479        2707.441  
      2108.797          37.000          39.000  
 113351452.254 7  88325870.703 7  21570066.010    21570081.845       -1911.625  
     -1489.723          43.000          43.000  
 110029768.948 7  85737539.545 7  20937970.092    20937984.901       -1894.066  
     -1476.117          45.000          46.000  
 127961793.550 5  99710582.021 6  24350319.063    24350340.352         144.285  
       111.988          33.000          40.000  
 107495303.548 7  83762642.116 7  20455677.402    20455693.974         -39.191  
       -30.945          45.000          46.000  
 127673453.746 6  99485882.347 6  24295454.128    24295472.482       -3424.469  
     -2669.113          37.000          39.000  
 114682576.207 7  89363134.547 6  21823367.945    21823387.152        2748.082  
      2142.008          46.000          41.000  
 24  1 10  3 24  4.9000000  0  7G08G18G23G24G10G15G32
 128111095.78526  99826912.714 6  24378743.310    24378764.972        2707.539  
      2109.359          37.000          39.000  
 113351643.473 7  88326019.666 7  21570102.398    21570118.223       -1912.355  
     -1489.781          43.000          44.000  
 110029958.338 7  85737687.175 7  20938006.132    20938020.954       -1893.699  
     -1475.941          45.000          46.000  
 127961779.160 5  99710570.784 6  24350316.325    24350337.608         143.125  
       112.410          33.000          40.000  
 107495307.497 7  83762645.166 7  20455678.153    20455694.719         -39.281  
       -30.516          45.000          46.000  
 127673796.231 6  99486149.157 6  24295519.300    24295537.640       -3424.770  
     -2668.504          37.000          39.000  
 114682301.386 7  89362920.401 6  21823315.648    21823334.855        2748.121  
      2141.348          46.000          41.000  
 24  1 10  3 24  5.0000000  0  7G08G18G23G24G10G15G32
 128110825.03726  99826701.703 6  24378691.812    24378713.355        2707.910  
      2109.797          36.000          39.000  
 113351834.669 7  88326168.686 7  21570139.203    21570155.154       -1912.141  
     -1490.113          44.000          44.000  
 110030147.731 7  85737834.730 7  20938042.266    20938056.754       -1893.977  
     -1475.445          44.000          46.000  
 127961764.848 5  99710559.584 6  24350313.859    24350334.818         143.719  
       111.980          33.000          39.000  
 107495311.409 7  83762648.226 7  20455678.484    20455695.138         -39.184  
       -30.453          46.000          46.000  
 127674138.710 6  99486416.039 6  24295584.495    24295602.925       -3424.414  
     -2668.781          37.000          38.000  
 114682026.619 7  89362706.297 6  21823263.002    21823282.116        2747.551  
      2141.172          46.000          41.000  
 24  1 10  3 24  5.1000000  0  7G08G18G23G24G10G15G32
 128110554.17525  99826490.641 6  24378640.269    24378661.811        2708.641  
      2110.629          35.000          38.000  
 113352025.877 7  88326317.660 7  21570175.589    21570191.535       -1912.039  
     -1489.664          44.000          44.000  
 110030337.045 7  85737982.234 7  20938078.291    20938092.776       -1892.859  
     -1475.422          45.000          46.000  
 127961750.494 5  99710548.385 6  24350311.128    24350332.083         144.117  
       112.098          33.000          39.000  
 107495315.226 7  83762651.196 7  20455679.210    20455695.863         -37.797  
       -29.699          46.000          47.000  
 127674481.106 6  99486682.833 6  24295649.651    24295668.079       -3424.109  
     -2667.684          37.000          38.000  
 114681751.868 7  89362492.187 6  21823210.719    21823229.828        2747.500  
      2141.031          47.000          41.000  
 24  1 10  3 24  5.2000000  0  7G08G18G23G24G10G15G32
 128110283.22625  99826279.496 6  24378588.084    24378609.857        2709.227  
      2111.172          35.000          38.000  
 113352217.129 7  88326466.640 7  21570212.155    21570228.058       -1912.648  
     -1490.074          44.000          43.000  
 110030526.336 7  85738129.768 7  20938114.789    20938129.149       -1892.801  
     -1475.141          44.000          46.000  
 127961736.039 5  99710537.210 6  24350308.572    24350329.440         143.230  
       111.750          32.000          39.000  
 107495319.027 7  83762654.182 7  20455680.285    20455696.678         -37.520  
       -29.648          46.000          46.000  
 127674823.485 6  99486949.580 6  24295714.890    24295732.612       -3423.723  
     -2667.863          38.000          38.000  
 114681477.156 7  89362278.150 7  21823158.373    21823177.543        2746.973  
      2140.473          47.000          42.000  
 24  1 10  3 24  5.3000000  0  7G08G18G23G24G10G15G32
 128110012.26925  99826068.372 6  24378536.522    24378558.298        2709.777  
      2111.574          35.000          38.000  
 113352408.390 7  88326615.736 7  21570248.550    21570264.469       -1912.457  
     -1490.754          43.000          44.000  
 110030715.587 7  85738277.231 7  20938150.802    20938165.161       -1892.441  
     -1474.867          44.000          46.000  
 127961721.804 5  99710526.043 6  24350305.863    24350326.713         142.863  
       111.613          33.000          39.000  
 107495322.812 7  83762657.110 7  20455681.005    20455697.393         -37.957  
       -29.395          46.000          46.000  
 127675165.900 6  99487216.427 6  24295780.049    24295797.778       -3423.969  
     -2668.109          38.000          38.000  
 114681202.498 7  89362064.146 7  21823106.107    21823125.281        2746.652  
      2140.223          47.000          42.000  
 24  1 10  3 24  5.4000000  0  7G08G18G23G24G10G15G32
 128109741.23725  99825857.159 6  24378485.119    24378506.632        2711.203  
      2111.820          35.000          38.000  
 113352599.706 7  88326764.771 7  21570284.574    21570300.693       -1913.527  
     -1490.285          43.000          44.000  
 110030904.894 7  85738424.781 7  20938186.670    20938201.241       -1893.156  
     -1474.973          44.000          45.000  
 127961707.521 5  99710514.887 6  24350303.192    24350324.098         143.676  
       111.453          33.000          39.000  
 107495326.594 7  83762660.064 7  20455681.366    20455697.959         -37.836  
       -29.410          47.000          46.000  
 127675508.236 6  99487483.185 6  24295845.561    24295863.064       -3423.832  
     -2667.711          38.000          37.000  
 114680927.845 7  89361850.117 7  21823054.006    21823072.559        2746.492  
      2140.328          47.000          42.000  
 24  1 10  3 24  5.5000000  0  7G08G18G23G24G10G15G32
 128109470.12625  99825645.927 6  24378433.528    24378455.047        2710.941  
      2112.348          34.000          38.000  
 113352791.021 7  88326913.857 7  21570320.980    21570337.101       -1913.277  
     -1490.859          44.000          44.000  
 110031094.184 7  85738572.245 7  20938222.690    20938237.253       -1893.113  
     -1475.031          43.000          45.000  
 127961693.225 5  99710503.806 6  24350300.472    24350321.392         143.234  
       110.973          33.000          39.000  
 107495330.343 7  83762662.985 7  20455682.079    20455698.672         -37.609  
       -29.332          47.000          46.000  
 127675850.607 6  99487750.003 6  24295910.712    24295928.224       -3423.754  
     -2668.129          38.000          37.000  
 114680653.220 7  89361636.134 7  21823001.747    21823020.303        2745.922  
      2139.594          46.000          42.000  
 24  1 10  3 24  5.6000000  0  7G08G18G23G24G10G15G32
 128109199.09025  99825434.728 6  24378382.373    24378403.392        2710.738  
      2112.164          34.000          37.000  
 113352982.360 7  88327062.966 7  21570357.234    21570373.070       -1913.461  
     -1491.137          44.000          44.000  
 110031283.501 7  85738719.729 7  20938258.248    20938272.895       -1893.254  
     -1475.020          44.000          45.000  
 127961678.965 5  99710492.741 6  24350297.477    24350318.705         142.277  
       110.797          32.000          39.000  
 107495334.077 7  83762665.877 7  20455683.579    20455699.245         -37.199  
       -28.961          47.000          47.000  
 127676193.020 6  99488016.766 6  24295976.066    24295993.284       -3423.910  
     -2667.781          38.000          36.000  
 114680378.600 7  89361422.166 7  21822949.059    21822967.971        2746.562  
      2140.141          46.000          42.000  
 24  1 10  3 24  5.7000000  0  7G08G18G23G24G10G15G32
 128108927.96325  99825223.507 6  24378330.780    24378351.810        2711.652  
      2112.387          34.000          37.000  
 113353173.776 7  88327212.144 7  21570393.660    21570409.501       -1914.375  
     -1491.473          44.000          44.000  
 110031472.816 7  85738867.248 7  20938294.273    20938308.921       -1893.348  
     -1475.258          44.000          45.000  
 127961664.789 5  99710481.633 6  24350294.779    24350315.992         141.520  
       110.820          33.000          39.000  
 107495337.857 7  83762668.832 7  20455684.298    20455699.967         -37.957  
       -29.406          47.000          47.000  
 127676535.384 6  99488283.611 6  24296041.216    24296058.451       -3424.219  
     -2668.508          37.000          36.000  
 114680103.989 7  89361208.180 7  21822896.802    21822915.714        2745.980  
      2139.660          47.000          42.000  
 24  1 10  3 24  5.8000000  0  7G08G18G23G24G10G15G32
 128108656.88625  99825012.240 6  24378279.234    24378300.451        2709.965  
      2112.559          33.000          37.000  
 113353365.155 7  88327361.230 7  21570430.140    21570445.964       -1913.875  
     -1491.445          44.000          44.000  
 110031662.136 7  85739014.743 7  20938330.424    20938344.839       -1893.320  
     -1475.203          44.000          45.000  
 127961650.652 5  99710470.639 6  24350291.769    24350313.308         141.098  
       110.004          33.000          39.000  
 107495341.606 8  83762671.757 7  20455684.886    20455701.298         -37.461  
       -29.430          48.000          47.000  
 127676877.871 6  99488550.481 5  24296106.139    24296123.232       -3425.051  
     -2668.344          36.000          35.000  
 114679829.357 7  89360994.185 7  21822844.854    21822863.524        2746.422  
      2139.906          46.000          43.000  
 24  1 10  3 24  5.9000000  0  7G08G18G23G24G10G15G32
 128108385.91625  99824801.036 6  24378227.671    24378248.872        2710.305  
      2112.195          32.000          37.000  
 113353556.585 7  88327510.426 7  21570466.568    21570482.399       -1914.281  
     -1491.598          44.000          44.000  
 110031851.523 7  85739162.366 7  20938366.464    20938380.890       -1893.664  
     -1475.820          43.000          44.000  
 127961636.479 5  99710459.646 6  24350289.072    24350310.623         141.230  
       110.078          33.000          39.000  
 107495345.377 8  83762674.671 7  20455685.604    20455702.010         -37.871  
       -29.184          48.000          46.000  
 127677220.407 5  99488817.355 5  24296171.321    24296188.406       -3425.016  
     -2669.039          35.000          35.000  
 114679554.690 7  89360780.142 7  21822792.587    21822811.253        2747.039  
      2140.453          46.000          43.000  
 24  1 10  3 24  6.0000000  0  7G08G18G23G24G10G15G32
 128108114.87325  99824589.880 6  24378175.546    24378196.853        2710.766  
      2111.684          32.000          37.000  
 113353748.034 7  88327659.614 7  21570503.297    21570518.441       -1914.562  
     -1492.082          44.000          44.000  
 110032040.988 7  85739310.010 7  20938402.471    20938417.431       -1894.484  
     -1476.297          43.000          45.000  
 127961622.453 5  99710448.666 6  24350286.223    24350307.699         140.523  
       109.609          34.000          39.000  
 107495349.194 8  83762677.730 7  20455686.752    20455702.335         -37.973  
       -30.242          48.000          46.000  
 127677563.013 5  99489084.393 5  24296235.986    24296253.674       -3426.410  
     -2670.035          34.000          34.000  
 114679280.004 7  89360566.089 7  21822740.112    21822759.260        2746.988  
      2140.562          45.000          43.000  
 24  1 10  3 24  6.1000000  0  7G08G18G23G24G10G15G32
 128107843.91525  99824378.765 6  24378123.984    24378145.296        2709.426  
      2110.711          31.000          36.000  
 113353939.560 7  88327808.849 7  21570539.743    21570554.886       -1915.039  
     -1491.734          44.000          44.000  
 110032230.537 7  85739457.689 7  20938438.541    20938453.495       -1895.727  
     -1476.789          43.000          44.000  
 127961608.431 5  99710437.740 6  24350283.555    24350305.031         140.488  
       109.453          35.000          38.000  
 107495353.067 7  83762680.705 7  20455687.489    20455703.062         -38.895  
       -29.805          47.000          46.000  
 127677905.835 5  99489351.473 5  24296301.222    24296318.897       -3427.660  
     -2670.480          33.000          35.000  
 114679005.227 7  89360351.977 7  21822687.824    21822706.972        2747.719  
      2141.285          44.000          43.000  
 24  1 10  3 24  6.2000000  0  7G08G18G23G24G10G15G32
 128107573.23734  99824167.740 6  24378072.289    24378093.715        2707.688  
      2110.688          29.000          36.000  
 113354131.054 7  88327958.032 7  21570576.464    21570591.178       -1915.016  
     -1492.512          44.000          44.000  
 110032420.172 7  85739605.411 7  20938474.760    20938489.735       -1896.461  
     -1477.582          42.000          44.000  
 127961594.410 5  99710426.873 6  24350281.043    24350302.260         139.883  
       108.727          35.000          38.000  
 107495356.974 7  83762683.698 7  20455687.912    20455703.808         -39.156  
       -30.105          47.000          45.000  
 127678248.604 5  99489618.636 5  24296366.309    24296384.376       -3428.160  
     -2671.766          33.000          35.000  
 114678730.300 7  89360137.764 7  21822634.070    21822654.268        2749.203  
      2141.922          44.000          43.000  
 24  1 10  3 24  6.3000000  0  7G08G18G23G24G10G15G32
 128107302.40724  99823956.842 5  24378020.751    24378042.211        2707.449  
      2108.801          29.000          35.000  
 113354322.531 7  88328107.296 7  21570612.901    21570627.629       -1914.742  
     -1492.359          44.000          44.000  
 110032609.888 6  85739753.311 7  20938510.862    20938525.853       -1897.355  
     -1478.938          41.000          43.000  
 127961580.617 5  99710416.033 6  24350278.418    24350299.613         138.641  
       108.254          35.000          38.000  
 107495360.917 7  83762686.812 7  20455688.663    20455704.569         -39.355  
       -31.078          46.000          45.000  
 127678591.688 5  99489885.809 5  24296431.595    24296449.622       -3429.906  
     -2671.957          32.000          35.000  
 114678455.331 7  89359923.529 7  21822581.745    21822601.950        2749.973  
      2142.773          45.000          43.000  
 24  1 10  3 24  6.4000000  0  7G08G24G18G23G10G32G15
 128107031.94424  99823746.031 5  24377969.323    24377990.940        2703.340  
      2108.355          28.000          35.000  
 127961566.699 5  99710405.305 6  24350275.707    24350297.024         138.863  
       107.527          34.000          37.000  
 113354514.043 7  88328256.526 7  21570649.415    21570664.323       -1915.672  
     -1492.356          43.000          44.000  
 110032799.685 6  85739901.244 7  20938546.471    20938561.800       -1897.672  
     -1479.336          40.000          42.000  
 107495364.921 7  83762689.955 7  20455688.753    20455705.469         -40.418  
       -31.430          46.000          45.000  
 114678180.151 7  89359709.030 7  21822529.950    21822549.200        2752.461  
      2144.438          45.000          43.000  
 127678934.721 5  99490153.189 5  24296497.482    24296515.638       -3430.910  
     -2673.266          32.000          35.000  
 24  1 10  3 24  6.5000000  0  7G08G24G18G23G10G32G15
 128106761.46524  99823535.228 5  24377917.853    24377939.460        2703.414  
      2107.852          28.000          34.000  
 127961552.946 5  99710394.505 6  24350273.090    24350294.387         136.926  
       107.910          34.000          37.000  
 113354705.550 7  88328405.740 7  21570685.857    21570700.763       -1914.613  
     -1491.773          42.000          44.000  
 110032989.639 6  85740049.230 7  20938582.618    20938597.940       -1899.793  
     -1479.629          40.000          42.000  
 107495368.923 7  83762693.052 7  20455689.514    20455706.225         -39.859  
       -31.234          47.000          45.000  
 114677904.790 7  89359494.493 7  21822477.551    21822496.808        2754.883  
      2145.719          46.000          43.000  
 127679278.009 5  99490420.607 5  24296562.807    24296580.944       -3433.637  
     -2674.539          31.000          35.000  
 24  1 10  3 24  6.6000000  0  7G08G24G18G23G10G32G15
 128106491.23934  99823324.624 5  24377865.813    24377887.755        2703.969  
      2106.184          28.000          34.000  
 127961539.234 5  99710383.782 6  24350270.356    24350291.971         136.984  
       107.078          33.000          38.000  
 113354897.038 6  88328554.889 7  21570721.539    21570737.889       -1914.727  
     -1492.117          41.000          44.000  
 110033179.614 6  85740197.215 6  20938618.769    20938633.189       -1900.523  
     -1480.273          39.000          41.000  
 107495373.048 7  83762696.230 7  20455690.784    20455706.494         -41.949  
       -31.598          47.000          45.000  
 114677629.361 7  89359279.963 7  21822426.170    21822445.276        2754.770  
      2146.004          47.000          43.000  
 127679621.393 5  99490688.260 5  24296628.167    24296646.292       -3433.750  
     -2676.176          31.000          35.000  
 24  1 10  3 24  6.7000000  0  7G08G24G18G23G10G32G15
 128106220.93024  99823114.087 5  24377814.375    24377836.340        2701.195  
      2105.516          28.000          34.000  
 127961525.556 5  99710373.163 6  24350267.753    24350289.378         136.504  
       106.406          33.000          38.000  
 113355088.554 7  88328704.147 7  21570757.983    21570774.340       -1914.664  
     -1492.188          42.000          44.000  
 110033369.688 6  85740345.379 6  20938654.939    20938669.372       -1901.316  
     -1481.070          39.000          41.000  
 107495377.136 7  83762699.471 7  20455691.562    20455707.285         -40.758  
       -32.512          46.000          44.000  
 114677353.804 7  89359065.169 7  21822373.733    21822392.822        2755.895  
      2147.484          47.000          43.000  
 127679964.901 5  99490955.978 5  24296693.534    24296711.671       -3435.789  
     -2677.168          32.000          35.000  
 24  1 10  3 24  6.8000000  0  7G08G24G18G23G10G32G15
 128105950.890 4  99822903.699 5  24377763.230    24377784.781        2699.996  
      2103.496          28.000          33.000  
 127961512.017 5  99710362.593 6  24350265.075    24350287.281         136.516  
       105.902          33.000          38.000  
 113355280.114 7  88328853.420 7  21570794.311    21570811.145       -1916.484  
     -1492.742          43.000          44.000  
 110033559.959 6  85740493.593 6  20938690.967    20938705.372       -1903.719  
     -1482.879          40.000          41.000  
 107495381.359 7  83762702.779 7  20455692.060    20455707.749         -42.562  
       -32.871          46.000          44.000  
 114677078.125 7  89358850.364 7  21822322.085    21822340.309        2757.480  
      2148.039          47.000          43.000  
 127680308.641 5  99491223.771 5  24296759.055    24296777.108       -3437.207  
     -2677.973          32.000          35.000  
 24  1 10  3 24  6.9000000  0  7G08G24G18G23G10G32G15
 128105681.096 4  99822693.394 5  24377711.890    24377733.422        2698.805  
      2103.465          28.000          33.000  
 127961498.438 5  99710352.052 6  24350262.491    24350284.707         135.207  
       105.562          34.000          38.000  
 113355471.667 7  88329002.646 7  21570830.762    21570847.588       -1915.156  
     -1492.551          43.000          44.000  
 110033750.256 6  85740641.926 6  20938727.179    20938741.597       -1902.539  
     -1482.777          40.000          41.000  
 107495385.611 7  83762706.092 7  20455692.870    20455708.558         -42.691  
       -33.328          47.000          44.000  
 114676802.323 7  89358635.482 7  21822269.602    21822287.833        2758.703  
      2149.250          46.000          43.000  
 127680652.398 5  99491491.664 6  24296824.470    24296842.530       -3436.922  
     -2678.887          33.000          36.000  
 24  1 10  3 24  7.0000000  0  7G08G24G18G23G10G32G15
 128105411.265 4  99822483.104 5  24377660.785    24377681.919        2697.812  
      2102.797          29.000          33.000  
 127961484.974 5  99710341.465 6  24350259.851    24350281.692         134.723  
       105.645          35.000          38.000  
 113355663.181 7  88329151.933 7  21570867.761    21570883.967       -1914.730  
     -1492.492          43.000          44.000  
 110033940.685 6  85740790.293 6  20938763.737    20938778.595       -1905.016  
     -1483.414          41.000          41.000  
 107495389.944 7  83762709.425 7  20455693.647    20455708.982         -43.586  
       -33.324          47.000          44.000  
 114676526.454 7  89358420.513 7  21822216.442    21822235.070        2758.777  
      2149.715          47.000          43.000  
 127680996.271 5  99491759.659 6  24296890.344    24296908.548       -3439.574  
     -2679.816          32.000          36.000  
 24  1 10  3 24  7.1000000  0  7G08G24G18G23G10G32G15
 128105141.42334  99822272.950 5  24377609.452    24377630.597        2697.496  
      2102.160          29.000          34.000  
 127961471.449 5  99710330.974 6  24350257.277    24350279.130         135.277  
       105.152          35.000          38.000  
 113355854.675 7  88329301.129 7  21570904.201    21570920.402       -1914.742  
     -1492.352          43.000          44.000  
 110034131.119 7  85740938.653 7  20938799.975    20938814.826       -1904.434  
     -1484.113          42.000          42.000  
 107495394.280 7  83762712.801 7  20455694.472    20455709.806         -43.586  
       -33.863          46.000          44.000  
 114676250.501 7  89358205.460 7  21822163.930    21822182.552        2759.609  
      2150.246          47.000          43.000  
 127681340.231 5  99492027.673 6  24296955.798    24296974.000       -3439.894  
     -2680.055          31.000          36.000  
 24  1 10  3 24  7.2000000  0  7G08G24G18G23G10G32G15
 128104871.83824  99822062.782 5  24377558.120    24377579.249        2695.082  
      2101.164          29.000          34.000  
 127961457.973 6  99710320.502 6  24350255.306    24350276.768         135.090  
       104.773          36.000          38.000  
 113356046.272 7  88329450.457 7  21570940.840    21570955.909       -1916.402  
     -1492.812          44.000          44.000  
 110034321.705 7  85741087.195 7  20938836.524    20938851.055       -1905.973  
     -1484.695          42.000          42.000  
 107495398.727 7  83762716.295 7  20455694.889    20455711.159         -44.551  
       -34.621          46.000          44.000  
 114675974.498 7  89357990.425 7  21822112.228    21822129.686        2760.551  
      2150.750          47.000          43.000  
 127681684.305 5  99492295.792 6  24297021.280    24297039.985       -3441.352  
     -2681.234          32.000          36.000  
 24  1 10  3 24  7.3000000  0  7G08G24G18G23G10G32G15
 128104602.32425  99821852.792 5  24377506.833    24377527.967        2696.074  
      2100.074          30.000          34.000  
 127961444.552 6  99710310.023 6  24350252.753    24350274.209         133.961  
       104.609          36.000          39.000  
 113356237.824 7  88329599.655 7  21570977.291    21570992.344       -1915.891  
     -1492.664          44.000          44.000  
 110034512.349 7  85741235.713 7  20938872.802    20938887.324       -1906.805  
     -1485.922          42.000          42.000  
 107495403.187 7  83762719.746 7  20455695.738    20455712.002         -44.863  
       -34.844          46.000          45.000  
 114675698.437 8  89357775.333 7  21822059.696    21822077.159        2760.469  
      2150.504          48.000          43.000  
 127682028.479 5  99492563.916 6  24297086.775    24297105.463       -3441.695  
     -2681.031          32.000          37.000  
 24  1 10  3 24  7.4000000  0  7G08G24G18G23G10G32G15
 128104332.72425  99821642.789 5  24377455.593    24377476.471        2694.605  
      2100.086          30.000          34.000  
 127961431.119 6  99710299.610 6  24350250.431    24350271.595         134.152  
       104.301          36.000          39.000  
 113356429.397 7  88329748.939 7  21571013.574    21571028.934       -1915.301  
     -1492.383          44.000          44.000  
 110034702.954 7  85741384.282 7  20938909.221    20938923.442       -1905.789  
     -1485.238          43.000          42.000  
 107495407.710 7  83762723.255 7  20455696.887    20455713.367         -45.457  
       -34.848          47.000          45.000  
 114675422.412 7  89357560.227 7  21822007.857    21822025.010        2760.559  
      2151.496          47.000          43.000  
 127682372.562 5  99492832.072 6  24297152.228    24297171.067       -3441.215  
     -2681.754          34.000          37.000  
 24  1 10  3 24  7.5000000  0  7G08G24G18G23G10G32G15
 128104063.32925  99821432.788 5  24377404.328    24377425.187        2695.566  
      2099.797          30.000          35.000  
 127961417.756 6  99710289.143 6  24350247.888    24350269.039         134.195  
       104.770          36.000          39.000  
 113356620.944 7  88329898.241 7  21571050.024    21571065.395       -1915.512  
     -1492.953          44.000          44.000  
 110034893.647 7  85741532.821 7  20938945.509    20938959.717       -1907.723  
     -1485.547          43.000          43.000  
 107495412.206 7  83762726.772 7  20455697.743    20455714.226         -45.215  
       -35.148          47.000          45.000  
 114675146.317 7  89357345.009 7  21821955.318    21821972.452        2760.785  
      2151.312          46.000          43.000  
 127682716.858 5  99493100.322 6  24297217.745    24297236.576       -3442.637  
     -2682.250          34.000          37.000  
 24  1 10  3 24  7.6000000  0  7G08G24G18G23G10G32G15
 128103793.77625  99821222.846 5  24377353.644    24377373.760        2694.262  
      2099.695          31.000          35.000  
 127961404.381 5  99710278.675 6  24350245.140    24350266.295         133.328  
       104.598          35.000          40.000  
 113356812.505 7  88330047.459 7  21571086.454    21571101.484       -1915.414  
     -1492.258          44.000          44.000  
 110035084.262 7  85741681.395 7  20938981.641    20938995.961       -1906.160  
     -1485.648          43.000          43.000  
 107495416.694 8  83762730.260 7  20455699.027    20455714.890         -44.551  
       -35.109          48.000          45.000  
 114674870.225 7  89357129.916 7  21821901.741    21821920.182        2761.023  
      2151.578          46.000          42.000  
 127683060.972 5  99493368.465 6  24297283.087    24297302.341       -3441.488  
     -2681.594          34.000          38.000  
 24  1 10  3 24  7.7000000  0  7G08G24G18G23G10G32G15
 128103524.32825  99821012.889 6  24377302.369    24377322.487        2694.246  
      2099.484          32.000          36.000  
 127961390.933 5  99710268.231 6  24350242.580    24350263.745         134.352  
       104.414          35.000          40.000  
 113357004.065 7  88330196.745 7  21571122.907    21571137.941       -1915.852  
     -1492.555          44.000          44.000  
 110035274.963 7  85741829.973 7  20939017.930    20939032.245       -1906.926  
     -1485.797          43.000          43.000  
 107495421.235 8  83762733.822 7  20455699.891    20455715.760         -45.586  
       -35.281          48.000          45.000  
 114674594.072 7  89356914.713 7  21821849.190    21821867.627        2761.793  
      2151.684          46.000          42.000  
 127683405.209 5  99493636.693 6  24297348.594    24297367.845       -3443.098  
     -2682.148          34.000          38.000  
 24  1 10  3 24  7.8000000  0  7G08G18G23G24G10G15G32
 128103254.933 5  99820802.938 6  24377251.019    24377271.613        2693.457  
      2099.582          32.000          37.000  
 113357195.673 7  88330346.042 7  21571159.025    21571174.299       -1916.035  
     -1493.156          45.000          44.000  
 110035465.661 7  85741978.558 7  20939054.235    20939068.656       -1907.238  
     -1485.879          43.000          44.000  
 127961377.565 5  99710257.820 6  24350240.310    24350261.780         133.512  
       104.156          35.000          40.000  
 107495425.810 8  83762737.388 7  20455701.261    20455716.092         -46.289  
       -35.598          48.000          46.000  
 127683749.535 5  99493904.901 6  24297414.007    24297433.321       -3442.394  
     -2682.164          35.000          38.000  
 114674318.048 7  89356699.637 7  21821796.165    21821814.642        2759.883  
      2151.105          47.000          42.000  
 24  1 10  3 24  7.9000000  0  7G08G18G23G24G10G15G32
 128102985.548 5  99820592.989 6  24377199.757    24377220.342        2694.539  
      2099.348          33.000          37.000  
 113357387.270 7  88330495.332 7  21571195.484    21571210.758       -1916.191  
     -1492.734          45.000          44.000  
 110035656.342 7  85742127.149 7  20939090.520    20939104.944       -1906.707  
     -1485.965          43.000          44.000  
 127961364.172 5  99710247.385 6  24350237.761    24350259.232         134.027  
       104.297          35.000          40.000  
 107495430.347 8  83762740.887 7  20455702.125    20455716.946         -45.234  
       -35.359          48.000          46.000  
 127684093.683 6  99494173.135 6  24297479.496    24297498.826       -3441.504  
     -2682.359          36.000          37.000  
 114674041.968 7  89356484.467 7  21821743.629    21821762.096        2760.660  
      2151.078          47.000          42.000  
 24  1 10  3 24  8.0000000  0  7G08G18G23G24G10G15G32
 128102716.048 5  99820383.043 6  24377148.551    24377169.469        2694.145  
      2099.535          33.000          37.000  
 113357578.802 7  88330644.578 7  21571231.877    21571246.978       -1915.242  
     -1492.805          45.000          44.000  
 110035847.007 7  85742275.727 7  20939127.248    20939141.705       -1906.270  
     -1485.500          44.000          44.000  
 127961350.781 5  99710236.971 6  24350235.346    24350256.470         133.258  
       104.199          35.000          40.000  
 107495434.898 7  83762744.473 7  20455702.327    20455718.611         -45.605  
       -35.516          47.000          46.000  
 127684437.839 6  99494441.348 6  24297545.565    24297563.647       -3441.274  
     -2682.301          37.000          37.000  
 114673765.917 7  89356269.405 7  21821691.106    21821709.630        2760.750  
      2150.969          47.000          42.000  
 24  1 10  3 24  8.1000000  0  7G08G18G23G24G10G15G32
 128102446.529 5  99820173.037 6  24377097.263    24377118.183        2694.727  
      2100.016          33.000          37.000  
 113357770.367 7  88330793.861 7  21571268.330    21571283.435       -1915.359  
     -1492.676          45.000          44.000  
 110036037.632 7  85742424.252 7  20939163.522    20939177.976       -1906.332  
     -1485.371          43.000          45.000  
 127961337.333 5  99710226.484 6  24350232.787    24350253.909         134.410  
       104.750          35.000          40.000  
 107495439.431 7  83762748.014 7  20455703.189    20455719.476         -45.148  
       -35.082          47.000          46.000  
 127684782.000 6  99494709.514 6  24297611.057    24297629.136       -3441.723  
     -2681.395          37.000          38.000  
 114673489.895 7  89356054.312 7  21821638.580    21821657.102        2760.059  
      2150.746          47.000          42.000  
 24  1 10  3 24  8.2000000  0  7G08G18G23G24G10G15G32
 128102177.125 5  99819963.071 6  24377046.490    24377066.892        2694.289  
      2099.492          33.000          37.000  
 113357961.945 7  88330943.155 7  21571305.122    21571320.472       -1915.758  
     -1492.879          44.000          44.000  
 110036228.247 7  85742572.785 7  20939199.756    20939214.421       -1906.078  
     -1485.465          44.000          45.000  
 127961324.010 5  99710216.006 6  24350229.978    24350251.053         133.559  
       104.672          34.000          40.000  
 107495443.970 7  83762751.500 7  20455703.561    20455720.397         -45.500  
       -35.383          47.000          46.000  
 127685126.136 6  99494977.650 6  24297676.513    24297693.891       -3441.473  
     -2681.477          37.000          38.000  
 114673213.934 7  89355839.283 7  21821585.973    21821604.496        2759.523  
      2150.289          47.000          42.000  
 24  1 10  3 24  8.3000000  0  7G08G18G23G24G10G15G32
 128101907.662 5  99819753.094 6  24376995.212    24377015.613        2695.027  
      2100.055          33.000          37.000  
 113358153.458 7  88331092.380 7  21571341.566    21571356.914       -1915.250  
     -1492.141          45.000          44.000  
 110036418.814 7  85742721.297 7  20939236.020    20939250.689       -1905.578  
     -1484.738          44.000          45.000  
 127961310.521 5  99710205.583 6  24350227.411    24350248.508         134.684  
       104.648          34.000          40.000  
 107495448.429 7  83762754.978 7  20455704.409    20455721.247         -44.684  
       -34.734          47.000          46.000  
 127685470.210 6  99495245.813 6  24297741.988    24297759.379       -3440.473  
     -2681.473          37.000          38.000  
 114672937.982 7  89355624.206 7  21821533.461    21821551.972        2759.535  
      2150.523          47.000          42.000  
 24  1 10  3 24  8.4000000  0  7G08G18G23G24G10G15G32
 128101638.013 5  99819542.978 6  24376944.290    24376964.293        2695.875  
      2100.746          33.000          37.000  
 113358344.981 7  88331241.607 7  21571377.817    21571393.099       -1915.047  
     -1492.430          44.000          44.000  
 110036609.312 7  85742869.700 7  20939272.302    20939286.986       -1905.164  
     -1484.137          44.000          45.000  
 127961297.021 5  99710195.095 6  24350224.296    24350245.829         134.918  
       104.930          35.000          40.000  
 107495452.862 7  83762758.464 7  20455705.448    20455722.160         -44.031  
       -34.559          47.000          46.000  
 127685814.187 6  99495513.859 6  24297807.507    24297824.776       -3440.234  
     -2680.668          38.000          38.000  
 114672661.992 7  89355409.193 7  21821480.418    21821499.573        2759.945  
      2150.293          47.000          42.000  
 24  1 10  3 24  8.5000000  0  7G08G18G23G24G10G15G32
 128101368.438 5  99819332.945 6  24376892.992    24376913.001        2696.078  
      2100.523          34.000          37.000  
 113358536.491 7  88331390.824 7  21571414.260    21571429.540       -1914.934  
     -1492.113          45.000          44.000  
 110036799.771 7  85743018.114 7  20939308.545    20939323.230       -1904.465  
     -1483.953          44.000          45.000  
 127961283.532 5  99710184.552 6  24350221.729    24350243.255         134.797  
       105.438          35.000          41.000  
 107495457.280 7  83762761.904 7  20455706.289    20455723.001         -44.188  
       -34.426          47.000          46.000  
 127686158.233 6  99495781.886 6  24297872.977    24297890.231       -3440.062  
     -2680.324          38.000          38.000  
 114672386.108 7  89355194.250 7  21821427.919    21821447.082        2759.020  
      2149.855          47.000          42.000  
 24  1 10  3 24  8.6000000  0  7G08G18G23G24G10G15G32
 128101098.738 5  99819122.845 6  24376841.881    24376861.317        2696.621  
      2100.949          34.000          37.000  
 113358727.962 7  88331540.052 7  21571450.813    21571465.990       -1914.723  
     -1492.309          44.000          44.000  
 110036990.190 7  85743166.533 7  20939344.640    20939359.178       -1904.016  
     -1484.031          44.000          45.000  
 127961270.041 5  99710174.008 6  24350218.982    24350240.836         134.887  
       105.203          34.000          41.000  
 107495461.677 7  83762765.339 7  20455707.735    20455723.761         -43.973  
       -34.258          47.000          47.000  
 127686502.158 6  99496049.918 6  24297938.384    24297956.210       -3439.328  
     -2680.488          38.000          39.000  
 114672110.190 7  89354979.182 7  21821375.617    21821394.708        2758.742  
      2150.109          47.000          42.000  
 24  1 10  3 24  8.7000000  0  7G08G18G23G24G10G15G32
 128100829.107 5  99818912.688 6  24376790.572    24376809.995        2696.602  
      2101.391          35.000          37.000  
 113358919.465 7  88331689.286 7  21571487.254    21571502.435       -1915.121  
     -1492.023          45.000          44.000  
 110037180.598 7  85743314.871 7  20939380.873    20939395.404       -1904.293  
     -1483.574          44.000          45.000  
 127961256.524 5  99710163.533 6  24350216.410    24350238.278         135.016  
       105.121          34.000          41.000  
 107495466.049 7  83762768.703 7  20455708.567    20455724.583         -43.980  
       -34.297          47.000          47.000  
 127686846.059 6  99496317.913 6  24298003.826    24298021.658       -3439.180  
     -2679.816          38.000          39.000  
 114671834.326 7  89354764.230 7  21821323.122    21821342.215        2758.586  
      2149.359          47.000          42.000  
 24  1 10  3 24  8.8000000  0  7G08G18G23G24G10G15G32
 128100559.415 5  99818702.529 6  24376738.946    24376758.805        2696.695  
      2101.621          35.000          37.000  
 113359110.930 7  88331838.461 7  21571523.751    21571539.138       -1914.754  
     -1492.086          44.000          44.000  
 110037370.915 7  85743463.197 7  20939417.167    20939431.408       -1903.676  
     -1483.273          44.000          45.000  
 127961243.013 5  99710152.958 6  24350213.799    24350235.711         135.258  
       105.516          34.000          41.000  
 107495470.397 7  83762772.130 7  20455709.027    20455725.576         -43.562  
       -33.668          47.000          47.000  
 127687189.946 6  99496585.835 6  24298069.024    24298087.415       -3439.125  
     -2679.230          38.000          39.000  
 114671558.495 7  89354549.373 7  21821271.266    21821289.776        2758.770  
      2149.230          47.000          42.000  
 24  1 10  3 24  8.9000000  0  7G08G18G23G24G10G15G32
 128100289.625 5  99818492.313 6  24376687.607    24376707.468        2697.336  
      2101.906          34.000          38.000  
 113359302.434 7  88331987.646 7  21571560.194    21571575.571       -1914.852  
     -1491.863          44.000          44.000  
 110037561.227 7  85743611.454 7  20939453.383    20939467.614       -1903.543  
     -1482.910          44.000          45.000  
 127961229.455 5  99710142.430 6  24350211.219    24350233.140         135.164  
       105.500          34.000          40.000  
 107495474.712 7  83762775.460 7  20455709.848    20455726.389         -43.512  
       -33.707          47.000          47.000  
 127687533.773 6  99496853.770 6  24298134.452    24298152.847       -3438.692  
     -2679.469          38.000          39.000  
 114671282.702 7  89354334.423 7  21821218.784    21821237.283        2758.137  
      2149.121          47.000          42.000  
 24  1 10  3 24  9.0000000  0  7G08G18G23G24G10G15G32
 128100019.887 5  99818282.124 6  24376635.996    24376655.950        2697.555  
      2101.914          34.000          37.000  
 113359493.891 7  88332136.896 7  21571596.517    21571611.965       -1914.730  
     -1492.441          44.000          44.000  
 110037751.507 7  85743759.734 7  20939489.373    20939503.755       -1902.941  
     -1482.488          44.000          45.000  
 127961215.949 5  99710131.880 6  24350208.438    24350230.462         135.230  
       105.309          33.000          40.000  
 107495478.988 7  83762778.848 7  20455710.975    20455727.021         -42.918  
       -33.457          47.000          47.000  
 127687877.578 6  99497121.684 6  24298199.954    24298218.290       -3438.226  
     -2679.148          38.000          39.000  
 114671006.965 7  89354119.557 7  21821166.016    21821185.045        2757.668  
      2148.598          47.000          42.000  
 24  1 10  3 24  9.1000000  0  7G08G18G23G24G10G15G32
 128099750.053 5  99818071.883 6  24376584.649    24376604.607        2698.074  
      2102.387          34.000          37.000  
 113359685.341 7  88332286.072 7  21571632.949    21571648.395       -1914.758  
     -1491.793          45.000          44.000  
 110037941.733 7  85743907.953 7  20939525.572    20939539.952       -1902.586  
     -1482.340          44.000          45.000  
 127961202.414 5  99710121.346 6  24350205.863    24350227.889         135.133  
       105.449          33.000          41.000  
 107495483.258 7  83762782.130 7  20455711.787    20455727.823         -42.781  
       -32.941          47.000          47.000  
 127688221.306 6  99497389.548 6  24298265.363    24298283.705       -3437.824  
     -2678.562          38.000          38.000  
 114670731.201 7  89353904.681 7  21821113.540    21821132.570        2757.730  
      2148.637          47.000          42.000  
 24  1 10  3 24  9.2000000  0  7G08G18G23G24G10G15G32
 128099480.217 5  99817861.612 6  24376533.324    24376553.663        2698.109  
      2102.707          34.000          37.000  
 113359876.840 7  88332435.238 7  21571669.367    21571685.338       -1914.766  
     -1491.852          45.000          44.000  
 110038131.921 7  85744056.161 7  20939562.177    20939576.216       -1902.113  
     -1481.895          44.000          45.000  
 127961188.870 5  99710110.778 6  24350203.223    24350225.535         135.473  
       105.602          34.000          40.000  
 107495487.457 7  83762785.377 7  20455712.016    20455728.389         -42.504  
       -32.953          46.000          47.000  
 127688565.062 6  99497657.391 6  24298330.911    24298349.326       -3437.723  
     -2678.402          37.000          38.000  
 114670455.492 7  89353689.882 7  21821061.098    21821080.114        2757.363  
      2148.211          47.000          42.000  
 24  1 10  3 24  9.3000000  0  7G08G18G23G24G10G15G32
 128099210.316 5  99817651.292 6  24376481.964    24376502.301        2698.484  
      2103.074          34.000          37.000  
 113360068.255 7  88332584.417 7  21571705.792    21571721.769       -1914.418  
     -1491.773          45.000          44.000  
 110038322.094 7  85744204.345 7  20939598.366    20939612.404       -1901.945  
     -1481.836          44.000          45.000  
 127961175.270 5  99710100.202 6  24350200.635    24350222.953         135.707  
       105.895          34.000          40.000  
 107495491.664 7  83762788.697 7  20455712.816    20455729.200         -42.070  
       -32.770          47.000          47.000  
 127688908.785 6  99497925.195 6  24298396.319    24298414.727       -3437.293  
     -2677.980          37.000          38.000  
 114670179.755 7  89353474.976 7  21821008.627    21821027.632        2757.273  
      2148.633          47.000          42.000  
 24  1 10  3 24  9.4000000  0  7G08G18G23G24G10G15G32
 128098940.377 5  99817440.946 6  24376430.619    24376451.307        2699.082  
      2103.461          34.000          37.000  
 113360259.670 7  88332733.605 7  21571742.373    21571758.195       -1914.203  
     -1491.691          45.000          44.000  
 110038512.219 7  85744352.515 7  20939634.514    20939648.518       -1901.480  
     -1481.590          43.000          45.000  
 127961161.722 5  99710089.665 6  24350198.611    24350220.270         135.582  
       105.578          34.000          40.000  
 107495495.807 7  83762791.916 7  20455713.449    20455730.635         -41.809  
       -32.223          47.000          47.000  
 127689252.433 6  99498192.970 6  24298461.705    24298480.151       -3436.906  
     -2677.781          38.000          38.000  
 114669904.059 7  89353260.177 7  21820956.312    21820975.035        2757.320  
      2148.305          47.000          42.000  
 24  1 10  3 24  9.5000000  0  7G08G18G23G24G10G15G32
 128098670.435 5  99817230.620 6  24376379.251    24376399.943        2699.164  
      2103.402          33.000          37.000  
 113360451.172 7  88332882.785 7  21571778.815    21571794.626       -1914.824  
     -1492.016          44.000          44.000  
 110038702.346 7  85744500.673 7  20939670.694    20939684.700       -1901.332  
     -1481.637          44.000          45.000  
 127961148.138 5  99710079.058 6  24350196.026    24350217.679         135.742  
       105.898          34.000          40.000  
 107495499.981 7  83762795.173 7  20455714.243    20455731.430         -41.664  
       -32.684          47.000          47.000  
 127689596.094 6  99498460.742 6  24298527.102    24298545.544       -3436.859  
     -2677.629          38.000          37.000  
 114669628.425 7  89353045.414 7  21820903.861    21820922.588        2756.730  
      2147.820          47.000          42.000  
 24  1 10  3 24  9.6000000  0  7G08G18G23G24G10G15G32
 128098400.507 5  99817020.250 6  24376327.760    24376348.584        2699.078  
      2103.551          33.000          37.000  
 113360642.668 7  88333032.009 7  21571814.575    21571830.576       -1914.902  
     -1492.234          44.000          44.000  
 110038892.523 7  85744648.890 7  20939706.720    20939721.091       -1901.785  
     -1482.020          44.000          45.000  
 127961134.663 5  99710068.496 6  24350193.369    24350214.803         135.125  
       105.488          35.000          40.000  
 107495504.246 8  83762798.512 7  20455715.883    20455731.847         -42.648  
       -33.098          48.000          47.000  
 127689939.775 6  99498728.517 6  24298592.736    24298610.281       -3436.852  
     -2677.898          37.000          37.000  
 114669352.851 8  89352830.636 7  21820851.999    21820869.949        2755.430  
      2147.324          48.000          42.000  
 24  1 10  3 24  9.7000000  0  7G08G18G23G24G10G15G32
 128098130.588 5  99816809.980 6  24376276.397    24376297.234        2699.117  
      2102.789          34.000          37.000  
 113360834.203 7  88333181.285 7  21571851.023    21571867.031       -1915.469  
     -1492.820          45.000          44.000  
 110039082.733 7  85744797.022 7  20939742.915    20939757.267       -1902.141  
     -1481.680          44.000          45.000  
 127961121.141 5  99710058.002 6  24350190.795    24350212.241         135.012  
       105.207          35.000          40.000  
 107495508.505 8  83762801.775 7  20455716.693    20455732.644         -42.824  
       -33.027          48.000          47.000  
 127690283.395 6  99498996.300 6  24298658.125    24298675.677       -3436.457  
     -2677.922          36.000          37.000  
 114669077.294 8  89352615.940 7  21820799.562    21820817.518        2755.664  
      2147.102          48.000          42.000  
 24  1 10  3 24  9.8000000  0  7G08G18G23G24G10G15G32
 128097860.632 5  99816599.606 6  24376224.518    24376245.367        2699.465  
      2103.637          34.000          37.000  
 113361025.761 7  88333330.527 7  21571888.179    21571903.594       -1915.375  
     -1492.305          45.000          44.000  
 110039272.878 7  85744945.207 7  20939778.724    20939793.197       -1901.762  
     -1481.836          43.000          45.000  
 127961107.576 5  99710047.461 6  24350188.714    24350209.987         135.457  
       105.410          35.000          40.000  
 107495512.735 8  83762805.091 7  20455717.857    20455733.485         -42.363  
       -33.191          48.000          47.000  
 127690627.058 6  99499264.043 6  24298722.944    24298740.773       -3436.535  
     -2677.496          36.000          36.000  
 114668801.747 8  89352401.240 7  21820747.518    21820765.578        2755.648  
      2146.895          48.000          42.000  
 24  1 10  3 24  9.9000000  0  7G08G18G23G24G10G15G32
 128097590.664 5  99816389.215 6  24376173.145    24376193.987        2699.543  
      2103.742          33.000          37.000  
 113361217.263 7  88333479.745 7  21571924.620    21571940.035       -1915.133  
     -1492.430          45.000          44.000  
 110039462.977 7  85745093.387 7  20939814.899    20939829.384       -1901.238  
     -1481.598          43.000          45.000  
 127961094.010 5  99710036.894 6  24350186.133    24350207.406         135.512  
       105.488          35.000          40.000  
 107495516.969 7  83762808.373 7  20455718.663    20455734.286         -42.375  
       -32.957          47.000          46.000  
 127690970.628 6  99499531.836 6  24298788.323    24298806.171       -3436.160  
     -2677.699          36.000          37.000  
 114668526.264 7  89352186.550 7  21820695.095    21820713.149        2755.199  
      2147.066          47.000          42.000  
 24  1 10  3 24 10.0000000  0  7G08G18G23G24G10G15G32
 128097320.698 5  99816178.854 6  24376121.780    24376142.927        2699.633  
      2103.738          33.000          37.000  
 113361408.795 7  88333628.989 7  21571961.154    21571976.435       -1915.195  
     -1492.215          45.000          44.000  
 110039653.153 7  85745241.550 7  20939850.705    20939865.309       -1901.441  
     -1481.527          43.000          45.000  
 127961080.463 5  99710026.306 6  24350183.273    24350205.094         135.559  
       105.762          35.000          40.000  
 107495521.198 7  83762811.701 7  20455718.491    20455735.458         -42.180  
       -32.887          47.000          46.000  
 127691314.239 6  99499799.549 6  24298853.780    24298871.526       -3436.086  
     -2677.133          37.000          37.000  
 114668250.775 7  89351971.877 7  21820642.156    21820660.481        2754.941  
      2146.602          47.000          42.000  
 24  1 10  3 24 10.1000000  0  7G08G18G23G24G10G15G32
 128097050.680 5  99815968.517 6  24376070.397    24376091.561        2699.934  
      2103.543          33.000          37.000  
 113361600.353 7  88333778.262 7  21571997.606    21572012.889       -1915.406  
     -1492.684          45.000          44.000  
 110039843.284 7  85745389.701 7  20939886.886    20939901.489       -1901.508  
     -1481.625          43.000          45.000  
 127961066.876 5  99710015.775 6  24350180.688    24350202.522         135.793  
       105.434          35.000          40.000  
 107495525.472 7  83762815.036 7  20455719.305    20455736.273         -42.543  
       -33.309          47.000          46.000  
 127691657.804 6  99500067.275 6  24298919.159    24298936.907       -3435.797  
     -2677.301          37.000          37.000  
 114667975.333 7  89351757.255 7  21820589.741    21820608.068        2754.699  
      2146.320          47.000          42.000  
 24  1 10  3 24 10.2000000  0  7G08G18G23G24G10G15G32
 128096780.717 5  99815758.102 6  24376018.845    24376039.831        2699.688  
      2103.953          33.000          37.000  
 113361791.867 7  88333927.484 7  21572034.307    21572049.346       -1915.363  
     -1492.441          45.000          44.000  
 110040033.432 7  85745537.842 7  20939923.156    20939937.620       -1901.480  
     -1481.395          43.000          45.000  
 127961053.375 5  99710005.199 6  24350178.017    24350200.267         135.414  
       105.824          35.000          40.000  
 107495529.688 7  83762818.318 7  20455719.818    20455736.817         -42.324  
       -32.941          47.000          46.000  
 127692001.357 6  99500334.967 6  24298984.511    24299002.054       -3435.738  
     -2676.945          37.000          37.000  
 114667699.909 7  89351542.631 7  21820537.283    21820555.124        2754.465  
      2146.090          47.000          42.000  
 24  1 10  3 24 10.3000000  0  7G08G18G23G24G10G15G32
 128096510.736 5  99815547.708 6  24375967.469    24375988.451        2699.875  
      2103.637          33.000          37.000  
 113361983.439 7  88334076.771 7  21572070.763    21572085.804       -1915.539  
     -1492.648          45.000          44.000  
 110040223.507 7  85745685.977 7  20939959.326    20939973.796       -1900.961  
     -1481.258          43.000          45.000  
 127961039.757 5  99709994.606 6  24350175.426    24350197.681         135.797  
       105.832          35.000          40.000  
 107495533.930 7  83762821.649 7  20455720.625    20455737.630         -42.316  
       -33.152          47.000          46.000  
 127692344.872 6  99500602.688 6  24299049.880    24299067.434       -3435.426  
     -2677.000          38.000          38.000  
 114667424.496 7  89351328.019 7  21820484.873    21820502.713        2754.324  
      2146.172          47.000          42.000  
 24  1 10  3 24 10.4000000  0  7G08G24G18G23G10G32G15
 128096240.638 5  99815337.304 6  24375915.970    24375937.443        2700.512  
      2104.316          34.000          37.000  
 127961026.198 5  99709984.026 6  24350173.135    24350194.917         135.719  
       106.051          35.000          40.000  
 113362174.952 7  88334226.022 7  21572106.589    21572122.127       -1915.309  
     -1492.570          45.000          44.000  
 110040413.558 7  85745834.067 7  20939995.608    20940010.008       -1900.844  
     -1481.133          43.000          45.000  
 107495538.178 7  83762824.915 7  20455721.566    20455738.139         -42.566  
       -32.953          47.000          46.000  
 114667149.126 7  89351113.462 7  21820432.066    21820449.793        2753.973  
      2145.770          47.000          42.000  
 127692688.352 6  99500870.334 6  24299115.343    24299132.601       -3435.027  
     -2676.535          38.000          38.000  
 24  1 10  3 24 10.5000000  0  7G08G24G18G23G10G32G15
 128095970.567 5  99815126.836 6  24375864.577    24375886.045        2700.691  
      2104.711          34.000          37.000  
 127961012.562 5  99709973.398 6  24350170.540    24350192.322         136.031  
       106.391          35.000          40.000  
 113362366.431 7  88334375.189 7  21572143.026    21572158.555       -1914.902  
     -1491.812          44.000          44.000  
 110040603.532 7  85745982.105 7  20940031.759    20940046.160       -1900.047  
     -1480.418          44.000          45.000  
 107495542.327 7  83762828.187 7  20455722.356    20455738.938         -41.844  
       -32.656          47.000          46.000  
 114666873.791 7  89350898.901 7  21820379.671    21820397.395        2753.539  
      2145.469          47.000          42.000  
 127693031.795 6  99501137.910 6  24299180.699    24299197.945       -3434.531  
     -2675.801          37.000          38.000  
 24  1 10  3 24 10.6000000  0  7G08G24G18G23G10G32G15
 128095700.315 5  99814916.241 6  24375813.134    24375834.912        2702.555  
      2105.793          34.000          38.000  
 127960998.787 5  99709962.698 6  24350168.403    24350189.498         138.102  
       106.984          35.000          40.000  
 113362557.908 7  88334524.402 7  21572179.158    21572194.994       -1914.820  
     -1492.062          45.000          44.000  
 110040793.453 7  85746130.112 7  20940068.134    20940082.782       -1898.809  
     -1479.617          44.000          45.000  
 107495546.414 7  83762831.400 7  20455724.180    20455739.730         -40.441  
       -32.117          46.000          47.000  
 114666598.547 7  89350684.390 6  21820327.247    21820345.111        2752.199  
      2144.883          47.000          41.000  
 127693375.041 6  99501405.383 6  24299246.000    24299263.913       -3432.348  
     -2674.895          38.000          39.000  
 24  1 10  3 24 10.7000000  0  7G08G24G18G23G10G32G15
 128095430.045 6  99814705.583 6  24375761.703    24375783.467        2703.051  
      2106.527          36.000          38.000  
 127960985.063 5  99709952.000 6  24350165.791    24350186.885         137.246  
       106.727          34.000          40.000  
 113362749.409 7  88334673.667 7  21572215.600    21572231.447       -1914.902  
     -1492.414          44.000          44.000  
 110040983.291 7  85746278.034 7  20940104.259    20940118.906       -1898.199  
     -1479.500          44.000          45.000  
 107495550.534 7  83762834.643 7  20455724.964    20455740.522         -41.352  
       -32.137          46.000          47.000  
 114666323.409 7  89350470.035 6  21820274.890    21820292.763        2750.664  
      2143.922          46.000          41.000  
 127693718.188 6  99501672.771 6  24299311.299    24299329.212       -3431.426  
     -2674.156          38.000          39.000  
 24  1 10  3 24 10.8000000  0  7G08G24G18G23G10G32G15
 128095159.663 6  99814494.926 6  24375710.306    24375731.726        2704.277  
      2106.328          37.000          38.000  
 127960971.354 5  99709941.319 6  24350163.019    24350183.980         137.527  
       107.016          34.000          40.000  
 113362940.962 7  88334822.906 7  21572252.090    21572268.424       -1916.250  
     -1492.648          44.000          44.000  
 110041173.144 7  85746425.959 7  20940140.700    20940155.492       -1898.574  
     -1479.250          44.000          46.000  
 107495554.670 7  83762837.848 7  20455726.158    20455741.367         -41.285  
       -32.062          45.000          47.000  
 114666048.405 7  89350255.726 6  21820222.520    21820240.794        2749.043  
      2142.484          46.000          41.000  
 127694061.282 6  99501940.136 6  24299376.291    24299394.349       -3430.516  
     -2673.641          38.000          39.000  
 24  1 10  3 24 10.9000000  0  7G08G24G18G23G10G32G15
 128094889.187 6  99814284.153 6  24375658.836    24375680.253        2705.625  
      2107.770          38.000          39.000  
 127960957.588 5  99709930.596 6  24350160.399    24350181.361         137.285  
       107.109          34.000          40.000  
 113363132.530 7  88334972.192 7  21572288.544    21572304.881       -1915.598  
     -1493.090          44.000          43.000  
 110041362.897 7  85746573.786 7  20940176.809    20940191.593       -1897.023  
     -1478.469          45.000          46.000  
 107495558.703 7  83762840.980 7  20455726.925    20455742.132         -39.938  
       -31.730          45.000          47.000  
 114665773.580 7  89350041.612 6  21820170.222    21820188.505        2747.723  
      2141.352          45.000          41.000  
 127694404.303 6  99502207.412 6  24299441.566    24299459.621       -3429.199  
     -2672.637          38.000          39.000  
 24  1 10  3 24 11.0000000  0  7G08G24G18G23G10G32G15
 128094618.527 6  99814073.253 6  24375607.191    24375628.608        2706.645  
      2108.918          38.000          39.000  
 127960943.809 5  99709919.839 6  24350157.621    24350178.758         137.512  
       107.387          35.000          40.000  
 113363324.137 7  88335121.497 7  21572325.248    21572340.710       -1916.188  
     -1492.852          43.000          43.000  
 110041552.559 7  85746721.610 7  20940212.978    20940227.560       -1896.215  
     -1477.930          45.000          46.000  
 107495562.798 7  83762844.182 7  20455727.204    20455742.875         -41.027  
       -31.598          44.000          47.000  
 114665498.886 7  89349827.557 6  21820118.004    21820136.465        2746.434  
      2140.379          45.000          41.000  
 127694747.147 6  99502474.582 6  24299506.580    24299524.843       -3428.281  
     -2671.734          39.000          40.000  
 24  1 10  3 24 11.1000000  0  7G08G24G18G23G10G32G15
 128094347.773 6  99813862.282 6  24375555.668    24375577.087        2707.629  
      2109.508          38.000          39.000  
 127960929.996 6  99709909.064 6  24350154.992    24350176.126         139.340  
       107.707          36.000          41.000  
 113363515.776 7  88335270.797 7  21572361.716    21572377.170       -1916.914  
     -1493.047          43.000          43.000  
 110041742.166 7  85746869.363 7  20940249.059    20940263.643       -1895.902  
     -1477.473          45.000          46.000  
 107495566.832 7  83762847.327 7  20455727.972    20455743.643         -40.199  
       -31.645          45.000          46.000  
 114665224.337 7  89349613.654 6  21820065.759    21820084.228        2744.566  
      2139.043          45.000          41.000  
 127695089.877 6  99502741.619 6  24299571.799    24299590.056       -3427.109  
     -2670.578          38.000          40.000  
 24  1 10  3 24 11.2000000  0  7G08G24G18G23G10G32G15
 128094076.945 6  99813651.217 6  24375504.100    24375525.473        2708.602  
      2110.754          38.000          39.000  
 127960916.068 5  99709898.262 6  24350152.014    24350173.668         138.629  
       108.121          35.000          41.000  
 113363707.445 7  88335420.145 7  21572398.338    21572413.713       -1916.832  
     -1493.809          42.000          43.000  
 110041931.719 7  85747017.039 7  20940285.028    20940299.027       -1895.266  
     -1476.973          45.000          46.000  
 107495570.880 7  83762850.470 7  20455728.906    20455744.793         -40.816  
       -31.531          44.000          46.000  
 114664949.993 7  89349399.859 6  21820013.679    21820032.360        2742.617  
      2137.906          45.000          40.000  
 127695432.493 6  99503008.566 6  24299636.708    24299655.201       -3425.516  
     -2669.578          38.000          40.000  
 24  1 10  3 24 11.3000000  0  7G08G24G18G23G10G32G15
 128093805.970 6  99813440.089 6  24375452.535    24375473.913        2710.195  
      2111.344          38.000          39.000  
 127960902.297 5  99709887.407 6  24350149.393    24350171.017         138.059  
       108.359          35.000          41.000  
 113363899.166 7  88335569.557 7  21572434.821    21572450.201       -1916.961  
     -1493.891          43.000          43.000  
 110042121.203 7  85747164.702 7  20940321.086    20940335.088       -1894.559  
     -1476.418          45.000          46.000  
 107495574.913 7  83762853.612 7  20455729.674    20455745.561         -40.176  
       -31.418          44.000          47.000  
 114664675.812 7  89349186.190 6  21819961.504    21819980.180        2741.145  
      2136.656          45.000          41.000  
 127695774.999 6  99503275.459 6  24299701.885    24299720.378       -3424.692  
     -2669.188          38.000          40.000  
 24  1 10  3 24 11.4000000  0  7G08G24G18G23G10G32G15
 128093534.867 6  99813228.857 6  24375401.337    24375422.531        2711.914  
      2112.180          38.000          40.000  
 127960888.339 5  99709876.617 6  24350146.354    24350168.327         139.590  
       108.152          34.000          41.000  
 113364090.900 7  88335718.983 7  21572471.166    21572486.098       -1917.676  
     -1494.262          43.000          43.000  
 110042310.615 7  85747312.314 7  20940357.153    20940371.167       -1893.934  
     -1475.992          45.000          46.000  
 107495578.890 7  83762856.718 7  20455729.790    20455745.874         -39.703  
       -31.137          44.000          47.000  
 114664401.743 7  89348972.609 6  21819909.092    21819928.405        2740.043  
      2135.555          45.000          41.000  
 127696117.400 6  99503542.273 6  24299766.956    24299785.694       -3423.883  
     -2668.168          38.000          40.000  
 24  1 10  3 24 11.5000000  0  7G08G24G18G23G10G32G15
 128093263.638 6  99813017.492 6  24375349.723    24375370.914        2712.547  
      2113.414          38.000          40.000  
 127960874.396 5  99709865.746 6  24350143.701    24350165.673         139.277  
       108.594          34.000          40.000  
 113364282.668 7  88335868.428 7  21572507.658    21572522.594       -1917.867  
     -1494.160          43.000          43.000  
 110042499.938 7  85747459.808 7  20940393.180    20940407.187       -1892.738  
     -1475.297          45.000          46.000  
 107495582.860 7  83762859.837 7  20455730.545    20455746.636         -39.414  
       -30.824          44.000          47.000  
 114664127.808 7  89348759.182 6  21819856.964    21819876.283        2738.949  
      2134.445          46.000          41.000  
 127696459.688 6  99503808.974 6  24299832.091    24299850.824       -3422.442  
     -2667.242          39.000          40.000  
 24  1 10  3 24 11.6000000  0  7G08G24G18G23G10G32G15
 128092992.322 6  99812806.095 6  24375298.594    24375319.757        2713.695  
      2114.172          38.000          40.000  
 127960860.424 5  99709854.889 6  24350140.769    24350162.521         139.664  
       108.438          34.000          40.000  
 113364474.401 7  88336017.804 7  21572544.417    21572559.081       -1917.711  
     -1494.301          43.000          43.000  
 110042689.192 7  85747607.289 7  20940429.264    20940443.852       -1892.152  
     -1474.625          45.000          46.000  
 107495586.788 7  83762862.843 7  20455731.371    20455747.573         -39.328  
       -30.371          44.000          47.000  
 114663853.984 7  89348545.801 6  21819804.920    21819824.478        2737.652  
      2133.582          46.000          41.000  
 127696801.853 6  99504075.605 6  24299897.367    24299915.415       -3421.219  
     -2666.324          39.000          39.000  
 24  1 10  3 24 11.7000000  0  7G08G24G18G23G10G32G15
 128092720.896 6  99812594.578 6  24375246.943    24375268.103        2714.359  
      2114.902          37.000          40.000  
 127960846.512 5  99709844.015 6  24350138.121    24350159.865         138.613  
       108.832          34.000          40.000  
 113364666.220 7  88336167.270 7  21572580.919    21572595.582       -1918.000  
     -1494.516          43.000          43.000  
 110042878.365 7  85747754.694 7  20940465.263    20940479.849       -1891.656  
     -1474.008          45.000          46.000  
 107495590.639 7  83762865.843 7  20455732.104    20455748.305         -38.148  
       -29.801          44.000          47.000  
 114663580.260 7  89348332.523 6  21819752.832    21819772.394        2736.754  
      2132.777          46.000          41.000  
 127697143.937 6  99504342.156 6  24299962.463    24299980.510       -3420.535  
     -2665.684          39.000          39.000  
 24  1 10  3 24 11.8000000  0  7G08G24G18G23G10G32G15
 128092449.312 6  99812382.984 6  24375195.090    24375216.343        2715.945  
      2115.980          37.000          39.000  
 127960832.507 5  99709833.131 6  24350135.120    24350156.918         140.043  
       108.859          34.000          39.000  
 113364857.999 7  88336316.734 7  21572617.406    21572632.419       -1917.746  
     -1494.508          43.000          43.000  
 110043067.463 7  85747902.045 7  20940501.036    20940516.201       -1890.484  
     -1473.594          45.000          47.000  
 107495594.447 7  83762868.780 7  20455732.735    20455749.281         -37.773  
       -29.469          45.000          47.000  
 114663306.625 7  89348119.301 7  21819700.354    21819720.487        2736.355  
      2132.258          45.000          42.000  
 127697485.948 6  99504608.658 6  24300027.647    24300045.162       -3419.707  
     -2665.246          39.000          39.000  
 24  1 10  3 24 11.9000000  0  7G08G24G18G23G10G32G15
 128092177.676 6  99812171.303 6  24375143.400    24375164.648        2716.891  
      2116.680          37.000          39.000  
 127960818.511 5  99709822.188 6  24350132.457    24350154.246         140.086  
       109.125          34.000          39.000  
 113365049.772 7  88336466.158 7  21572653.899    21572668.910       -1917.598  
     -1494.352          43.000          44.000  
 110043256.501 7  85748049.343 7  20940537.009    20940552.173       -1890.012  
     -1472.770          44.000          47.000  
 107495598.145 7  83762871.693 7  20455733.438    20455749.992         -36.570  
       -28.891          45.000          47.000  
 114663033.013 7  89347906.075 7  21819648.288    21819668.415        2735.945  
      2131.902          45.000          42.000  
 127697827.894 6  99504875.092 6  24300092.717    24300110.228       -3419.492  
     -2664.324          39.000          39.000  
 24  1 10  3 24 12.0000000  0  7G08G24G18G23G10G32G15
 128091905.928 6  99811959.586 6  24375091.446    24375112.609        2717.535  
      2117.160          36.000          39.000  
 127960804.520 5  99709811.305 6  24350130.201    24350151.065         140.492  
       108.840          34.000          39.000  
 113365241.567 7  88336615.605 7  21572690.107    21572705.734       -1918.113  
     -1494.324          44.000          44.000  
 110043445.461 7  85748196.579 7  20940573.154    20940588.020       -1889.496  
     -1472.582          45.000          47.000  
 107495601.838 7  83762874.543 7  20455734.430    20455750.415         -36.785  
       -28.559          46.000          47.000  
 114662759.465 7  89347692.970 7  21819595.765    21819616.443        2735.449  
      2131.500          46.000          42.000  
 127698169.749 6  99505141.475 6  24300157.997    24300175.149       -3418.562  
     -2664.008          39.000          38.000  
 24  1 10  3 24 12.1000000  0  7G08G24G18G23G10G32G15
 128091634.196 6  99811747.810 6  24375039.737    24375060.891        2717.648  
      2117.734          36.000          39.000  
 127960790.522 5  99709800.391 6  24350127.537    24350148.400         139.770  
       109.297          33.000          39.000  
 113365433.326 7  88336764.983 7  21572726.598    21572742.214       -1917.664  
     -1494.125          44.000          44.000  
 110043634.374 7  85748343.795 7  20940609.103    20940623.972       -1888.848  
     -1472.121          45.000          46.000  
 107495605.451 7  83762877.355 7  20455735.118    20455751.101         -35.902  
       -28.168          47.000          47.000  
 114662485.929 7  89347479.830 7  21819543.712    21819564.392        2734.938  
      2131.336          46.000          42.000  
 127698511.611 6  99505407.881 6  24300223.051    24300240.208       -3417.984  
     -2663.867          39.000          38.000  
 24  1 10  3 24 12.2000000  0  7G08G24G18G23G10G32G15
 128091362.330 5  99811536.026 6  24374988.112    24375009.039        2718.238  
      2117.871          35.000          38.000  
 127960776.498 5  99709789.491 6  24350125.017    24350145.769         140.387  
       109.070          34.000          39.000  
 113365625.116 7  88336914.456 7  21572763.407    21572778.889       -1917.652  
     -1494.406          44.000          44.000  
 110043823.269 7  85748490.975 7  20940645.486    20940660.001       -1888.953  
     -1471.758          45.000          47.000  
 107495609.031 7  83762880.151 7  20455736.104    20455751.995         -35.625  
       -27.957          47.000          47.000  
 114662212.443 7  89347266.716 7  21819492.185    21819511.613        2734.824  
      2131.094          47.000          42.000  
 127698853.411 6  99505674.169 6  24300288.132    24300305.379       -3418.070  
     -2662.957          39.000          38.000  
 24  1 10  3 24 12.3000000  0  7G08G24G18G23G10G32G15
 128091090.521 5  99811324.185 6  24374936.388    24374957.305        2718.465  
      2118.613          35.000          38.000  
 127960762.521 5  99709778.533 6  24350122.357    24350143.093         140.320  
       109.348          34.000          40.000  
 113365816.917 7  88337063.889 7  21572799.905    21572815.382       -1918.145  
     -1494.188          45.000          44.000  
 110044012.099 7  85748638.130 7  20940681.419    20940695.937       -1887.836  
     -1471.551          45.000          46.000  
 107495612.611 7  83762882.914 7  20455736.785    20455752.670         -35.973  
       -27.684          47.000          47.000  
 114661938.989 7  89347053.624 7  21819440.149    21819459.573        2734.531  
      2130.965          47.000          42.000  
 127699195.206 6  99505940.484 6  24300353.174    24300370.416       -3418.172  
     -2663.070          39.000          38.000  
 24  1 10  3 24 12.4000000  0  7G08G24G18G23G10G32G15
 128090818.657 5  99811112.331 6  24374884.490    24374905.466        2719.008  
      2118.375          34.000          38.000  
 127960748.471 5  99709767.640 6  24350120.043    24350140.917         140.660  
       109.141          35.000          40.000  
 113366008.647 7  88337213.283 7  21572836.836    21572851.022       -1917.258  
     -1494.395          45.000          44.000  
 110044200.910 7  85748785.251 7  20940717.700    20940731.553       -1888.270  
     -1471.356          44.000          46.000  
 107495616.083 7  83762885.659 7  20455737.321    20455752.996         -34.297  
       -27.469          46.000          47.000  
 114661665.527 7  89346840.522 7  21819388.626    21819407.133        2734.406  
      2130.836          47.000          42.000  
 127699536.919 6  99506206.766 6  24300418.473    24300435.257       -3417.129  
     -2663.004          38.000          37.000  
 24  1 10  3 24 12.5000000  0  7G08G24G18G23G10G32G15
 128090546.787 5  99810900.493 6  24374832.755    24374853.733        2718.961  
      2118.238          34.000          38.000  
 127960734.460 5  99709756.703 6  24350117.377    24350138.246         140.422  
       109.215          35.000          40.000  
 113366200.401 7  88337362.741 7  21572873.325    21572887.521       -1917.137  
     -1494.141          45.000          44.000  
 110044389.677 7  85748932.353 7  20940753.621    20940767.477       -1887.496  
     -1471.148          44.000          46.000  
 107495619.639 7  83762888.427 7  20455737.997    20455753.672         -35.805  
       -27.539          47.000          47.000  
 114661392.090 7  89346627.439 7  21819336.593    21819355.096        2734.586  
      2130.855          47.000          42.000  
 127699878.650 6  99506473.039 6  24300483.502    24300500.284       -3416.898  
     -2662.977          38.000          37.000  
 24  1 10  3 24 12.6000000  0  7G08G24G18G23G10G32G15
 128090274.845 5  99810688.625 6  24374780.850    24374801.884        2719.289  
      2118.656          34.000          38.000  
 127960720.383 5  99709745.757 6  24350114.737    24350135.948         140.746  
       109.422          35.000          41.000  
 113366392.121 7  88337512.104 7  21572909.433    21572924.395       -1917.094  
     -1493.641          44.000          44.000  
 110044578.433 7  85749079.466 7  20940789.548    20940803.318       -1887.477  
     -1470.738          44.000          46.000  
 107495623.175 7  83762891.143 7  20455738.787    20455754.632         -35.262  
       -27.398          47.000          47.000  
 114661118.626 7  89346414.379 7  21819284.625    21819302.487        2734.984  
      2130.816          47.000          42.000  
 127700220.319 6  99506739.299 6  24300548.621    24300565.315       -3416.992  
     -2662.402          38.000          37.000  
 24  1 10  3 24 12.7000000  0  7G08G24G18G23G10G32G15
 128090002.946 5  99810476.760 6  24374729.109    24374750.144        2719.664  
      2118.719          33.000          37.000  
 127960706.289 5  99709734.777 6  24350112.055    24350133.267         140.969  
       109.711          35.000          41.000  
 113366583.816 7  88337661.454 7  21572945.912    21572960.868       -1917.113  
     -1493.688          44.000          44.000  
 110044767.223 7  85749226.534 7  20940825.474    20940839.233       -1887.820  
     -1470.781          44.000          46.000  
 107495626.634 7  83762893.865 7  20455739.446    20455755.297         -34.504  
       -27.234          47.000          47.000  
 114660845.166 7  89346201.302 7  21819232.587    21819250.451        2734.594  
      2130.805          46.000          42.000  
 127700562.024 6  99507005.535 6  24300613.646    24300630.332       -3416.688  
     -2662.363          38.000          37.000  
 24  1 10  3 24 12.8000000  0  7G08G24G18G23G10G32G15
 128089731.004 5  99810264.873 6  24374677.095    24374698.133        2718.809  
      2118.637          33.000          37.000  
 127960692.194 5  99709723.802 6  24350109.037    24350130.399         140.906  
       109.770          35.000          41.000  
 113366775.514 7  88337810.856 7  21572982.180    21572997.440       -1917.031  
     -1493.949          45.000          45.000  
 110044955.890 7  85749373.572 7  20940860.868    20940875.462       -1886.762  
     -1470.707          44.000          46.000  
 107495630.146 7  83762896.619 7  20455739.942    20455756.845         -34.883  
       -27.402          47.000          47.000  
 114660571.750 7  89345988.243 6  21819180.011    21819198.193        2734.129  
      2130.500          47.000          41.000  
 127700903.673 6  99507271.751 6  24300678.378    24300695.587       -3416.625  
     -2662.145          37.000          37.000  
 24  1 10  3 24 12.8000000  5  0
 24  1 10  3 24 12.8000000  5  0
 24  1 10  3 24 12.9000000  0  7G08G24G18G23G10G32G15
 128089459.113 5  99810052.985 6  24374625.356    24374646.388        2719.395  
      2118.918          33.000          37.000  
 127960678.087 5  99709712.850 6  24350106.352    24350127.724         140.633  
       109.504          34.000          41.000  
 113366967.279 7  88337960.264 7  21573018.671    21573033.926       -1917.277  
     -1493.816          45.000          45.000  
 110045144.654 7  85749520.636 7  20940896.789    20940911.376       -1887.430  
     -1470.285          43.000          46.000  
 107495633.667 7  83762899.352 7  20455740.612    20455757.512         -35.305  
       -27.398          47.000          47.000  
 114660298.375 7  89345775.228 7  21819127.989    21819146.173        2733.777  
      2130.102          47.000          42.000  
 127701245.314 6  99507537.976 6  24300743.390    24300760.602       -3416.734  
     -2662.258          37.000          38.000  
 24  1 10  3 24 13.0000000  0  7G08G24G18G23G10G32G15
 128089187.253 5  99809841.124 6  24374573.622    24374595.275        2718.434  
      2118.918          34.000          36.000  
 127960664.026 5  99709701.863 6  24350103.466    24350125.143         140.887  
       109.895          34.000          41.000  
 113367159.002 7  88338109.660 7  21573054.913    21573070.481       -1917.551  
     -1494.492          45.000          45.000  
 110045333.409 7  85749667.713 7  20940931.989    20940946.192       -1887.598  
     -1471.082          43.000          46.000  
 107495637.231 7  83762902.119 7  20455741.064    20455757.540         -35.629  
       -27.699          47.000          47.000  
 114660024.994 7  89345562.193 7  21819076.475    21819094.609        2733.711  
      2130.211          47.000          42.000  
 127701586.963 6  99507804.184 6  24300808.060    24300825.863       -3416.476  
     -2662.129          37.000          38.000  
 24  1 10  3 24 13.1000000  0  7G08G24G18G23G10G32G15
 128088915.426 5  99809629.291 6  24374521.896    24374543.543        2718.555  
      2118.195          34.000          37.000  
 127960649.985 5  99709690.929 6  24350100.794    24350122.473         140.230  
       109.590          34.000          41.000  
 113367350.721 7  88338259.105 7  21573091.396    21573106.977       -1917.082  
     -1494.113          44.000          45.000  
 110045522.175 7  85749814.813 7  20940967.910    20940982.116       -1887.695  
     -1470.945          43.000          45.000  
 107495640.812 7  83762904.902 7  20455741.745    20455758.219         -35.941  
       -27.926          47.000          47.000  
 114659751.628 7  89345349.210 6  21819024.455    21819042.596        2733.785  
      2129.895          46.000          41.000  
 127701928.609 6  99508070.422 6  24300873.073    24300890.881       -3416.270  
     -2662.336          36.000          38.000  
 24  1 10  3 24 13.2000000  0  7G08G24G18G23G10G32G15
 128088643.525 5  99809417.444 6  24374470.819    24374491.667        2718.832  
      2118.457          34.000          37.000  
 127960635.940 5  99709679.943 6  24350098.098    24350119.610         140.625  
       109.723          34.000          40.000  
 113367542.525 7  88338408.511 7  21573127.973    21573143.659       -1917.750  
     -1494.238          44.000          44.000  
 110045710.966 7  85749961.923 7  20941003.570    20941017.487       -1887.785  
     -1471.043          43.000          45.000  
 107495644.392 7  83762907.687 7  20455742.309    20455758.509         -35.742  
       -27.969          47.000          47.000  
 114659478.314 7  89345136.259 6  21818972.054    21818990.857        2733.402  
      2129.602          46.000          41.000  
 127702270.183 6  99508336.612 6  24300937.682    24300956.809       -3416.250  
     -2661.898          36.000          38.000  
 24  1 10  3 24 13.3000000  0  7G08G24G18G23G10G32G15
 128088371.693 5  99809205.622 6  24374419.091    24374439.938        2718.484  
      2118.211          35.000          37.000  
 127960621.852 5  99709668.987 6  24350095.417    24350116.935         140.828  
       109.719          35.000          40.000  
 113367734.270 7  88338557.908 7  21573164.461    21573180.143       -1917.711  
     -1494.242          45.000          44.000  
 110045899.764 7  85750108.981 7  20941039.497    20941053.400       -1887.934  
     -1470.809          44.000          45.000  
 107495647.987 7  83762910.519 7  20455742.993    20455759.200         -35.828  
       -28.125          47.000          46.000  
 114659205.011 7  89344923.265 6  21818920.046    21818938.842        2733.129  
      2129.727          47.000          41.000  
 127702611.843 6  99508602.796 6  24301002.698    24301021.814       -3416.199  
     -2662.027          36.000          38.000  
 24  1 10  3 24 13.4000000  0  7G08G24G18G23G10G32G15
 128088099.757 5  99808993.763 6  24374367.366    24374387.801        2719.090  
      2118.398          35.000          36.000  
 127960607.754 5  99709658.006 6  24350093.039    24350114.128         140.902  
       109.746          35.000          40.000  
 113367926.068 7  88338707.361 7  21573201.592    21573216.734       -1917.664  
     -1494.344          45.000          44.000  
 110046088.503 7  85750256.090 7  20941076.147    20941089.739       -1887.527  
     -1471.102          44.000          45.000  
 107495651.602 8  83762913.307 7  20455743.634    20455759.717         -36.027  
       -27.988          48.000          46.000  
 114658931.740 7  89344710.340 6  21818867.951    21818886.663        2733.012  
      2129.590          47.000          41.000  
 127702953.412 6  99508869.057 6  24301067.313    24301087.041       -3416.082  
     -2662.391          36.000          38.000  
 24  1 10  3 24 13.5000000  0  7G08G24G18G23G10G32G15
 128087827.926 5  99808781.913 6  24374315.639    24374336.065        2718.500  
      2118.652          35.000          37.000  
 127960593.706 5  99709647.042 6  24350090.365    24350111.450         140.523  
       109.773          35.000          40.000  
 113368117.829 7  88338856.821 7  21573238.082    21573253.234       -1917.672  
     -1494.672          45.000          44.000  
 110046277.278 7  85750403.246 7  20941112.070    20941125.676       -1887.574  
     -1471.082          43.000          45.000  
 107495655.230 8  83762916.127 7  20455744.325    20455760.406         -36.191  
       -28.336          48.000          46.000  
 114658658.477 7  89344497.372 6  21818815.951    21818834.654        2732.711  
      2129.418          46.000          41.000  
 127703295.072 5  99509135.220 6  24301132.329    24301152.040       -3416.266  
     -2661.695          35.000          38.000  
 24  1 10  3 24 13.6000000  0  7G08G24G18G23G10G32G15
 128087556.094 5  99808570.102 6  24374263.950    24374284.644        2718.629  
      2118.102          34.000          37.000  
 127960579.664 5  99709636.086 6  24350087.701    24350108.697         140.582  
       109.398          35.000          40.000  
 113368309.629 7  88339006.275 7  21573274.667    21573289.701       -1917.863  
     -1494.527          45.000          44.000  
 110046466.097 7  85750550.338 7  20941147.970    20941161.762       -1888.027  
     -1471.277          43.000          45.000  
 107495658.860 8  83762918.985 7  20455745.914    20455761.143         -36.270  
       -28.477          48.000          46.000  
 114658385.173 7  89344284.447 6  21818763.982    21818782.789        2732.840  
      2129.367          46.000          41.000  
 127703636.700 5  99509401.483 6  24301197.245    24301217.541       -3416.328  
     -2662.375          35.000          38.000  
 24  1 10  3 24 13.7000000  0  7G08G24G18G23G10G32G15
 128087284.203 5  99808358.246 6  24374212.211    24374232.906        2718.574  
      2118.305          34.000          37.000  
 127960565.627 5  99709625.170 6  24350085.030    24350106.031         140.449  
       109.219          35.000          39.000  
 113368501.483 7  88339155.776 7  21573311.175    21573326.211       -1918.207  
     -1494.805          45.000          44.000  
 110046654.984 7  85750697.491 7  20941183.914    20941197.698       -1888.629  
     -1471.676          43.000          44.000  
 107495662.516 8  83762921.843 7  20455746.610    20455761.841         -36.395  
       -28.449          48.000          46.000  
 114658111.916 7  89344071.504 6  21818711.983    21818730.786        2732.750  
      2129.312          46.000          41.000  
 127703978.420 5  99509667.720 6  24301262.272    24301282.559       -3416.867  
     -2662.793          35.000          38.000  
 24  1 10  3 24 13.8000000  0  7G08G24G18G23G10G32G15
 128087012.465 5  99808146.479 6  24374160.282    24374181.292        2717.918  
      2117.723          33.000          37.000  
 127960551.711 5  99709614.293 6  24350082.499    24350103.687         139.738  
       108.852          35.000          39.000  
 113368693.321 7  88339305.247 7  21573347.267    21573362.510       -1918.359  
     -1495.059          45.000          44.000  
 110046843.869 7  85750844.676 7  20941219.709    20941234.111       -1888.625  
     -1471.707          43.000          44.000  
 107495666.198 8  83762924.700 7  20455747.084    20455762.570         -36.562  
       -28.488          48.000          46.000  
 114657838.603 7  89343858.573 6  21818659.871    21818678.677        2733.023  
      2129.410          46.000          41.000  
 127704320.134 5  99509934.021 6  24301327.251    24301347.858       -3417.055  
     -2662.723          34.000          38.000  
 24  1 10  3 24 13.9000000  0  7G08G24G18G23G10G32G15
 128086740.718 5  99807934.698 6  24374108.570    24374129.573        2717.816  
      2117.715          33.000          36.000  
 127960537.771 5  99709603.442 6  24350079.846    24350101.037         139.676  
       108.535          35.000          40.000  
 113368885.160 7  88339454.777 7  21573383.773    21573399.027       -1918.422  
     -1495.242          45.000          44.000  
 110047032.830 7  85750991.921 7  20941255.667    20941270.070       -1889.164  
     -1472.516          43.000          44.000  
 107495669.909 7  83762927.576 7  20455747.790    20455763.272         -36.922  
       -28.992          47.000          45.000  
 114657565.226 7  89343645.555 6  21818607.849    21818626.655        2733.379  
      2130.121          46.000          41.000  
 127704661.968 5  99510200.417 6  24301392.300    24301412.915       -3417.887  
     -2663.594          34.000          37.000  
 24  1 10  3 24 14.0000000  0  7G08G24G18G23G10G32G15
 128086468.979 5  99807723.013 6  24374056.626    24374078.041        2717.035  
      2116.922          32.000          36.000  
 127960523.869 5  99709592.614 6  24350077.537    24350099.213         138.844  
       108.312          35.000          40.000  
 113369077.051 7  88339604.292 7  21573420.046    21573435.563       -1918.785  
     -1494.988          45.000          44.000  
 110047221.794 7  85751139.196 7  20941291.048    20941306.333       -1889.844  
     -1472.637          43.000          44.000  
 107495673.643 7  83762930.505 7  20455748.016    20455764.011         -37.340  
       -29.156          47.000          45.000  
 114657291.772 7  89343432.451 7  21818556.422    21818574.996        2734.617  
      2130.895          46.000          42.000  
 127705003.897 5  99510466.795 6  24301457.586    24301478.053       -3418.871  
     -2663.980          33.000          36.000  
 24  1 10  3 24 14.1000000  0  7G08G24G18G23G10G32G15
 128086197.392 5  99807511.410 6  24374004.944    24374026.366        2716.129  
      2116.258          32.000          36.000  
 127960509.942 5  99709581.767 6  24350074.887    24350096.564         139.145  
       108.617          35.000          39.000  
 113369268.876 7  88339753.726 7  21573456.549    21573472.057       -1918.191  
     -1494.520          44.000          44.000  
 110047410.826 7  85751286.445 7  20941327.019    20941342.292       -1890.309  
     -1472.836          43.000          44.000  
 107495677.377 7  83762933.377 7  20455748.727    20455764.712         -37.371  
       -28.828          47.000          45.000  
 114657018.257 7  89343219.325 7  21818504.374    21818522.948        2735.383  
      2131.652          46.000          42.000  
 127705345.933 5  99510733.270 6  24301522.673    24301543.129       -3420.262  
     -2664.707          32.000          36.000  
 24  1 10  3 24 14.2000000  0  7G08G24G18G23G10G32G15
 128085925.931 5  99807299.857 5  24373953.326    24373974.687        2714.676  
      2115.375          31.000          35.000  
 127960496.097 5  99709571.002 6  24350072.502    24350094.349         138.555  
       107.645          35.000          39.000  
 113369460.663 7  88339903.213 7  21573493.107    21573508.594       -1918.000  
     -1494.902          44.000          44.000  
 110047599.899 7  85751433.793 7  20941363.077    20941378.292       -1890.793  
     -1473.461          43.000          43.000  
 107495681.127 7  83762936.324 7  20455749.612    20455765.338         -37.531  
       -29.355          46.000          44.000  
 114656744.592 7  89343006.091 7  21818452.321    21818470.945        2736.637  
      2132.223          46.000          42.000  
 127705687.943 5  99510999.834 5  24301587.771    24301607.976       -3419.961  
     -2665.430          33.000          35.000  
 24  1 10  3 24 14.3000000  0  7G08G24G18G23G10G32G15
 128085654.444 5  99807088.325 5  24373901.664    24373923.029        2714.688  
      2115.133          30.000          35.000  
 127960482.274 5  99709560.184 6  24350069.872    24350091.707         138.438  
       108.023          35.000          39.000  
 113369652.521 7  88340052.707 7  21573529.617    21573545.102       -1918.285  
     -1494.758          44.000          44.000  
 110047789.093 7  85751581.220 7  20941399.079    20941414.295       -1891.789  
     -1473.996          43.000          43.000  
 107495684.946 7  83762939.312 7  20455750.339    20455766.068         -37.934  
       -29.676          46.000          44.000  
 114656470.877 7  89342792.821 7  21818400.235    21818418.862        2737.441  
      2133.055          47.000          42.000  
 127706029.973 5  99511266.411 5  24301652.857    24301673.077       -3420.871  
     -2666.199          31.000          35.000  
 24  1 10  3 24 14.4000000  0  7G08G24G18G23G10G32G15
 128085383.269 4  99806876.974 5  24373850.092    24373871.235        2710.652  
      2113.715          29.000          35.000  
 127960468.521 5  99709549.496 6  24350067.325    24350089.113         136.285  
       106.656          35.000          38.000  
 113369844.445 7  88340202.263 7  21573566.717    21573581.547       -1919.531  
     -1495.141          45.000          43.000  
 110047978.363 7  85751728.719 7  20941435.791    20941450.370       -1893.328  
     -1475.281          43.000          43.000  
 107495688.859 7  83762942.353 7  20455750.560    20455766.842         -39.699  
       -30.641          46.000          44.000  
 114656197.084 7  89342579.461 7  21818348.805    21818366.429        2738.027  
      2133.344          47.000          42.000  
 127706372.328 5  99511533.142 5  24301717.630    24301737.661       -3423.996  
     -2667.293          31.000          34.000  
 24  1 10  3 24 14.5000000  0  7G08G24G18G23G10G32G15
 128085112.138 4  99806665.679 5  24373798.498    24373819.634        2710.816  
      2113.254          29.000          34.000  
 127960454.867 5  99709538.795 6  24350064.727    24350086.500         137.316  
       107.176          35.000          38.000  
 113370036.282 7  88340351.688 7  21573603.222    21573618.038       -1918.434  
     -1494.914          45.000          43.000  
 110048167.702 7  85751876.277 7  20941471.821    20941486.406       -1893.426  
     -1475.473          42.000          43.000  
 107495692.788 7  83762945.435 7  20455751.308    20455767.594         -39.469  
       -30.840          46.000          44.000  
 114655923.192 7  89342366.036 7  21818296.686    21818314.309        2739.492  
      2134.191          47.000          42.000  
 127706714.802 5  99511799.938 5  24301782.801    24301802.815       -3425.301  
     -2667.949          32.000          34.000  
 24  1 10  3 24 14.6000000  0  7G08G24G18G23G10G32G15
 128084841.002 4  99806454.424 5  24373746.808    24373767.903        2711.223  
      2112.496          28.000          34.000  
 127960441.117 5  99709528.147 6  24350062.282    24350083.446         137.316  
       106.293          35.000          37.000  
 113370228.144 7  88340501.234 7  21573639.810    21573654.707       -1918.586  
     -1495.262          45.000          43.000  
 110048357.209 7  85752023.926 7  20941507.805    20941522.635       -1895.273  
     -1476.242          42.000          43.000  
 107495696.813 7  83762948.577 7  20455751.863    20455768.526         -40.500  
       -31.480          46.000          44.000  
 114655649.172 7  89342152.541 7  21818245.229    21818262.460        2740.375  
      2134.863          47.000          42.000  
 127707057.346 5  99512066.809 5  24301848.024    24301867.933       -3425.488  
     -2668.746          32.000          34.000  
 24  1 10  3 24 14.7000000  0  7G08G24G18G23G10G32G15
 128084570.052 4  99806243.362 5  24373695.248    24373716.360        2708.371  
      2110.945          28.000          34.000  
 127960427.499 5  99709517.572 6  24350059.690    24350080.864         135.855  
       106.113          35.000          37.000  
 113370420.008 7  88340650.759 7  21573676.321    21573691.223       -1918.695  
     -1495.172          45.000          43.000  
 110048546.771 7  85752171.620 7  20941543.878    20941558.703       -1896.082  
     -1477.473          42.000          42.000  
 107495700.884 7  83762951.778 7  20455752.638    20455769.307         -40.934  
       -31.715          46.000          44.000  
 114655375.083 7  89341938.980 7  21818193.071    21818210.306        2741.617  
      2135.805          47.000          42.000  
 127707399.928 5  99512333.844 5  24301913.215    24301933.146       -3427.106  
     -2669.898          31.000          34.000  
 24  1 10  3 24 14.8000000  0  7G08G24G18G23G10G32G15
 128084299.313 4  99806032.338 5  24373643.611    24373664.763        2706.641  
      2109.766          27.000          34.000  
 127960413.885 5  99709506.954 6  24350057.303    24350077.817         135.957  
       105.895          35.000          37.000  
 113370611.926 7  88340800.273 7  21573712.982    21573727.845       -1919.547  
     -1495.625          45.000          43.000  
 110048736.436 6  85752319.459 7  20941579.915    20941594.307       -1897.301  
     -1478.293          41.000          42.000  
 107495705.054 7  83762954.985 7  20455753.353    20455769.887         -42.160  
       -32.625          46.000          43.000  
 114655100.914 7  89341725.324 7  21818139.899    21818157.950        2741.895  
      2136.918          46.000          42.000  
 127707742.729 5  99512600.935 5  24301978.596    24301998.411       -3428.012  
     -2671.457          32.000          33.000  
 24  1 10  3 24 14.9000000  0  7G08G24G18G23G10G32G15
 128084028.645 4  99805821.476 5  24373592.105    24373613.268        2707.051  
      2109.012          26.000          34.000  
 127960400.324 5  99709496.421 6  24350054.722    24350075.245         135.484  
       105.535          35.000          37.000  
 113370803.791 7  88340949.815 7  21573749.493    21573764.365       -1918.430  
     -1495.113          45.000          43.000  
 110048926.239 6  85752467.330 7  20941616.033    20941630.419       -1898.258  
     -1478.750          41.000          42.000  
 107495709.290 7  83762958.288 7  20455754.159    20455770.694         -42.625  
       -32.977          46.000          43.000  
 114654826.693 7  89341511.512 7  21818087.716    21818105.735        2742.758  
      2137.551          45.000          43.000  
 127708085.573 5  99512868.126 5  24302043.837    24302063.662       -3428.590  
     -2671.516          33.000          33.000  
 24  1 10  3 24 15.0000000  0  7G08G24G18G23G10G32G15
 128083758.126 4  99805610.697 5  24373540.346    24373561.396        2704.797  
      2107.855          27.000          33.000  
 127960386.760 5  99709485.884 6  24350051.977    24350072.531         135.742  
       105.195          35.000          37.000  
 113370995.660 7  88341099.298 7  21573785.981    21573800.612       -1918.699  
     -1494.609          45.000          43.000  
 110049116.039 6  85752615.233 7  20941652.003    20941665.866       -1898.410  
     -1478.973          41.000          42.000  
 107495713.544 7  83762961.597 7  20455755.656    20455770.713         -42.688  
       -33.156          46.000          43.000  
 114654552.196 7  89341297.708 7  21818033.903    21818054.123        2745.891  
      2138.137          45.000          42.000  
 127708428.544 5  99513135.366 5  24302109.813    24302128.644       -3431.020  
     -2672.398          34.000          33.000  
 24  1 10  3 24 15.1000000  0  7G08G24G18G23G10G32G15
 128083487.802 4  99805399.978 5  24373488.905    24373509.936        2702.047  
      2107.340          26.000          33.000  
 127960373.317 5  99709475.343 6  24350049.419    24350069.957         134.363  
       105.293          35.000          37.000  
 113371187.496 7  88341248.749 7  21573822.486    21573837.110       -1918.207  
     -1494.773          45.000          43.000  
 110049305.961 6  85752763.235 7  20941688.144    20941702.010       -1899.855  
     -1480.074          41.000          42.000  
 107495717.859 7  83762965.007 7  20455756.477    20455771.546         -43.297  
       -33.668          46.000          43.000  
 114654277.601 7  89341083.776 7  21817981.649    21818001.879        2746.465  
      2139.855          46.000          42.000  
 127708771.640 5  99513402.708 5  24302175.102    24302193.931       -3431.250  
     -2673.305          34.000          33.000  
 24  1 10  3 24 15.2000000  0  7G08G24G18G23G10G32G15
 128083217.536 4  99805189.395 5  24373437.264    24373458.564        2702.773  
      2106.082          26.000          33.000  
 127960359.848 5  99709464.900 6  24350046.442    24350067.766         134.293  
       104.379          35.000          37.000  
 113371379.354 7  88341398.285 7  21573858.542    21573874.136       -1918.703  
     -1495.059          45.000          43.000  
 110049496.015 7  85752911.336 7  20941724.161    20941738.717       -1900.836  
     -1480.609          42.000          42.000  
 107495722.278 7  83762968.368 7  20455757.505    20455772.429         -44.820  
       -34.062          46.000          43.000  
 114654002.917 7  89340869.721 7  21817929.769    21817949.307        2747.148  
      2140.301          46.000          42.000  
 127709114.843 5  99513670.165 5  24302241.224    24302259.466       -3432.359  
     -2674.398          35.000          33.000  
 24  1 10  3 24 15.3000000  0  7G08G24G18G23G10G32G15
 128082947.303 4  99804978.906 5  24373385.840    24373407.160        2700.469  
      2104.773          26.000          33.000  
 127960346.515 5  99709454.417 6  24350043.905    24350065.206         133.926  
       104.652          35.000          37.000  
 113371571.235 7  88341547.818 7  21573895.056    21573910.653       -1918.801  
     -1495.324          45.000          43.000  
 110049686.183 7  85753059.470 7  20941760.349    20941774.892       -1902.344  
     -1481.828          42.000          42.000  
 107495726.736 7  83762971.883 7  20455758.354    20455773.287         -44.652  
       -34.863          46.000          43.000  
 114653728.144 7  89340655.612 7  21817877.482    21817897.020        2748.125  
      2141.336          46.000          42.000  
 127709458.149 5  99513937.674 5  24302306.553    24302324.794       -3433.621  
     -2675.023          35.000          33.000  
 24  1 10  3 24 15.4000000  0  7G08G24G18G23G10G32G15
 128082677.414 4  99804768.501 5  24373334.443    24373355.652        2698.973  
      2104.336          26.000          33.000  
 127960333.188 6  99709444.091 6  24350041.556    24350063.153         133.082  
       103.543          36.000          37.000  
 113371763.135 7  88341697.354 7  21573931.792    21573946.890       -1919.129  
     -1495.441          44.000          43.000  
 110049876.362 7  85753207.701 7  20941797.101    20941811.131       -1902.156  
     -1482.430          42.000          42.000  
 107495731.222 7  83762975.375 7  20455759.340    20455774.172         -44.973  
       -35.227          46.000          43.000  
 114653453.253 7  89340441.400 7  21817825.656    21817844.324        2749.145  
      2141.719          46.000          42.000  
 127709801.661 6  99514205.365 5  24302372.617    24302389.659       -3435.254  
     -2676.770          36.000          32.000  
 24  1 10  3 24 15.5000000  0  7G08G24G18G23G10G32G15
 128082407.539 4  99804558.226 5  24373283.087    24373304.301        2699.586  
      2102.941          26.000          33.000  
 127960319.809 6  99709433.653 6  24350039.010    24350060.604         133.473  
       104.301          36.000          38.000  
 113371955.004 7  88341846.792 7  21573968.304    21573983.384       -1918.191  
     -1494.559          44.000          43.000  
 110050066.698 7  85753355.998 7  20941833.321    20941847.347       -1903.758  
     -1482.816          42.000          42.000  
 107495735.805 7  83762978.966 7  20455760.212    20455775.049         -46.184  
       -35.703          46.000          43.000  
 114653178.280 7  89340227.174 7  21817773.330    21817792.008        2750.531  
      2142.805          47.000          42.000  
 127710145.209 6  99514473.095 5  24302437.992    24302455.041       -3436.383  
     -2677.059          36.000          32.000  
 24  1 10  3 24 15.6000000  0  7G08G24G18G23G10G32G15
 128082137.832 4  99804348.052 5  24373231.725    24373253.404        2698.336  
      2101.941          26.000          33.000  
 127960306.551 6  99709423.339 6  24350036.675    24350058.382         132.930  
       103.152          36.000          38.000  
 113372146.873 7  88341996.345 7  21574004.807    21574019.852       -1918.805  
     -1495.188          45.000          43.000  
 110050257.136 6  85753504.399 7  20941869.092    20941883.932       -1904.887  
     -1483.992          41.000          42.000  
 107495740.472 7  83762982.587 7  20455760.640    20455776.370         -47.203  
       -36.383          46.000          43.000  
 114652903.226 7  89340012.830 7  21817721.458    21817739.858        2750.668  
      2143.402          47.000          42.000  
 127710488.931 6  99514740.900 5  24302503.939    24302520.411       -3437.156  
     -2678.207          36.000          32.000  
 24  1 10  3 24 15.7000000  0  7G08G24G18G23G10G32G15
 128081868.090 4  99804137.885 5  24373180.395    24373202.079        2695.891  
      2101.391          28.000          33.000  
 127960293.276 5  99709412.951 6  24350034.149    24350055.845         133.664  
       103.840          35.000          38.000  
 113372338.702 7  88342145.759 7  21574041.311    21574056.341       -1917.973  
     -1494.625          45.000          43.000  
 110050447.607 6  85753652.801 7  20941905.337    20941920.173       -1904.699  
     -1484.074          41.000          42.000  
 107495745.144 7  83762986.211 7  20455761.529    20455777.255         -46.766  
       -36.191          46.000          43.000  
 114652628.019 7  89339798.346 7  21817669.088    21817687.479        2752.207  
      2144.453          46.000          42.000  
 127710832.706 5  99515008.771 5  24302569.357    24302585.828       -3438.715  
     -2678.379          35.000          33.000  
 24  1 10  3 24 15.8000000  0  7G08G18G23G24G10G15G32
 128081598.646 4  99803927.910 5  24373129.152    24373150.668        2694.473  
      2100.332          27.000          33.000  
 113372530.476 7  88342295.269 7  21574077.852    21574092.985       -1917.734  
     -1494.777          44.000          43.000  
 110050638.130 6  85753801.247 7  20941941.178    20941956.753       -1905.172  
     -1484.309          41.000          42.000  
 127960279.985 5  99709402.640 6  24350031.299    24350053.624         132.555  
       103.207          35.000          38.000  
 107495749.860 7  83762989.882 7  20455762.473    20455778.589         -47.035  
       -36.809          47.000          43.000  
 127711176.507 5  99515276.655 5  24302635.015    24302651.256       -3439.285  
     -2679.027          34.000          33.000  
 114652352.678 7  89339583.809 7  21817616.005    21817635.048        2754.215  
      2145.359          46.000          42.000  
 24  1 10  3 24 15.9000000  0  7G08G18G23G24G10G15G32
 128081329.180 4  99803717.985 5  24373077.875    24373099.403        2694.582  
      2099.344          27.000          33.000  
 113372722.351 7  88342444.786 7  21574114.364    21574129.499       -1918.320  
     -1494.426          44.000          43.000  
 110050828.723 7  85753949.735 7  20941977.447    20941993.015       -1906.449  
     -1485.266          42.000          42.000  
 127960266.815 5  99709392.315 6  24350028.793    24350051.103         132.535  
       103.211          35.000          39.000  
 107495754.629 7  83762993.614 7  20455763.380    20455779.501         -48.082  
       -37.051          47.000          43.000  
 127711521.10535  99515544.691 5  24302700.465    24302716.713       -3439.398  
     -2680.473          32.000          34.000  
 114652077.258 7  89339369.241 7  21817563.594    21817582.648        2754.723  
      2146.121          46.000          42.000  
 24  1 10  3 24 16.0000000  0  7G08G18G23G24G10G15G32
 128081059.998 4  99803508.182 5  24373026.917    24373048.284        2691.125  
      2097.973          26.000          33.000  
 113372914.145 7  88342594.169 7  21574150.041    21574166.011       -1918.258  
     -1495.086          43.000          43.000  
 110051019.453 7  85754098.448 7  20942014.249    20942028.778       -1908.008  
     -1486.676          43.000          42.000  
 127960253.602 5  99709382.029 6  24350026.021    24350048.442         131.219  
       102.672          35.000          38.000  
 107495759.505 7  83762997.397 7  20455764.910    20455780.425         -49.453  
       -37.930          47.000          44.000  
 127711865.11625  99515812.802 5  24302765.740    24302782.571       -3441.188  
     -2681.109          32.000          34.000  
 114651801.839 7  89339154.621 7  21817511.379    21817529.845        2754.074  
      2146.242          46.000          43.000  
 24  1 10  3 24 16.1000000  0  7G08G18G23G24G10G15G32
 128080790.731 4  99803298.427 5  24372975.677    24372997.059        2691.902  
      2097.820          26.000          33.000  
 113373105.990 7  88342743.701 7  21574186.548    21574202.528       -1918.418  
     -1494.606          44.000          44.000  
 110051210.254 7  85754247.086 7  20942050.558    20942065.077       -1908.191  
     -1486.453          43.000          42.000  
 127960240.501 5  99709371.836 6  24350023.528    24350045.953         131.719  
       102.285          35.000          38.000  
 107495764.409 7  83763001.188 7  20455765.843    20455781.350         -49.383  
       -38.320          47.000          44.000  
 127712209.27625  99516080.979 5  24302831.232    24302848.063       -3441.430  
     -2681.742          32.000          34.000  
 114651526.324 7  89338939.884 7  21817458.950    21817477.404        2755.348  
      2146.742          46.000          43.000  
 24  1 10  3 24 16.2000000  0  7G08G18G23G24G10G15G32
 128080521.693 4  99803088.762 5  24372924.465    24372945.630        2691.129  
      2096.984          27.000          33.000  
 113373297.843 7  88342893.172 7  21574223.150    21574238.859       -1918.441  
     -1494.793          44.000          44.000  
 110051401.056 7  85754395.745 7  20942087.335    20942101.318       -1908.285  
     -1487.227          43.000          42.000  
 127960227.344 6  99709361.561 6  24350021.157    24350043.287         131.031  
       102.703          36.000          38.000  
 107495769.345 7  83763005.070 7  20455766.454    20455782.189         -49.180  
       -38.512          47.000          44.000  
 127712553.38825  99516349.243 5  24302896.659    24302913.810       -3441.969  
     -2682.277          33.000          34.000  
 114651250.748 7  89338725.222 7  21817406.291    21817425.318        2756.492  
      2147.031          47.000          42.000  
 24  1 10  3 24 16.3000000  0  7G08G18G23G24G10G15G32
 128080252.628 4  99802879.096 5  24372873.264    24372894.428        2688.855  
      2095.953          27.000          33.000  
 113373489.661 7  88343042.648 7  21574259.652    21574275.362       -1918.129  
     -1494.613          44.000          44.000  
 110051591.966 7  85754544.516 7  20942123.664    20942137.650       -1909.234  
     -1487.250          43.000          42.000  
 127960214.209 6  99709351.347 6  24350018.657    24350040.793         131.562  
       102.125          36.000          38.000  
 107495774.297 7  83763008.967 7  20455767.397    20455783.141         -49.641  
       -39.031          46.000          44.000  
 127712897.77225  99516617.439 5  24302962.193    24302979.306       -3444.281  
     -2682.148          33.000          34.000  
 114650975.150 7  89338510.435 7  21817353.847    21817372.864        2755.980  
      2147.969          47.000          42.000  
 24  1 10  3 24 16.4000000  0  7G08G18G23G24G10G15G32
 128079983.710 4  99802669.521 5  24372822.114    24372842.951        2690.121  
      2096.355          28.000          33.000  
 113373681.468 7  88343192.094 7  21574295.722    21574312.069       -1918.164  
     -1494.695          44.000          44.000  
 110051782.893 7  85754693.299 7  20942160.043    20942173.820       -1909.348  
     -1487.750          43.000          43.000  
 127960201.082 6  99709341.097 6  24350015.964    24350037.790         130.348  
       102.305          36.000          38.000  
 107495779.327 7  83763012.850 7  20455768.190    20455783.487         -50.555  
       -38.926          46.000          44.000  
 127713242.15325  99516885.707 5  24303027.321    24303044.820       -3442.723  
     -2682.961          33.000          34.000  
 114650699.459 7  89338295.611 7  21817301.814    21817319.957        2757.098  
      2147.918          46.000          42.000  
 24  1 10  3 24 16.5000000  0  7G08G18G23G24G10G15G32
 128079714.747 4  99802459.965 5  24372770.932    24372791.775        2689.266  
      2095.410          29.000          34.000  
 113373873.268 7  88343341.592 7  21574332.220    21574348.578       -1917.906  
     -1494.816          45.000          44.000  
 110051973.837 7  85754842.066 7  20942196.378    20942210.150       -1909.180  
     -1487.734          43.000          43.000  
 127960187.980 6  99709330.937 6  24350013.471    24350035.309         131.355  
       101.945          36.000          38.000  
 107495784.372 7  83763016.818 7  20455769.150    20455784.456         -50.113  
       -39.504          46.000          44.000  
 127713586.41125  99517154.044 5  24303092.831    24303110.350       -3442.512  
     -2683.047          33.000          34.000  
 114650423.794 7  89338080.761 7  21817249.357    21817267.488        2756.738  
      2148.387          46.000          42.000  
 24  1 10  3 24 16.6000000  0  7G08G18G23G24G10G15G32
 128079445.876 4  99802250.506 5  24372719.728    24372740.482        2688.070  
      2094.949          29.000          34.000  
 113374065.087 7  88343491.052 7  21574369.550    21574385.203       -1918.453  
     -1494.621          45.000          44.000  
 110052164.793 7  85754990.882 7  20942232.638    20942246.485       -1909.719  
     -1488.121          43.000          43.000  
 127960174.974 5  99709320.741 6  24350011.363    24350032.147         130.457  
       101.898          35.000          38.000  
 107495789.446 7  83763020.739 7  20455769.600    20455785.984         -51.074  
       -39.375          46.000          44.000  
 127713930.355 5  99517422.422 5  24303157.750    24303176.196       -3444.938  
     -2683.801          32.000          34.000  
 114650148.029 7  89337865.956 7  21817196.724    21817214.968        2758.234  
      2148.211          46.000          42.000  
 24  1 10  3 24 16.7000000  0  7G08G18G23G24G10G15G32
 128079177.126 5  99802041.011 5  24372668.587    24372689.321        2688.223  
      2094.633          30.000          34.000  
 113374256.874 7  88343640.459 7  21574406.046    21574421.690       -1917.730  
     -1494.477          45.000          44.000  
 110052355.753 7  85755139.680 7  20942268.976    20942282.823       -1909.719  
     -1488.031          43.000          43.000  
 127960161.817 5  99709310.553 6  24350008.859    24350029.659         131.293  
       102.012          35.000          38.000  
 107495794.490 7  83763024.679 7  20455770.559    20455786.947         -50.508  
       -39.262          47.000          44.000  
 127714274.708 5  99517690.810 5  24303223.278    24303241.739       -3442.926  
     -2683.934          34.000          34.000  
 114649872.297 7  89337651.086 7  21817144.254    21817162.495        2757.070  
      2148.805          46.000          42.000  
 24  1 10  3 24 16.8000000  0  7G08G18G23G24G10G15G32
 128078908.208 5  99801831.522 5  24372617.781    24372638.186        2689.633  
      2094.855          31.000          35.000  
 113374448.624 7  88343789.899 7  21574442.590    21574458.255       -1917.195  
     -1493.973          44.000          44.000  
 110052546.695 7  85755288.422 7  20942305.561    20942319.350       -1908.949  
     -1487.758          44.000          44.000  
 127960148.707 5  99709300.356 6  24350006.443    24350027.145         130.648  
       102.160          34.000          39.000  
 107495799.511 7  83763028.606 7  20455771.492    20455787.999         -49.875  
       -39.012          47.000          44.000  
 127714619.047 5  99517959.153 5  24303288.546    24303307.037       -3443.738  
     -2683.574          35.000          34.000  
 114649596.522 7  89337436.141 7  21817091.870    21817110.136        2757.805  
      2149.387          46.000          42.000  
 24  1 10  3 24 16.9000000  0  7G08G18G23G24G10G15G32
 128078639.438 5  99801622.075 5  24372566.635    24372587.036        2688.047  
      2094.703          31.000          35.000  
 113374640.395 7  88343939.309 7  21574479.082    21574494.742       -1917.387  
     -1494.066          44.000          44.000  
 110052737.649 7  85755437.248 7  20942341.899    20942355.695       -1909.215  
     -1487.836          43.000          44.000  
 127960135.642 5  99709290.072 6  24350003.956    24350024.634         132.004  
       102.641          34.000          39.000  
 107495804.572 7  83763032.521 7  20455772.455    20455788.955         -50.602  
       -39.055          46.000          44.000  
 127714963.375 6  99518227.500 5  24303354.069    24303372.570       -3443.883  
     -2683.852          36.000          35.000  
 114649320.625 7  89337221.162 7  21817039.368    21817057.636        2759.305  
      2149.566          46.000          42.000  
 24  1 10  3 24 17.0000000  0  7G08G18G23G24G10G15G32
 128078370.643 5  99801412.586 5  24372515.298    24372536.010        2688.477  
      2094.355          31.000          35.000  
 113374832.119 7  88344088.696 7  21574515.137    21574531.029       -1917.199  
     -1494.047          44.000          44.000  
 110052928.630 7  85755586.100 7  20942378.163    20942392.351       -1910.301  
     -1488.188          43.000          44.000  
 127960122.428 5  99709279.878 6  24350001.450    24350022.957         130.883  
       102.117          35.000          39.000  
 107495809.620 7  83763036.411 7  20455772.501    20455790.272         -50.824  
       -39.520          46.000          45.000  
 127715307.866 5  99518495.922 5  24303420.139    24303438.168       -3444.508  
     -2683.801          35.000          35.000  
 114649044.763 7  89337006.308 7  21816986.850    21817005.541        2758.781  
      2149.184          47.000          42.000  
 24  1 10  3 24 17.1000000  0  7G08G18G23G24G10G15G32
 128078101.834 5  99801203.210 5  24372464.145    24372484.878        2688.762  
      2093.824          31.000          35.000  
 113375023.832 7  88344238.123 7  21574551.618    21574567.520       -1917.113  
     -1494.012          45.000          44.000  
 110053119.595 7  85755734.853 7  20942414.502    20942428.678       -1909.754  
     -1487.832          43.000          44.000  
 127960109.322 5  99709269.657 6  24349998.956    24350020.461         131.543  
       102.246          35.000          39.000  
 107495814.649 7  83763040.384 7  20455773.458    20455791.243         -50.086  
       -39.391          47.000          45.000  
 127715652.217 6  99518764.262 5  24303485.667    24303503.699       -3444.308  
     -2683.477          36.000          35.000  
 114648768.963 7  89336791.319 7  21816934.367    21816953.039        2757.410  
      2149.738          46.000          42.000  
 24  1 10  3 24 17.2000000  0  7G08G18G23G24G10G15G32
 128077833.125 5  99800993.770 5  24372413.090    24372433.738        2687.168  
      2094.473          31.000          35.000  
 113375215.550 7  88344387.486 7  21574588.632    21574603.582       -1917.199  
     -1493.699          45.000          44.000  
 110053310.530 7  85755883.614 7  20942450.625    20942464.780       -1909.395  
     -1488.016          43.000          44.000  
 127960096.246 5  99709259.364 6  24349996.397    24350017.963         130.891  
       102.418          35.000          39.000  
 107495819.710 7  83763044.313 7  20455775.304    20455791.999         -50.402  
       -39.098          47.000          45.000  
 127715996.702 5  99519032.685 5  24303551.298    24303569.118       -3444.352  
     -2684.113          35.000          35.000  
 114648493.048 7  89336576.286 7  21816881.854    21816899.971        2758.992  
      2149.637          46.000          42.000  
 24  1 10  3 24 17.3000000  0  7G08G18G23G24G10G15G32
 128077564.397 5  99800784.359 5  24372361.953    24372382.598        2687.941  
      2094.012          32.000          35.000  
 113375407.179 7  88344536.821 7  21574625.098    21574640.051       -1916.512  
     -1493.691          45.000          44.000  
 110053501.446 7  85756032.438 7  20942486.955    20942501.125       -1909.000  
     -1487.598          43.000          44.000  
 127960083.131 5  99709249.208 6  24349993.901    24350015.483         131.453  
       101.793          35.000          39.000  
 107495824.688 8  83763048.194 7  20455776.251    20455792.947         -49.973  
       -39.160          48.000          45.000  
 127716341.124 5  99519301.010 5  24303616.840    24303634.646       -3444.434  
     -2683.273          34.000          35.000  
 114648217.111 7  89336361.318 7  21816829.345    21816847.473        2759.660  
      2150.391          46.000          42.000  
 24  1 10  3 24 17.4000000  0  7G08G18G23G24G10G15G32
 128077295.563 5  99800574.943 6  24372311.022    24372331.535        2687.621  
      2094.086          32.000          36.000  
 113375598.881 7  88344686.186 7  21574661.422    21574676.817       -1916.773  
     -1493.383          45.000          44.000  
 110053692.349 7  85756181.192 7  20942522.783    20942537.546       -1909.066  
     -1487.656          43.000          44.000  
 127960069.938 5  99709238.957 6  24349991.641    24350013.276         131.754  
       102.426          35.000          39.000  
 107495829.719 7  83763052.123 7  20455777.638    20455793.852         -50.102  
       -38.762          47.000          45.000  
 127716685.545 5  99519569.401 5  24303681.826    24303700.252       -3444.199  
     -2683.977          34.000          35.000  
 114647941.146 7  89336146.256 7  21816776.979    21816795.070        2759.484  
      2150.148          47.000          42.000  
 24  1 10  3 24 17.5000000  0  7G08G18G23G24G10G15G32
 128077026.836 5  99800365.520 6  24372259.885    24372280.391        2687.441  
      2093.973          32.000          36.000  
 113375790.527 7  88344835.563 7  21574697.890    21574713.296       -1916.391  
     -1493.504          45.000          44.000  
 110053883.254 7  85756329.918 7  20942559.111    20942573.866       -1909.293  
     -1487.500          43.000          44.000  
 127960056.787 5  99709228.721 6  24349989.138    24350010.776         131.379  
       102.344          35.000          39.000  
 107495834.681 7  83763055.962 7  20455778.583    20455794.789         -49.879  
       -39.051          47.000          45.000  
 127717029.972 5  99519837.726 5  24303747.368    24303765.780       -3444.590  
     -2683.469          34.000          35.000  
 114647665.222 7  89335931.301 7  21816724.473    21816742.576        2759.293  
      2150.004          46.000          42.000  
 24  1 10  3 24 17.6000000  0  7G08G18G23G24G10G15G32
 128076758.044 5  99800156.079 6  24372208.798    24372229.392        2687.555  
      2094.633          32.000          36.000  
 113375982.190 7  88344984.872 7  21574734.113    21574749.931       -1916.801  
     -1493.320          44.000          44.000  
 110054074.136 7  85756478.695 7  20942595.169    20942610.066       -1908.555  
     -1487.582          43.000          45.000  
 127960043.688 5  99709218.491 6  24349986.630    24350008.427         131.082  
       102.512          35.000          39.000  
 107495839.657 8  83763059.858 7  20455779.365    20455795.467         -49.520  
       -38.758          48.000          45.000  
 127717374.404 5  99520106.131 6  24303812.256    24303831.030       -3443.875  
     -2683.957          33.000          36.000  
 114647389.334 7  89335716.278 7  21816671.715    21816690.432        2758.887  
      2149.750          46.000          42.000  
 24  1 10  3 24 17.7000000  0  7G08G18G23G24G10G15G32
 128076489.358 5  99799946.641 6  24372157.669    24372178.245        2687.766  
      2094.395          32.000          36.000  
 113376173.874 7  88345134.232 7  21574770.589    21574786.406       -1916.984  
     -1493.754          44.000          44.000  
 110054265.026 7  85756627.447 7  20942631.494    20942646.393       -1908.801  
     -1487.625          43.000          45.000  
 127960030.581 5  99709208.268 6  24349984.136    24350005.930         131.203  
       102.094          35.000          39.000  
 107495844.687 8  83763063.793 7  20455780.323    20455796.428         -50.109  
       -39.055          48.000          45.000  
 127717718.749 5  99520374.465 6  24303877.782    24303896.560       -3443.785  
     -2683.137          34.000          36.000  
 114647113.479 7  89335501.315 7  21816619.221    21816637.936        2758.691  
      2149.844          46.000          42.000  
 24  1 10  3 24 17.8000000  0  7G08G18G23G24G10G15G32
 128076220.526 5  99799737.218 6  24372106.535    24372127.008        2687.699  
      2094.258          32.000          36.000  
 113376365.518 7  88345283.564 7  21574807.245    21574823.039       -1916.578  
     -1493.367          45.000          44.000  
 110054455.945 7  85756776.193 7  20942668.223    20942683.078       -1909.012  
     -1487.281          43.000          45.000  
 127960017.427 6  99709198.059 6  24349981.391    24350002.452         131.348  
       102.387          36.000          39.000  
 107495849.647 8  83763067.627 7  20455781.696    20455797.669         -49.863  
       -38.859          48.000          45.000  
 127718063.171 5  99520642.819 6  24303943.081    24303962.181       -3444.152  
     -2683.672          34.000          36.000  
 114646837.573 7  89335286.316 7  21816566.312    21816585.353        2758.895  
      2149.641          45.000          42.000  
 24  1 10  3 24 17.9000000  0  7G08G18G23G24G10G15G32
 128075951.799 5  99799527.816 6  24372055.398    24372075.871        2687.598  
      2093.984          32.000          36.000  
 113376557.214 7  88345432.945 7  21574843.724    21574859.519       -1916.660  
     -1493.340          45.000          44.000  
 110054646.769 7  85756924.847 7  20942704.536    20942719.381       -1908.711  
     -1487.121          43.000          45.000  
 127960004.372 5  99709187.817 6  24349978.906    24349999.951         131.023  
       102.215          35.000          39.000  
 107495854.663 7  83763071.546 7  20455782.651    20455798.626         -50.035  
       -38.930          47.000          45.000  
 127718407.543 5  99520911.166 6  24304008.613    24304027.714       -3443.883  
     -2683.504          35.000          36.000  
 114646561.693 7  89335071.362 7  21816513.814    21816532.859        2758.801  
      2149.609          46.000          42.000  
 24  1 10  3 24 18.0000000  0  7G08G18G23G24G10G15G32
 128075683.019 5  99799318.380 6  24372004.438    24372025.154        2687.645  
      2094.297          32.000          36.000  
 113376748.830 7  88345582.240 7  21574880.054    21574895.799       -1916.562  
     -1493.703          45.000          44.000  
 110054837.677 7  85757073.656 7  20942741.130    20942755.385       -1908.891  
     -1487.656          43.000          45.000  
 127959991.158 5  99709177.566 6  24349976.392    24349997.245         131.605  
       102.543          34.000          39.000  
 107495859.648 7  83763075.424 7  20455783.162    20455799.308         -50.012  
       -38.910          47.000          45.000  
 127718751.941 6  99521179.530 6  24304074.337    24304093.267       -3443.891  
     -2683.223          36.000          36.000  
 114646285.839 7  89334856.412 7  21816461.321    21816480.132        2758.766  
      2149.500          46.000          42.000  
 24  1 10  3 24 18.1000000  0  7G08G18G23G24G10G15G32
 128075414.290 5  99799108.970 6  24371953.301    24371974.014        2687.398  
      2094.324          32.000          36.000  
 113376940.503 7  88345731.622 7  21574916.528    21574932.279       -1916.547  
     -1493.219          45.000          44.000  
 110055028.561 7  85757222.356 7  20942777.454    20942791.699       -1908.895  
     -1487.148          43.000          44.000  
 127959977.998 5  99709167.347 6  24349973.888    24349994.749         131.461  
       102.383          34.000          38.000  
 107495864.616 7  83763079.296 7  20455784.107    20455800.253         -49.828  
       -38.781          46.000          45.000  
 127719096.227 6  99521447.857 5  24304139.853    24304158.795       -3443.356  
     -2683.500          36.000          35.000  
 114646009.995 7  89334641.471 7  21816408.829    21816427.641        2758.566  
      2149.371          46.000          42.000  
 24  1 10  3 24 18.2000000  0  7G08G18G23G24G10G15G32
 128075145.562 5  99798899.572 6  24371902.132    24371922.853        2687.395  
      2094.012          33.000          36.000  
 113377132.139 7  88345880.954 7  21574952.847    21574968.396       -1916.484  
     -1493.316          44.000          44.000  
 110055219.402 7  85757371.060 7  20942813.489    20942827.921       -1908.660  
     -1487.086          43.000          44.000  
 127959964.881 5  99709157.081 6  24349970.876    24349991.555         131.332  
       102.602          35.000          38.000  
 107495869.653 7  83763083.224 7  20455784.167    20455801.166         -50.000  
       -39.137          47.000          45.000  
 127719440.611 6  99521716.092 5  24304205.629    24304224.215       -3443.621  
     -2682.398          37.000          35.000  
 114645734.133 7  89334426.500 7  21816356.139    21816375.526        2758.543  
      2149.664          46.000          42.000  
 24  1 10  3 24 18.3000000  0  7G08G18G23G24G10G15G32
 128074876.799 5  99798690.156 6  24371850.988    24371871.712        2687.422  
      2094.070          33.000          36.000  
 113377323.748 7  88346030.246 7  21574989.309    21575004.855       -1916.312  
     -1493.180          45.000          44.000  
 110055410.247 7  85757519.795 7  20942849.805    20942864.243       -1908.465  
     -1487.156          43.000          44.000  
 127959951.778 5  99709146.774 6  24349968.382    24349989.038         131.297  
       102.824          35.000          38.000  
 107495874.629 7  83763087.119 7  20455785.114    20455802.117         -49.969  
       -38.930          47.000          45.000  
 127719784.922 6  99521984.466 6  24304271.149    24304289.754       -3443.230  
     -2683.270          36.000          36.000  
 114645458.271 7  89334211.586 7  21816303.644    21816323.042        2758.641  
      2149.316          45.000          42.000  
 24  1 10  3 24 18.4000000  0  7G08G24G18G23G10G32G15
 128074608.097 5  99798480.820 6  24371799.645    24371820.902        2687.254  
      2093.746          32.000          36.000  
 127959938.547 5  99709136.562 6  24349965.716    24349986.661         131.805  
       102.320          35.000          38.000  
 113377515.376 7  88346179.554 7  21575025.822    21575041.216       -1916.148  
     -1492.773          45.000          44.000  
 110055601.057 7  85757668.510 7  20942885.811    20942900.498       -1908.109  
     -1486.793          43.000          44.000  
 107495879.585 7  83763090.989 7  20455786.331    20455802.843         -49.613  
       -38.746          47.000          45.000  
 114645182.380 7  89333996.602 7  21816250.707    21816270.509        2758.773  
      2149.863          45.000          42.000  
 127720129.260 6  99522252.770 6  24304337.034    24304354.847       -3443.449  
     -2683.191          36.000          36.000  
 24  1 10  3 24 18.5000000  0  7G08G24G18G23G10G32G15
 128074339.399 5  99798271.360 6  24371748.514    24371769.750        2687.215  
      2094.332          33.000          36.000  
 127959925.322 5  99709126.264 6  24349963.200    24349984.146         131.949  
       103.078          35.000          39.000  
 113377706.926 7  88346328.786 7  21575062.272    21575077.660       -1915.965  
     -1492.984          45.000          44.000  
 110055791.879 7  85757817.145 7  20942922.123    20942936.797       -1908.285  
     -1486.914          43.000          44.000  
 107495884.610 7  83763094.890 7  20455787.287    20455803.796         -50.047  
       -39.031          47.000          45.000  
 114644906.500 7  89333781.617 7  21816198.208    21816218.007        2758.832  
      2149.648          45.000          42.000  
 127720473.556 6  99522521.050 6  24304402.551    24304420.364       -3443.078  
     -2682.762          36.000          36.000  
 24  1 10  3 24 18.6000000  0  7G08G24G18G23G10G32G15
 128074070.704 5  99798062.026 6  24371697.211    24371718.730        2687.043  
      2093.590          33.000          36.000  
 127959912.176 6  99709115.966 6  24349961.010    24349982.029         131.637  
       102.805          36.000          39.000  
 113377898.545 7  88346478.161 7  21575098.939    21575114.279       -1915.949  
     -1492.836          45.000          44.000  
 110055982.675 7  85757965.839 7  20942958.508    20942973.265       -1908.168  
     -1486.902          43.000          45.000  
 107495889.550 7  83763098.741 7  20455788.141    20455804.877         -49.820  
       -38.738          46.000          45.000  
 114644630.625 7  89333566.664 7  21816145.914    21816165.022        2758.676  
      2149.770          46.000          42.000  
 127720817.953 6  99522789.375 6  24304467.690    24304486.360       -3443.602  
     -2683.203          36.000          36.000  
 24  1 10  3 24 18.7000000  0  7G08G24G18G23G10G32G15
 128073801.963 5  99797852.614 6  24371646.071    24371667.589        2687.180  
      2093.887          33.000          36.000  
 127959898.972 6  99709105.693 6  24349958.498    24349979.521         131.805  
       102.777          36.000          39.000  
 113378090.056 7  88346627.358 7  21575135.383    21575150.715       -1915.617  
     -1492.902          45.000          44.000  
 110056173.471 7  85758114.527 7  20942994.815    20943009.576       -1907.969  
     -1486.785          43.000          45.000  
 107495894.540 7  83763102.658 7  20455789.091    20455805.833         -49.703  
       -38.730          46.000          45.000  
 114644354.761 7  89333351.659 7  21816093.419    21816112.515        2758.609  
      2149.750          47.000          42.000  
 127721162.240 6  99523057.692 6  24304533.205    24304551.886       -3443.211  
     -2683.102          37.000          36.000  
 24  1 10  3 24 18.8000000  0  7G08G24G18G23G10G32G15
 128073533.271 5  99797643.240 6  24371594.800    24371616.786        2686.906  
      2093.367          32.000          36.000  
 127959885.772 5  99709095.413 6  24349956.166    24349977.393         131.934  
       102.832          35.000          39.000  
 113378281.730 7  88346776.712 7  21575172.005    21575187.188       -1916.164  
     -1492.992          45.000          44.000  
 110056364.317 7  85758263.208 7  20943031.070    20943045.964       -1908.266  
     -1487.098          43.000          44.000  
 107495899.587 7  83763106.519 7  20455789.684    20455806.909         -50.266  
       -39.020          47.000          45.000  
 114644078.908 7  89333136.712 7  21816042.043    21816059.859        2758.594  
      2149.500          47.000          42.000  
 127721506.584 6  99523325.975 6  24304598.997    24304617.872       -3443.379  
     -2682.930          37.000          36.000  
 24  1 10  3 24 18.9000000  0  7G08G24G18G23G10G32G15
 128073264.591 5  99797433.884 6  24371543.672    24371565.659        2687.051  
      2093.746          32.000          36.000  
 127959872.586 5  99709085.139 6  24349953.656    24349974.884         131.883  
       102.922          35.000          39.000  
 113378473.306 7  88346926.004 7  21575208.461    21575223.647       -1916.000  
     -1493.148          44.000          44.000  
 110056555.223 7  85758411.963 7  20943067.398    20943082.291       -1908.766  
     -1487.301          43.000          45.000  
 107495904.645 7  83763110.478 7  20455790.646    20455807.876         -50.418  
       -39.480          47.000          45.000  
 114643803.073 7  89332921.784 6  21815989.553    21816007.371        2758.441  
      2149.297          47.000          41.000  
 127721850.951 6  99523594.219 6  24304664.528    24304683.380       -3443.496  
     -2682.422          37.000          36.000  
 24  1 10  3 24 19.0000000  0  7G08G24G18G23G10G32G15
 128072995.948 5  99797224.547 6  24371492.535    24371514.310        2686.734  
      2093.543          32.000          36.000  
 127959859.401 5  99709074.887 6  24349950.991    24349972.201         131.957  
       102.488          35.000          39.000  
 113378664.936 7  88347075.317 7  21575244.294    21575260.416       -1916.160  
     -1492.926          44.000          44.000  
 110056746.031 7  85758560.657 7  20943103.950    20943118.479       -1908.398  
     -1487.062          43.000          45.000  
 107495909.630 8  83763114.401 7  20455792.228    20455808.975         -50.078  
       -39.277          48.000          45.000  
 114643527.224 7  89332706.860 7  21815937.421    21815955.283        2758.566  
      2149.359          47.000          42.000  
 127722195.214 6  99523862.553 6  24304730.274    24304748.395       -3442.922  
     -2683.438          37.000          37.000  
 24  1 10  3 24 19.1000000  0  7G08G24G18G23G10G32G15
 128072727.284 5  99797015.129 6  24371441.410    24371463.168        2686.426  
      2093.816          32.000          36.000  
 127959846.211 5  99709064.613 6  24349948.481    24349969.692         131.949  
       102.828          35.000          39.000  
 113378856.531 7  88347224.620 7  21575280.754    21575296.877       -1916.012  
     -1493.070          45.000          44.000  
 110056936.859 7  85758709.331 7  20943140.263    20943154.787       -1908.348  
     -1486.832          43.000          45.000  
 107495914.678 8  83763118.360 7  20455793.188    20455809.941         -50.242  
       -39.348          48.000          45.000  
 114643251.366 7  89332491.898 7  21815884.927    21815902.787        2758.547  
      2149.566          47.000          42.000  
 127722539.503 6  99524130.850 6  24304795.790    24304813.915       -3442.973  
     -2682.848          37.000          37.000  
 24  1 10  3 24 19.2000000  0  7G08G24G18G23G10G32G15
 128072458.510 5  99796805.820 6  24371389.999    24371411.514        2687.301  
      2093.488          32.000          36.000  
 127959833.007 6  99709054.302 6  24349945.851    24349967.502         132.055  
       102.926          36.000          40.000  
 113379048.088 7  88347373.890 7  21575317.737    21575333.346       -1915.691  
     -1492.609          45.000          44.000  
 110057127.649 7  85758858.038 7  20943176.663    20943191.048       -1908.105  
     -1486.867          43.000          45.000  
 107495919.652 8  83763122.176 7  20455794.916    20455810.475         -49.984  
       -38.688          48.000          45.000  
 114642975.477 7  89332276.911 7  21815832.520    21815850.520        2758.664  
      2149.664          47.000          42.000  
 127722883.824 6  99524399.152 6  24304861.155    24304879.828       -3442.969  
     -2682.633          37.000          37.000  
 24  1 10  3 24 19.3000000  0  7G08G24G18G23G10G32G15
 128072189.795 5  99796596.388 6  24371338.864    24371360.369        2687.117  
      2094.012          32.000          36.000  
 127959819.719 6  99709043.989 6  24349943.323    24349964.983         132.406  
       103.188          36.000          40.000  
 113379239.618 7  88347523.127 7  21575354.184    21575369.791       -1915.461  
     -1492.559          45.000          44.000  
 110057318.416 7  85759006.673 7  20943212.965    20943227.346       -1907.703  
     -1486.582          43.000          45.000  
 107495924.641 8  83763126.114 7  20455795.865    20455811.437         -49.875  
       -38.820          48.000          45.000  
 114642699.626 7  89332061.948 7  21815780.028    21815798.023        2758.656  
      2149.676          47.000          42.000  
 127723228.067 6  99524667.328 6  24304926.663    24304945.320       -3442.754  
     -2682.277          37.000          36.000  
 24  1 10  3 24 19.4000000  0  7G08G24G18G23G10G32G15
 128071921.195 5  99796387.062 6  24371287.626    24371308.936        2686.789  
      2093.402          32.000          36.000  
 127959806.571 5  99709033.677 6  24349940.469    24349962.730         131.875  
       103.109          35.000          40.000  
 113379431.181 7  88347672.386 7  21575390.121    21575406.280       -1915.703  
     -1492.504          45.000          44.000  
 110057509.182 7  85759155.360 7  20943249.290    20943263.352       -1907.828  
     -1486.695          43.000          45.000  
 107495929.644 7  83763129.964 7  20455796.880    20455812.244         -49.988  
       -38.844          47.000          45.000  
 114642423.786 7  89331847.023 7  21815727.068    21815745.310        2758.543  
      2149.613          47.000          42.000  
 127723572.374 6  99524935.647 6  24304991.987    24305010.916       -3442.957  
     -2682.957          37.000          37.000  
 24  1 10  3 24 19.5000000  0  7G08G24G18G23G10G32G15
 128071652.496 5  99796177.701 6  24371236.494    24371257.808        2686.789  
      2093.695          32.000          36.000  
 127959793.347 5  99709023.433 6  24349937.953    24349960.229         132.105  
       102.582          35.000          40.000  
 113379622.772 7  88347821.693 7  21575426.580    21575442.743       -1915.660  
     -1493.008          45.000          44.000  
 110057700.026 7  85759304.035 7  20943285.606    20943299.660       -1908.039  
     -1486.539          43.000          45.000  
 107495934.679 7  83763133.909 7  20455797.838    20455813.207         -50.137  
       -39.199          47.000          45.000  
 114642147.980 7  89331632.086 7  21815674.584    21815692.820        2758.129  
      2149.086          47.000          42.000  
 127723916.645 6  99525203.945 6  24305057.499    24305076.437       -3442.672  
     -2682.883          37.000          37.000  
 24  1 10  3 24 19.6000000  0  7G08G24G18G23G10G32G15
 128071383.754 5  99795968.332 6  24371185.284    24371206.694        2687.176  
      2093.609          32.000          36.000  
 127959780.157 5  99709013.091 6  24349935.216    24349957.945         132.055  
       103.137          35.000          40.000  
 113379814.345 7  88347970.981 7  21575463.168    21575479.185       -1915.762  
     -1492.922          45.000          44.000  
 110057890.808 7  85759452.663 7  20943321.786    20943336.285       -1908.023  
     -1486.457          43.000          45.000  
 107495939.715 8  83763137.850 7  20455798.484    20455814.561         -50.305  
       -39.375          48.000          45.000  
 114641872.188 7  89331417.219 7  21815622.111    21815640.215        2758.051  
      2148.773          47.000          42.000  
 127724260.876 6  99525472.174 6  24305123.012    24305142.059       -3442.520  
     -2682.246          37.000          37.000  
 24  1 10  3 24 19.7000000  0  7G08G24G18G23G10G32G15
 128071115.098 5  99795758.963 6  24371134.160    24371155.564        2686.898  
      2093.789          33.000          36.000  
 127959766.858 5  99709002.823 6  24349932.686    24349955.438         132.473  
       102.918          35.000          40.000  
 113380005.953 7  88348120.252 7  21575499.630    21575515.638       -1915.965  
     -1493.012          44.000          44.000  
 110058081.591 7  85759601.381 7  20943358.091    20943372.603       -1907.895  
     -1487.121          43.000          45.000  
 107495944.743 8  83763141.738 7  20455799.441    20455815.510         -50.277  
       -39.191          48.000          45.000  
 114641596.442 8  89331202.357 7  21815569.638    21815587.743        2757.797  
      2148.773          48.000          42.000  
 127724605.046 6  99525740.406 6  24305188.506    24305207.564       -3442.117  
     -2682.547          37.000          37.000  
 24  1 10  3 24 19.8000000  0  7G08G24G18G23G10G32G15
 128070846.386 5  99795549.561 6  24371082.870    24371104.379        2687.152  
      2094.199          34.000          36.000  
 127959753.627 5  99708992.474 6  24349930.011    24349952.832         132.426  
       103.473          35.000          40.000  
 113380197.476 7  88348269.516 7  21575535.974    21575552.098       -1915.293  
     -1492.438          44.000          44.000  
 110058272.307 7  85759749.979 7  20943394.789    20943408.721       -1907.289  
     -1486.113          43.000          45.000  
 107495949.735 7  83763145.666 7  20455800.711    20455816.891         -49.859  
       -39.059          47.000          45.000  
 114641320.695 8  89330987.449 7  21815517.602    21815535.206        2757.461  
      2148.926          48.000          42.000  
 127724949.233 6  99526008.595 6  24305254.119    24305273.066       -3441.590  
     -2681.809          37.000          37.000  
 24  1 10  3 24 19.9000000  0  7G08G24G18G23G10G32G15
 128070577.564 5  99795340.137 6  24371031.715    24371053.235        2688.078  
      2094.227          34.000          36.000  
 127959740.368 5  99708982.074 6  24349927.488    24349950.293         132.898  
       103.750          34.000          40.000  
 113380389.023 7  88348418.764 7  21575572.424    21575588.546       -1915.199  
     -1492.223          44.000          44.000  
 110058462.994 7  85759898.573 7  20943431.075    20943445.009       -1906.527  
     -1485.652          43.000          45.000  
 107495954.718 8  83763149.493 7  20455801.659    20455817.826         -49.945  
       -38.660          48.000          46.000  
 114641044.957 7  89330772.577 6  21815465.131    21815482.732        2757.457  
      2148.684          47.000          41.000  
 127725293.360 6  99526276.721 6  24305319.605    24305338.545       -3441.484  
     -2681.512          36.000          37.000  
 24  1 10  3 24 20.0000000  0  7G08G24G18G23G10G32G15
 128070308.773 5  99795130.697 6  24370980.909    24371002.135        2687.566  
      2094.465          35.000          36.000  
 127959726.969 5  99708971.728 6  24349925.282    24349947.578         133.266  
       103.547          35.000          40.000  
 113380580.508 7  88348567.980 7  21575608.753    21575624.939       -1915.016  
     -1492.231          44.000          44.000  
 110058653.638 7  85760047.108 7  20943466.807    20943481.853       -1906.668  
     -1485.445          44.000          45.000  
 107495959.694 7  83763153.385 7  20455802.427    20455818.753         -49.703  
       -38.574          47.000          46.000  
 114640769.259 7  89330557.729 6  21815412.550    21815429.904        2757.172  
      2148.258          47.000          41.000  
 127725637.398 6  99526544.898 6  24305384.674    24305403.998       -3440.918  
     -2681.523          36.000          38.000  
 24  1 10  3 24 20.1000000  0  7G08G24G18G23G10G32G15
 128070039.971 5  99794921.207 6  24370929.758    24370950.975        2687.969  
      2094.777          35.000          36.000  
 127959713.740 5  99708961.307 6  24349922.765    24349945.034         132.641  
       103.980          35.000          40.000  
 113380772.083 7  88348717.259 7  21575645.209    21575661.395       -1915.473  
     -1492.699          44.000          43.000  
 110058844.278 7  85760195.658 7  20943503.084    20943518.130       -1906.559  
     -1485.332          44.000          45.000  
 107495964.655 7  83763157.255 7  20455803.370    20455819.698         -49.711  
       -38.844          46.000          46.000  
 114640493.656 7  89330342.995 6  21815360.105    21815377.464        2756.508  
      2147.582          47.000          41.000  
 127725981.467 6  99526812.955 6  24305450.149    24305469.460       -3440.754  
     -2680.887          36.000          38.000  
 24  1 10  3 24 20.2000000  0  7G08G24G18G23G10G32G15
 128069771.118 5  99794711.710 6  24370878.488    24370900.041        2688.844  
      2095.160          35.000          37.000  
 127959700.371 5  99708950.920 6  24349920.674    24349942.286         133.555  
       104.051          35.000          41.000  
 113380963.615 7  88348866.509 7  21575681.906    21575697.616       -1915.598  
     -1492.660          44.000          43.000  
 110059034.878 7  85760344.183 7  20943540.097    20943554.464       -1905.996  
     -1485.352          44.000          45.000  
 107495969.599 7  83763161.145 7  20455804.100    20455820.359         -49.273  
       -38.617          46.000          46.000  
 114640218.124 7  89330128.291 6  21815307.438    21815325.226        2755.434  
      2147.152          47.000          41.000  
 127726325.438 6  99527080.978 6  24305515.237    24305534.820       -3439.781  
     -2679.973          36.000          39.000  
 24  1 10  3 24 20.3000000  0  7G08G24G18G23G10G32G15
 128069502.134 5  99794502.145 6  24370827.302    24370848.863        2689.578  
      2095.566          35.000          37.000  
 127959686.956 5  99708940.514 6  24349918.121    24349939.745         134.133  
       104.027          35.000          41.000  
 113381155.200 7  88349015.786 7  21575718.363    21575734.071       -1915.590  
     -1492.676          44.000          43.000  
 110059225.427 7  85760492.678 7  20943576.357    20943590.728       -1905.523  
     -1484.758          44.000          45.000  
 107495974.583 7  83763165.004 7  20455805.049    20455821.301         -49.910  
       -38.797          46.000          46.000  
 114639942.664 7  89329913.642 6  21815255.020    21815272.807        2754.363  
      2146.164          47.000          41.000  
 127726669.379 6  99527348.910 6  24305580.687    24305600.252       -3439.223  
     -2679.488          37.000          38.000  
 24  1 10  3 24 20.4000000  0  7G08G24G18G23G10G32G15
 128069233.142 6  99794292.526 6  24370776.497    24370797.617        2690.023  
      2096.102          36.000          37.000  
 127959673.611 5  99708930.094 6  24349915.754    24349937.364         133.535  
       104.301          35.000          41.000  
 113381346.764 7  88349165.065 7  21575755.231    21575770.386       -1915.531  
     -1492.676          44.000          43.000  
 110059415.955 7  85760641.091 7  20943612.473    20943626.894       -1905.285  
     -1484.348          44.000          45.000  
 107495979.470 7  83763168.838 7  20455805.784    20455822.151         -48.965  
       -38.469          46.000          46.000  
 114639667.290 7  89329699.060 6  21815202.298    21815220.787        2753.547  
      2145.762          47.000          40.000  
 127727013.188 6  99527616.887 6  24305646.400    24305665.413       -3438.473  
     -2679.625          38.000          38.000  
 24  1 10  3 24 20.5000000  0  7G08G24G18G23G10G32G15
 128068964.084 6  99794082.877 6  24370725.297    24370746.419        2690.516  
      2096.445          37.000          37.000  
 127959660.095 5  99708919.586 6  24349913.182    24349934.798         135.023  
       104.891          34.000          41.000  
 113381538.353 7  88349314.323 7  21575791.689    21575806.837       -1916.039  
     -1492.988          44.000          43.000  
 110059606.422 7  85760789.560 7  20943648.717    20943663.152       -1904.492  
     -1484.332          44.000          46.000  
 107495984.449 7  83763172.714 7  20455806.731    20455823.098         -49.512  
       -38.438          45.000          46.000  
 114639392.036 7  89329484.597 6  21815149.919    21815168.413        2752.730  
      2144.777          46.000          40.000  
 127727356.935 6  99527884.717 6  24305711.813    24305730.820       -3437.524  
     -2678.145          38.000          38.000  
 24  1 10  3 24 20.6000000  0  7G08G24G18G23G10G32G15
 128068695.017 6  99793873.189 6  24370673.892    24370695.492        2690.469  
      2096.797          37.000          37.000  
 127959646.767 5  99708909.180 6  24349910.442    24349932.397         133.652  
       104.320          35.000          41.000  
 113381729.940 7  88349463.625 7  21575828.061    21575843.423       -1916.059  
     -1493.246          44.000          43.000  
 110059796.900 7  85760937.961 7  20943684.542    20943699.478       -1904.855  
     -1484.180          44.000          46.000  
 107495989.383 7  83763176.533 7  20455807.576    20455824.078         -49.750  
       -38.758          46.000          46.000  
 114639116.855 7  89329270.149 6  21815097.210    21815116.175        2751.383  
      2144.094          46.000          40.000  
 127727700.644 6  99528152.509 6  24305777.750    24305796.194       -3437.035  
     -2678.078          39.000          38.000  
 24  1 10  3 24 20.7000000  0  7G08G24G18G23G10G32G15
 128068425.858 6  99793663.477 6  24370622.673    24370644.278        2691.566  
      2097.301          37.000          37.000  
 127959633.296 5  99708898.668 6  24349907.879    24349929.830         134.746  
       105.090          35.000          41.000  
 113381921.558 7  88349612.958 7  21575864.524    21575879.891       -1916.172  
     -1493.094          44.000          43.000  
 110059987.236 7  85761086.249 7  20943720.762    20943735.692       -1903.672  
     -1483.496          44.000          46.000  
 107495994.261 7  83763180.388 7  20455808.504    20455825.019         -48.824  
       -38.285          45.000          46.000  
 114638841.771 7  89329055.825 6  21815044.863    21815063.835        2750.785  
      2143.199          46.000          41.000  
 127728044.221 6  99528420.274 6  24305843.131    24305861.585       -3435.840  
     -2677.723          39.000          38.000  
 24  1 10  3 24 20.8000000  0  7G08G24G18G23G10G32G15
 128068156.582 6  99793453.609 6  24370571.720    24370592.862        2693.207  
      2098.504          37.000          37.000  
 127959619.737 5  99708888.164 6  24349905.158    24349927.148         135.168  
       105.121          34.000          40.000  
 113382113.171 7  88349762.253 7  21575901.175    21575916.811       -1916.141  
     -1493.148          44.000          43.000  
 110060177.565 7  85761234.608 7  20943756.902    20943772.243       -1902.930  
     -1482.922          44.000          46.000  
 107495999.157 7  83763184.179 7  20455809.936    20455826.086         -48.125  
       -37.848          45.000          47.000  
 114638566.790 7  89328841.529 6  21814992.294    21815011.760        2749.688  
      2143.172          46.000          41.000  
 127728387.687 6  99528687.912 6  24305908.943    24305926.343       -3434.766  
     -2676.566          39.000          37.000  
 24  1 10  3 24 20.9000000  0  7G08G24G18G23G10G32G15
 128067887.169 6  99793243.686 6  24370520.453    24370541.597        2694.207  
      2099.293          38.000          37.000  
 127959606.190 5  99708877.597 6  24349902.580    24349924.567         134.645  
       105.449          34.000          40.000  
 113382304.773 7  88349911.572 7  21575937.635    21575953.277       -1916.000  
     -1493.008          44.000          43.000  
 110060367.790 7  85761382.814 7  20943793.101    20943808.437       -1902.043  
     -1482.270          45.000          46.000  
 107496003.968 7  83763187.925 7  20455810.852    20455827.000         -47.945  
       -37.660          45.000          47.000  
 114638291.835 7  89328627.315 6  21814939.972    21814959.446        2749.266  
      2142.062          46.000          41.000  
 127728731.107 6  99528955.508 6  24305974.294    24305991.693       -3433.508  
     -2675.871          39.000          37.000  
 24  1 10  3 24 21.0000000  0  7G08G24G18G23G10G32G15
 128067617.694 6  99793033.720 6  24370468.986    24370489.977        2694.934  
      2099.543          38.000          38.000  
 127959592.731 5  99708867.057 6  24349899.628    24349921.603         135.086  
       105.441          34.000          40.000  
 113382496.371 7  88350060.848 7  21575974.322    21575989.208       -1916.082  
     -1492.773          44.000          43.000  
 110060557.952 7  85761530.979 7  20943829.483    20943844.557       -1901.496  
     -1481.715          45.000          46.000  
 107496008.734 7  83763191.671 7  20455811.930    20455828.400         -47.395  
       -37.227          46.000          47.000  
 114638016.986 7  89328413.119 6  21814888.193    21814907.067        2748.148  
      2141.758          46.000          41.000  
 127729074.375 6  99529223.011 6  24306039.655    24306056.723       -3432.746  
     -2675.301          38.000          37.000  
 24  1 10  3 24 21.1000000  0  7G08G24G18G23G10G32G15
 128067348.160 6  99792823.696 6  24370417.695    24370438.687        2695.914  
      2100.270          37.000          38.000  
 127959579.109 5  99708856.458 6  24349897.036    24349919.014         136.555  
       105.898          34.000          40.000  
 113382688.029 7  88350210.185 7  21576010.793    21576025.678       -1916.469  
     -1493.211          44.000          43.000  
 110060748.066 7  85761679.147 7  20943865.660    20943880.742       -1900.797  
     -1481.488          44.000          46.000  
 107496013.478 7  83763195.376 7  20455812.833    20455829.304         -47.113  
       -36.961          46.000          47.000  
 114637742.224 7  89328199.023 6  21814835.908    21814854.783        2747.320  
      2141.125          47.000          41.000  
 127729417.686 6  99529490.444 6  24306104.985    24306122.033       -3432.613  
     -2674.266          37.000          38.000  
 24  1 10  3 24 21.2000000  0  7G08G24G18G23G10G32G15
 128067078.496 6  99792613.555 6  24370366.505    24370387.743        2696.766  
      2101.160          37.000          37.000  
 127959565.507 5  99708845.891 6  24349894.604    24349917.027         135.473  
       105.727          34.000          40.000  
 113382879.659 7  88350359.518 7  21576046.775    21576062.060       -1916.574  
     -1493.348          44.000          43.000  
 110060938.130 7  85761827.241 7  20943901.805    20943916.369       -1900.469  
     -1480.938          45.000          46.000  
 107496018.201 7  83763199.023 7  20455814.513    20455830.531         -47.324  
       -36.734          46.000          47.000  
 114637467.546 7  89327985.020 6  21814783.872    21814802.349        2746.246  
      2140.074          47.000          41.000  
 127729760.871 6  99529757.893 6  24306170.087    24306188.011       -3431.438  
     -2674.691          37.000          37.000  
 24  1 10  3 24 21.3000000  0  7G08G24G18G23G10G32G15
 128066808.787 6  99792403.412 6  24370315.181    24370336.424        2697.211  
      2101.590          37.000          37.000  
 127959551.914 5  99708835.320 6  24349892.017    24349914.446         136.426  
       105.746          34.000          40.000  
 113383071.316 7  88350508.870 7  21576083.246    21576098.534       -1916.781  
     -1493.477          44.000          43.000  
 110061128.118 7  85761975.292 7  20943937.958    20943952.524       -1899.957  
     -1480.539          44.000          46.000  
 107496022.896 7  83763202.637 7  20455815.407    20455831.413         -46.805  
       -36.176          46.000          47.000  
 114637192.945 7  89327771.037 6  21814731.618    21814750.092        2745.766  
      2139.605          46.000          41.000  
 127730103.939 6  99530025.216 6  24306235.371    24306253.294       -3430.774  
     -2673.172          37.000          37.000  
 24  1 10  3 24 21.4000000  0  7G08G24G18G23G10G32G15
 128066538.967 6  99792193.160 6  24370263.774    24370284.751        2698.223  
      2102.426          37.000          37.000  
 127959538.362 5  99708824.720 6  24349889.493    24349911.826         135.020  
       105.836          34.000          40.000  
 113383262.991 7  88350658.231 7  21576119.525    21576134.626       -1916.695  
     -1493.824          44.000          43.000  
 110061318.116 7  85762123.337 7  20943973.746    20943988.420       -1899.730  
     -1480.367          44.000          46.000  
 107496027.540 7  83763206.261 7  20455816.017    20455831.759         -46.281  
       -36.199          46.000          47.000  
 114636918.442 7  89327557.149 6  21814679.006    21814697.726        2744.480  
      2138.883          47.000          41.000  
 127730447.004 6  99530292.566 6  24306300.209    24306319.052       -3430.348  
     -2673.336          38.000          37.000  
 24  1 10  3 24 21.5000000  0  7G08G24G18G23G10G32G15
 128066269.102 6  99791982.853 6  24370212.420    24370233.391        2699.488  
      2103.035          37.000          37.000  
 127959524.761 5  99708814.147 6  24349886.905    24349909.244         135.820  
       105.824          34.000          40.000  
 113383454.697 7  88350807.605 7  21576156.005    21576171.105       -1916.906  
     -1493.570          44.000          43.000  
 110061508.028 7  85762271.305 7  20944009.885    20944024.556       -1898.773  
     -1479.742          45.000          46.000  
 107496032.198 7  83763209.896 7  20455816.903    20455832.647         -46.543  
       -36.082          45.000          46.000  
 114636644.016 7  89327343.273 6  21814626.785    21814645.495        2744.289  
      2138.582          47.000          41.000  
 127730790.028 6  99530559.788 6  24306365.484    24306384.311       -3429.590  
     -2672.480          38.000          37.000  
 24  1 10  3 24 21.6000000  0  7G08G24G18G23G10G32G15
 128065999.099 6  99791772.492 6  24370161.274    24370181.558        2700.148  
      2103.480          37.000          37.000  
 127959511.177 5  99708803.539 6  24349884.265    24349906.505         135.773  
       105.953          34.000          40.000  
 113383646.403 7  88350956.975 7  21576192.775    21576208.184       -1917.055  
     -1494.137          44.000          43.000  
 110061697.909 7  85762419.242 7  20944046.261    20944060.668       -1898.699  
     -1479.449          45.000          46.000  
 107496036.765 7  83763213.455 7  20455816.991    20455833.274         -45.480  
       -36.055          46.000          46.000  
 114636369.668 7  89327129.531 6  21814574.641    21814592.985        2743.324  
      2138.023          47.000          41.000  
 127731132.921 6  99530827.026 6  24306430.602    24306449.596       -3428.965  
     -2672.180          38.000          37.000  
 24  1 10  3 24 21.7000000  0  7G08G24G18G23G10G32G15
 128065729.074 6  99791562.079 6  24370109.890    24370130.173        2699.930  
      2104.059          37.000          37.000  
 127959497.562 5  99708792.938 6  24349881.675    24349903.916         135.484  
       105.824          34.000          40.000  
 113383838.194 7  88351106.442 7  21576229.272    21576244.686       -1918.371  
     -1494.492          44.000          43.000  
 110061887.810 7  85762567.276 7  20944082.398    20944096.819       -1899.203  
     -1479.859          45.000          46.000  
 107496041.412 7  83763217.100 7  20455817.875    20455834.164         -46.723  
       -35.961          46.000          46.000  
 114636095.408 7  89326915.784 6  21814522.451    21814540.785        2741.949  
      2137.082          47.000          41.000  
 127731475.839 6  99531094.155 6  24306495.857    24306514.832       -3429.094  
     -2671.836          38.000          37.000  
 24  1 10  3 24 21.8000000  0  7G08G24G18G23G10G32G15
 128065459.060 6  99791351.611 6  24370058.422    24370078.923        2700.820  
      2104.676          37.000          38.000  
 127959483.992 5  99708782.371 6  24349878.967    24349900.914         136.090  
       106.055          34.000          40.000  
 113384029.990 7  88351255.890 7  21576265.761    21576281.018       -1918.105  
     -1494.559          44.000          43.000  
 110062077.635 7  85762715.148 7  20944118.802    20944132.908       -1898.250  
     -1479.375          45.000          46.000  
 107496045.979 7  83763220.646 7  20455819.291    20455835.093         -45.613  
       -35.859          46.000          46.000  
 114635821.178 7  89326702.105 6  21814470.274    21814488.525        2741.887  
      2136.582          47.000          41.000  
 127731818.692 6  99531361.324 6  24306561.178    24306579.929       -3428.062  
     -2671.438          38.000          37.000  
 24  1 10  3 24 21.9000000  0  7G08G24G18G23G10G32G15
 128065188.882 6  99791141.175 6  24370007.009    24370027.533        2702.164  
      2104.418          37.000          38.000  
 127959470.402 5  99708771.779 6  24349876.381    24349898.327         136.758  
       105.672          34.000          39.000  
 113384221.808 7  88351405.339 7  21576302.263    21576317.515       -1918.102  
     -1494.582          44.000          43.000  
 110062267.434 7  85762863.061 7  20944154.919    20944169.030       -1897.523  
     -1479.141          44.000          46.000  
 107496050.527 7  83763224.192 7  20455820.157    20455835.959         -45.242  
       -35.543          46.000          46.000  
 114635547.036 7  89326488.521 6  21814418.107    21814436.365        2741.270  
      2136.125          47.000          41.000  
 127732161.487 6  99531628.433 6  24306626.410    24306645.160       -3427.684  
     -2671.199          38.000          37.000  
 24  1 10  3 24 22.0000000  0  7G08G24G18G23G10G32G15
 128064918.681 6  99790930.610 6  24369955.467    24369976.259        2701.992  
      2105.359          37.000          38.000  
 127959456.861 5  99708761.211 6  24349873.679    24349895.473         135.098  
       105.891          33.000          39.000  
 113384413.598 7  88351554.832 7  21576339.088    21576353.937       -1918.027  
     -1495.004          44.000          43.000  
 110062457.260 7  85763010.957 7  20944190.565    20944204.929       -1898.488  
     -1478.824          44.000          46.000  
 107496055.088 7  83763227.767 7  20455821.118    20455836.558         -45.562  
       -35.590          46.000          46.000  
 114635272.947 7  89326274.925 6  21814366.106    21814384.383        2740.594  
      2135.789          47.000          41.000  
 127732504.216 6  99531895.578 6  24306691.777    24306710.173       -3427.160  
     -2671.500          39.000          37.000  
 24  1 10  3 24 22.1000000  0  7G08G24G18G23G10G32G15
 128064648.414 6  99790719.993 6  24369904.037    24369924.824        2703.012  
      2105.656          37.000          37.000  
 127959443.328 5  99708750.612 6  24349871.104    24349892.885         135.992  
       105.727          33.000          39.000  
 113384605.483 7  88351704.369 7  21576375.602    21576390.455       -1918.875  
     -1494.902          44.000          43.000  
 110062646.982 7  85763158.820 7  20944226.668    20944241.038       -1896.684  
     -1478.715          44.000          46.000  
 107496059.618 7  83763231.283 7  20455821.981    20455837.417         -45.316  
       -35.086          46.000          46.000  
 114634998.919 7  89326061.398 6  21814313.960    21814332.237        2740.238  
      2135.234          47.000          41.000  
 127732846.971 6  99532162.627 6  24306757.001    24306775.389       -3427.301  
     -2670.453          38.000          37.000  
 24  1 10  3 24 22.2000000  0  7G08G24G18G23G10G32G15
 128064378.093 6  99790509.371 6  24369852.815    24369873.443        2703.004  
      2106.520          37.000          37.000  
 127959429.717 5  99708740.040 6  24349868.295    24349890.264         134.180  
       105.891          32.000          39.000  
 113384797.335 7  88351853.814 7  21576412.181    21576426.850       -1918.605  
     -1494.820          44.000          43.000  
 110062836.675 7  85763306.643 7  20944262.336    20944277.701       -1896.648  
     -1478.238          44.000          46.000  
 107496064.064 7  83763234.725 7  20455821.889    20455837.828         -44.246  
       -34.770          45.000          46.000  
 114634724.900 7  89325847.891 6  21814261.699    21814280.409        2739.934  
      2135.020          47.000          41.000  
 127733189.596 6  99532429.601 6  24306822.247    24306840.774       -3426.285  
     -2670.184          38.000          37.000  
 24  1 10  3 24 22.3000000  0  7G08G24G18G23G10G32G15
 128064107.701 6  99790298.635 6  24369801.361    24369821.979        2704.164  
      2106.895          37.000          37.000  
 127959416.181 5  99708729.456 6  24349865.719    24349887.679         136.074  
       105.684          31.000          39.000  
 113384989.192 7  88352003.285 7  21576448.690    21576463.352       -1918.734  
     -1494.992          44.000          43.000  
 110063026.338 7  85763454.462 7  20944298.427    20944313.799       -1896.855  
     -1477.812          45.000          46.000  
 107496068.513 7  83763238.211 7  20455822.736    20455838.679         -44.293  
       -34.566          46.000          46.000  
 114634450.984 7  89325634.463 6  21814209.574    21814228.288        2738.727  
      2134.523          47.000          41.000  
 127733532.271 6  99532696.598 6  24306887.456    24306905.977       -3426.379  
     -2669.707          38.000          36.000  
 24  1 10  3 24 22.4000000  0  7G08G24G18G23G10G32G15
 128063837.208 6  99790087.849 6  24369750.240    24369770.675        2705.473  
      2107.883          37.000          37.000  
 127959402.641 5  99708718.965 6  24349862.799    24349884.828         134.227  
       105.242          31.000          39.000  
 113385181.128 7  88352152.889 7  21576485.183    21576499.504       -1919.516  
     -1495.805          45.000          43.000  
 110063216.022 7  85763602.195 7  20944335.289    20944350.034       -1897.129  
     -1477.695          45.000          45.000  
 107496072.930 7  83763241.675 7  20455823.443    20455840.299         -44.133  
       -34.641          46.000          46.000  
 114634177.116 7  89325421.040 7  21814157.404    21814176.386        2738.090  
      2133.676          47.000          42.000  
 127733874.879 6  99532963.625 6  24306952.527    24306970.501       -3426.543  
     -2670.273          39.000          36.000  
 24  1 10  3 24 22.5000000  0  7G08G24G18G23G10G32G15
 128063566.559 6  99789877.000 6  24369698.737    24369719.183        2706.570  
      2108.766          37.000          37.000  
 127959389.204 5  99708708.442 6  24349860.242    24349882.258         133.680  
       105.238          31.000          39.000  
 113385373.062 7  88352302.448 7  21576521.707    21576536.028       -1919.516  
     -1495.570          45.000          43.000  
 110063405.578 7  85763749.914 7  20944371.360    20944386.108       -1895.074  
     -1477.387          45.000          45.000  
 107496077.256 7  83763245.032 7  20455824.266    20455841.118         -43.008  
       -33.598          46.000          46.000  
 114633903.288 7  89325207.699 7  21814105.296    21814124.286        2738.105  
      2133.688          47.000          42.000  
 127734217.476 6  99533230.615 6  24307017.721    24307035.702       -3425.398  
     -2669.766          39.000          36.000  
 24  1 10  3 24 22.6000000  0  7G08G24G18G23G10G32G15
 128063295.809 6  99789665.988 6  24369647.066    24369667.465        2707.996  
      2109.879          38.000          37.000  
 127959375.770 5  99708698.022 6  24349857.850    24349879.463         134.945  
       104.250          31.000          39.000  
 113385565.052 7  88352452.070 7  21576557.913    21576572.435       -1920.047  
     -1496.356          44.000          42.000  
 110063595.163 7  85763897.630 7  20944407.632    20944421.838       -1895.551  
     -1476.871          45.000          45.000  
 107496081.508 7  83763248.335 7  20455825.333    20455842.339         -42.242  
       -33.070          47.000          46.000  
 114633629.530 7  89324994.375 7  21814053.343    21814072.362        2737.371  
      2133.242          47.000          42.000  
 127734560.095 6  99533497.574 6  24307083.318    24307100.779       -3426.121  
     -2669.543          39.000          36.000  
 24  1 10  3 24 22.7000000  0  7G08G24G18G23G10G32G15
 128063024.938 6  99789454.922 6  24369595.521    24369615.920        2708.816  
      2110.754          38.000          38.000  
 127959362.442 5  99708687.586 6  24349855.314    24349876.915         131.203  
       104.270          30.000          38.000  
 113385757.088 7  88352601.727 7  21576594.456    21576608.982       -1920.863  
     -1496.602          43.000          42.000  
 110063784.639 7  85764045.312 7  20944443.688    20944457.904       -1894.648  
     -1476.766          44.000          45.000  
 107496085.674 7  83763251.582 7  20455826.126    20455843.132         -41.305  
       -32.586          47.000          46.000  
 114633355.789 7  89324781.089 7  21814001.251    21814020.276        2737.270  
      2133.078          47.000          42.000  
 127734902.613 6  99533764.432 6  24307148.497    24307165.949       -3424.910  
     -2669.168          39.000          36.000  
 24  1 10  3 24 22.8000000  0  7G08G24G18G23G10G32G15
 128062753.926 6  99789243.737 6  24369543.864    24369564.120        2710.707  
      2111.613          39.000          38.000  
 127959349.160 4  99708677.206 6  24349852.778    24349874.200         133.805  
       103.613          29.000          38.000  
 113385949.239 7  88352751.445 7  21576630.607    21576645.357       -1922.324  
     -1497.164          42.000          42.000  
 110063974.093 7  85764192.931 7  20944479.607    20944494.102       -1894.453  
     -1476.266          44.000          45.000  
 107496089.764 8  83763254.777 7  20455827.717    20455843.412         -40.586  
       -31.848          48.000          45.000  
 114633082.103 7  89324567.810 7  21813949.413    21813968.160        2736.762  
      2132.578          47.000          42.000  
 127735245.148 6  99534031.369 6  24307213.875    24307231.028       -3425.695  
     -2669.090          39.000          36.000  
 24  1 10  3 24 22.9000000  0  7G08G24G18G23G10G32G15
 128062482.774 6  99789032.484 6  24369492.265    24369512.530        2711.941  
      2112.492          39.000          38.000  
 127959335.826 4  99708666.953 6  24349850.241    24349871.696         133.219  
       102.852          28.000          38.000  
 113386141.429 7  88352901.174 7  21576667.180    21576681.923       -1921.609  
     -1497.324          42.000          42.000  
 110064163.533 7  85764340.538 7  20944515.656    20944530.149       -1894.180  
     -1476.094          44.000          45.000  
 107496093.751 7  83763257.892 7  20455828.476    20455844.173         -39.434  
       -31.148          47.000          45.000  
 114632808.431 7  89324354.534 7  21813897.335    21813916.075        2736.574  
      2132.641          47.000          42.000  
 127735587.724 6  99534298.244 5  24307279.065    24307296.202       -3425.894  
     -2668.699          38.000          35.000  
 24  1 10  3 24 23.0000000  0  7G08G24G18G23G10G32G15
 128062211.531 6  99788821.104 6  24369440.477    24369460.940        2712.688  
      2113.590          38.000          38.000  
 127959322.674 4  99708656.690 6  24349847.957    24349869.479         131.238  
       102.465          29.000          38.000  
 113386333.699 7  88353051.021 7  21576703.729    21576718.634       -1922.969  
     -1498.457          42.000          42.000  
 110064352.963 7  85764488.175 7  20944551.266    20944565.891       -1894.539  
     -1476.172          44.000          45.000  
 107496097.734 7  83763261.005 7  20455829.288    20455844.496         -39.621  
       -30.918          47.000          45.000  
 114632534.824 7  89324141.331 7  21813845.105    21813863.829        2735.980  
      2132.230          47.000          42.000  
 127735930.238 6  99534565.152 5  24307344.243    24307361.751       -3425.016  
     -2668.949          38.000          35.000  
 24  1 10  3 24 23.1000000  0  7G08G24G18G23G10G32G15
 128061940.166 6  99788609.701 6  24369388.838    24369409.313        2713.984  
      2114.105          38.000          38.000  
 127959309.608 5  99708646.435 6  24349845.471    24349866.974         130.375  
       102.574          30.000          38.000  
 113386525.995 7  88353200.838 7  21576740.321    21576755.221       -1923.477  
     -1498.098          43.000          42.000  
 110064542.376 7  85764635.730 7  20944587.311    20944601.926       -1894.156  
     -1475.934          44.000          45.000  
 107496101.654 7  83763264.051 7  20455830.034    20455845.239         -38.949  
       -30.609          47.000          45.000  
 114632261.258 7  89323928.193 7  21813793.047    21813811.779        2735.211  
      2131.449          47.000          42.000  
 127736272.759 6  99534832.110 6  24307409.423    24307426.944       -3425.582  
     -2669.457          38.000          36.000  
 24  1 10  3 24 23.2000000  0  7G08G24G18G23G10G32G15
 128061668.714 6  99788398.176 6  24369337.120    24369358.031        2715.367  
      2115.430          38.000          38.000  
 127959296.516 5  99708636.260 6  24349843.143    24349864.669         130.797  
       101.902          30.000          38.000  
 113386718.345 7  88353350.739 7  21576777.471    21576792.250       -1923.742  
     -1499.125          43.000          42.000  
 110064731.772 7  85764783.299 7  20944623.430    20944638.292       -1893.785  
     -1475.785          45.000          45.000  
 107496105.557 7  83763267.075 7  20455830.371    20455845.783         -38.977  
       -30.219          47.000          45.000  
 114631987.716 7  89323715.030 7  21813740.861    21813759.972        2734.930  
      2131.469          47.000          42.000  
 127736615.291 6  99535099.004 5  24307474.675    24307492.169       -3425.394  
     -2669.070          38.000          35.000  
 24  1 10  3 24 23.3000000  0  7G08G24G18G23G10G32G15
 128061397.191 6  99788186.617 6  24369285.451    24369306.367        2714.973  
      2115.527          37.000          38.000  
 127959283.486 5  99708626.088 6  24349840.664    24349862.185         130.223  
       101.598          31.000          38.000  
 113386910.756 7  88353500.643 7  21576814.086    21576828.858       -1924.148  
     -1499.020          43.000          42.000  
 110064921.148 7  85764930.909 7  20944659.466    20944674.339       -1893.633  
     -1475.781          44.000          45.000  
 107496109.446 7  83763270.075 7  20455831.111    20455846.515         -38.961  
       -30.051          46.000          45.000  
 114631714.270 7  89323501.924 7  21813688.826    21813707.930        2734.562  
      2130.918          47.000          42.000  
 127736957.819 6  99535365.857 6  24307539.856    24307557.338       -3424.945  
     -2668.543          38.000          36.000  
 24  1 10  3 24 23.4000000  0  7G08G24G18G23G10G32G15
 128061125.730 6  99787975.014 6  24369233.911    24369254.839        2715.543  
      2115.809          37.000          38.000  
 127959270.502 5  99708615.989 6  24349838.248    24349859.789         129.500  
       101.125          33.000          38.000  
 113387103.239 7  88353650.622 7  21576850.198    21576865.602       -1925.254  
     -1499.656          43.000          42.000  
 110065110.609 7  85765078.523 7  20944695.168    20944710.419       -1895.109  
     -1476.168          44.000          45.000  
 107496113.348 7  83763273.139 7  20455831.447    20455847.537         -39.184  
       -30.641          47.000          45.000  
 114631440.884 7  89323288.926 7  21813637.365    21813655.859        2733.648  
      2130.086          47.000          42.000  
 127737300.352 6  99535632.778 6  24307604.928    24307622.944       -3425.524  
     -2669.258          38.000          36.000  
 24  1 10  3 24 23.5000000  0  7G08G24G18G23G10G32G15
 128060854.203 6  99787763.506 6  24369182.241    24369203.187        2715.133  
      2115.402          36.000          38.000  
 127959257.552 5  99708605.883 6  24349835.783    24349857.321         129.559  
       101.258          34.000          39.000  
 113387295.724 7  88353800.614 7  21576886.827    21576902.231       -1925.031  
     -1500.082          44.000          43.000  
 110065300.026 7  85765226.108 7  20944731.213    20944746.461       -1894.012  
     -1475.973          44.000          45.000  
 107496117.258 7  83763276.194 7  20455832.191    20455848.283         -39.008  
       -30.566          47.000          45.000  
 114631167.547 7  89323075.918 7  21813585.351    21813603.840        2733.328  
      2129.840          47.000          42.000  
 127737642.901 6  99535899.678 6  24307670.113    24307688.124       -3425.500  
     -2668.871          38.000          36.000  
 24  1 10  3 24 23.6000000  0  7G08G24G18G23G10G32G15
 128060582.663 6  99787551.896 6  24369130.663    24369151.892        2715.688  
      2116.176          36.000          38.000  
 127959244.521 5  99708595.737 6  24349833.593    24349854.844         130.105  
       101.375          34.000          39.000  
 113387488.164 7  88353950.573 7  21576923.455    21576939.353       -1924.312  
     -1499.535          44.000          43.000  
 110065489.426 7  85765373.691 7  20944767.411    20944782.167       -1893.926  
     -1475.695          43.000          45.000  
 107496121.137 8  83763279.211 7  20455833.515    20455848.934         -38.617  
       -30.121          48.000          46.000  
 114630894.190 7  89322862.933 7  21813533.059    21813551.756        2733.816  
      2129.891          47.000          42.000  
 127737985.408 6  99536166.567 6  24307735.204    24307753.309       -3424.394  
     -2668.660          37.000          36.000  
 24  1 10  3 24 23.7000000  0  7G08G24G18G23G10G32G15
 128060311.032 5  99787340.260 6  24369078.973    24369100.209        2715.676  
      2116.031          35.000          38.000  
 127959231.434 5  99708585.587 6  24349831.102    24349852.365         131.090  
       101.379          34.000          39.000  
 113387680.614 7  88354100.523 7  21576960.077    21576975.972       -1924.461  
     -1499.418          45.000          43.000  
 110065678.800 7  85765521.238 7  20944803.448    20944818.199       -1893.562  
     -1475.613          44.000          45.000  
 107496125.025 8  83763282.229 7  20455834.255    20455849.671         -38.891  
       -30.145          48.000          46.000  
 114630620.821 7  89322649.932 7  21813481.039    21813499.739        2733.777  
      2130.230          46.000          42.000  
 127738327.809 6  99536433.407 6  24307800.361    24307818.474       -3424.106  
     -2668.531          38.000          36.000  
 24  1 10  3 24 23.8000000  0  7G08G24G18G23G10G32G15
 128060039.541 5  99787128.686 6  24369027.396    24369048.368        2714.996  
      2115.844          34.000          38.000  
 127959218.433 5  99708575.453 6  24349828.441    24349850.039         129.754  
       101.301          35.000          39.000  
 113387873.106 7  88354250.480 7  21576996.996    21577012.609       -1925.000  
     -1499.645          45.000          44.000  
 110065868.216 7  85765668.856 7  20944839.703    20944853.804       -1894.457  
     -1476.227          44.000          45.000  
 107496128.951 8  83763285.290 7  20455835.526    20455851.028         -39.547  
       -30.855          48.000          46.000  
 114630347.503 7  89322436.978 7  21813428.755    21813447.929        2732.934  
      2129.738          46.000          42.000  
 127738670.319 6  99536700.279 6  24307865.444    24307882.975       -3425.012  
     -2669.047          37.000          36.000  
 24  1 10  3 24 23.9000000  0  7G08G24G18G23G10G32G15
 128059768.084 5  99786917.145 6  24368975.739    24368996.708        2714.660  
      2115.590          33.000          37.000  
 127959205.436 5  99708565.310 6  24349825.968    24349847.561         129.652  
       101.270          35.000          40.000  
 113388065.578 7  88354400.483 7  21577033.622    21577049.241       -1924.785  
     -1499.977          45.000          44.000  
 110066057.692 7  85765816.495 7  20944875.759    20944889.858       -1895.055  
     -1476.449          43.000          45.000  
 107496132.978 8  83763288.424 7  20455836.292    20455851.793         -40.613  
       -31.059          48.000          46.000  
 114630074.176 7  89322223.968 7  21813376.742    21813395.910        2733.371  
      2129.844          46.000          42.000  
 127739012.829 6  99536967.165 6  24307930.622    24307948.151       -3425.375  
     -2668.477          37.000          36.000  
 24  1 10  3 24 24.0000000  0  7G08G24G18G23G10G32G15
 128059496.720 5  99786705.662 6  24368923.975    24368944.804        2713.984  
      2114.660          33.000          37.000  
 127959192.443 6  99708555.143 6  24349823.620    24349845.289         130.316  
       101.516          36.000          39.000  
 113388258.006 7  88354550.442 7  21577070.013    21577085.871       -1924.254  
     -1499.793          45.000          44.000  
 110066247.154 7  85765964.105 7  20944911.696    20944925.977       -1894.895  
     -1476.305          43.000          45.000  
 107496136.980 8  83763291.530 7  20455836.460    20455852.419         -40.219  
       -31.410          48.000          45.000  
 114629800.815 7  89322010.980 7  21813324.379    21813343.881        2733.656  
      2129.926          46.000          42.000  
 127739355.308 6  99537234.058 6  24307995.989    24308012.985       -3424.984  
     -2669.125          36.000          36.000  
 24  1 10  3 24 24.1000000  0  7G08G24G18G23G10G32G15
 128059225.338 5  99786494.229 6  24368872.333    24368893.170        2713.609  
      2114.777          32.000          36.000  
 127959179.369 6  99708544.959 6  24349821.132    24349842.802         130.676  
       101.918          36.000          39.000  
 113388450.409 7  88354700.397 7  21577106.627    21577122.491       -1923.996  
     -1499.148          45.000          44.000  
 110066436.613 7  85766111.759 7  20944947.748    20944962.035       -1894.379  
     -1476.309          42.000          45.000  
 107496141.002 8  83763294.679 7  20455837.225    20455853.188         -40.281  
       -31.383          48.000          45.000  
 114629527.411 7  89321797.946 7  21813272.352    21813291.855        2734.090  
      2130.375          45.000          42.000  
 127739697.789 6  99537500.987 5  24308061.161    24308078.172       -3424.582  
     -2668.941          36.000          35.000  
 24  1 10  3 24 24.2000000  0  7G08G24G18G23G10G32G15
 128058954.134 5  99786282.890 6  24368820.670    24368841.262        2712.824  
      2113.379          32.000          36.000  
 127959166.254 6  99708534.749 6  24349818.777    24349840.239         130.730  
       101.973          36.000          40.000  
 113388642.828 7  88354850.277 7  21577143.680    21577158.828       -1924.191  
     -1498.988          45.000          45.000  
 110066626.125 7  85766259.416 7  20944983.421    20944998.704       -1895.094  
     -1476.672          43.000          45.000  
 107496145.092 7  83763297.891 7  20455838.050    20455853.418         -40.840  
       -32.031          47.000          45.000  
 114629253.993 7  89321584.895 7  21813219.862    21813239.686        2734.219  
      2130.809          45.000          42.000  
 127740040.365 6  99537767.841 6  24308126.726    24308143.294       -3425.602  
     -2668.879          37.000          36.000  
 24  1 10  3 24 24.3000000  0  7G08G24G18G23G10G32G15
 128058682.981 5  99786071.617 6  24368769.071    24368789.667        2711.738  
      2112.957          32.000          36.000  
 127959153.181 6  99708524.611 6  24349816.289    24349837.763         130.785  
       101.539          36.000          39.000  
 113388835.246 7  88355000.187 7  21577180.296    21577195.437       -1924.023  
     -1499.070          45.000          45.000  
 110066815.707 7  85766407.146 7  20945019.497    20945034.781       -1895.766  
     -1477.316          43.000          45.000  
 107496149.241 7  83763301.137 7  20455838.840    20455854.210         -41.344  
       -32.359          47.000          45.000  
 114628980.522 7  89321371.763 7  21813167.822    21813187.637        2734.723  
      2131.098          45.000          43.000  
 127740382.925 6  99538034.830 6  24308191.913    24308208.495       -3425.609  
     -2669.637          37.000          36.000  
 24  1 10  3 24 24.4000000  0  7G08G24G18G23G10G32G15
 128058411.844 5  99785860.354 6  24368717.710    24368738.215        2710.875  
      2112.520          31.000          36.000  
 127959140.099 6  99708514.413 6  24349813.925    24349835.437         130.750  
       101.840          36.000          39.000  
 113389027.570 7  88355150.074 7  21577217.144    21577232.205       -1923.461  
     -1499.297          45.000          45.000  
 110067005.320 7  85766554.846 7  20945055.767    20945070.750       -1896.387  
     -1477.520          42.000          44.000  
 107496153.447 7  83763304.353 7  20455839.140    20455855.386         -42.246  
       -32.426          46.000          45.000  
 114628707.010 7  89321158.653 7  21813115.556    21813135.413        2735.035  
      2131.289          45.000          43.000  
 127740725.612 6  99538301.859 5  24308257.132    24308274.699       -3426.781  
     -2670.277          36.000          35.000  
 24  1 10  3 24 24.5000000  0  7G08G24G18G23G10G32G15
 128058140.839 5  99785649.146 6  24368666.139    24368686.635        2710.020  
      2111.906          31.000          36.000  
 127959127.038 6  99708504.226 6  24349811.440    24349832.949         130.543  
       101.770          36.000          39.000  
 113389219.960 7  88355300.034 7  21577253.755    21577268.827       -1923.504  
     -1498.910          46.000          44.000  
 110067194.948 7  85766702.663 7  20945091.852    20945106.848       -1896.410  
     -1477.699          42.000          44.000  
 107496157.641 7  83763307.605 7  20455839.938    20455856.180         -42.023  
       -32.766          46.000          45.000  
 114628433.419 7  89320945.462 7  21813063.493    21813083.350        2736.094  
      2131.930          45.000          43.000  
 127741068.335 5  99538568.919 5  24308322.350    24308339.917       -3426.938  
     -2670.312          35.000          35.000  
 24  1 10  3 24 24.6000000  0  7G08G24G18G23G10G32G15
 128057869.897 5  99785438.036 5  24368614.511    24368635.237        2709.410  
      2111.285          31.000          35.000  
 127959113.939 5  99708494.042 6  24349808.783    24349830.141         131.035  
       102.027          35.000          39.000  
 113389412.272 7  88355449.844 7  21577290.546    21577305.420       -1923.504  
     -1498.629          45.000          44.000  
 110067384.627 7  85766850.457 7  20945127.681    20945142.605       -1896.648  
     -1478.086          42.000          44.000  
 107496161.899 7  83763310.982 7  20455840.467    20455857.552         -42.312  
       -33.195          46.000          45.000  
 114628159.757 7  89320732.245 7  21813012.050    21813031.405        2736.742  
      2132.297          46.000          43.000  
 127741411.082 5  99538835.932 5  24308387.416    24308405.133       -3427.168  
     -2670.395          35.000          35.000  
 24  1 10  3 24 24.7000000  0  7G08G24G18G23G10G32G15
 128057599.061 5  99785226.995 6  24368562.972    24368583.698        2708.656  
      2110.320          31.000          36.000  
 127959100.851 5  99708483.845 6  24349806.292    24349827.651         131.082  
       101.816          35.000          39.000  
 113389604.576 7  88355599.714 7  21577327.140    21577342.020       -1922.930  
     -1498.590          45.000          44.000  
 110067574.359 7  85766998.306 7  20945163.785    20945178.711       -1897.223  
     -1478.231          43.000          44.000  
 107496166.184 7  83763314.294 7  20455841.283    20455858.361         -42.945  
       -33.391          47.000          44.000  
 114627886.070 7  89320518.979 7  21812959.969    21812979.323        2736.895  
      2132.742          46.000          43.000  
 127741753.822 6  99539103.038 6  24308452.637    24308470.363       -3427.609  
     -2670.672          36.000          36.000  
 24  1 10  3 24 24.8000000  0  7G08G24G18G23G10G32G15
 128057328.312 5  99785016.045 6  24368511.341    24368532.432        2707.141  
      2109.961          31.000          36.000  
 127959087.809 5  99708473.680 6  24349803.803    24349825.192         130.520  
       101.641          35.000          39.000  
 113389796.885 7  88355749.552 7  21577363.079    21577378.604       -1923.102  
     -1498.418          45.000          44.000  
 110067764.144 7  85767146.175 7  20945200.189    20945215.400       -1897.801  
     -1478.785          43.000          44.000  
 107496170.514 7  83763317.674 7  20455842.458    20455858.780         -43.332  
       -33.887          47.000          44.000  
 114627612.313 7  89320305.646 7  21812908.992    21812926.819        2737.473  
      2133.090          46.000          43.000  
 127742096.608 6  99539370.226 6  24308517.985    24308535.683       -3427.984  
     -2671.707          36.000          36.000  
 24  1 10  3 24 24.9000000  0  7G08G24G18G23G10G32G15
 128057057.653 5  99784805.086 5  24368459.836    24368480.914        2706.750  
      2109.172          31.000          35.000  
 127959074.775 5  99708463.479 6  24349801.323    24349822.701         130.082  
       102.113          35.000          39.000  
 113389989.172 7  88355899.385 7  21577399.670    21577415.195       -1922.840  
     -1498.520          45.000          45.000  
 110067953.917 7  85767294.064 7  20945236.302    20945251.516       -1897.941  
     -1479.078          43.000          44.000  
 107496174.890 7  83763321.096 7  20455843.291    20455859.616         -43.844  
       -34.086          47.000          44.000  
 114627338.524 7  89320092.316 7  21812856.892    21812874.722        2737.945  
      2133.273          46.000          43.000  
 127742439.491 6  99539637.376 6  24308583.233    24308600.924       -3428.856  
     -2671.633          36.000          36.000  
 24  1 10  3 24 25.0000000  0  7G08G24G18G23G10G32G15
 128056787.027 5  99784594.259 6  24368408.557    24368429.357        2706.305  
      2108.535          31.000          36.000  
 127959061.723 5  99708453.329 6  24349798.862    24349820.332         130.504  
       101.406          35.000          39.000  
 113390181.510 7  88356049.279 7  21577435.896    21577451.855       -1923.441  
     -1498.805          45.000          44.000  
 110068143.809 7  85767442.065 7  20945272.961    20945287.480       -1898.801  
     -1479.770          43.000          44.000  
 107496179.347 7  83763324.559 7  20455844.116    20455859.860         -44.547  
       -34.668          47.000          44.000  
 114627064.719 7  89319878.984 7  21812805.022    21812822.327        2737.902  
      2133.441          47.000          43.000  
 127742782.441 6  99539904.616 6  24308648.510    24308666.429       -3429.566  
     -2672.090          36.000          36.000  
 24  1 10  3 24 25.1000000  0  7G08G24G18G23G10G32G15
 128056516.467 5  99784383.446 6  24368357.071    24368377.875        2705.277  
      2107.758          32.000          36.000  
 127959048.709 5  99708443.197 6  24349796.386    24349817.857         130.418  
       101.527          35.000          39.000  
 113390373.847 7  88356199.164 7  21577472.496    21577488.458       -1923.188  
     -1498.602          45.000          44.000  
 110068333.744 7  85767590.056 7  20945309.104    20945323.621       -1899.418  
     -1480.109          43.000          44.000  
 107496183.839 7  83763328.063 7  20455844.971    20455860.716         -45.051  
       -35.012          47.000          44.000  
 114626790.916 7  89319665.633 7  21812752.919    21812770.224        2738.059  
      2133.453          46.000          42.000  
 127743125.433 5  99540171.874 5  24308713.779    24308731.696       -3429.590  
     -2672.770          35.000          35.000  
 24  1 10  3 24 25.2000000  0  7G08G24G18G23G10G32G15
 128056246.049 5  99784172.675 6  24368305.362    24368325.933        2704.430  
      2107.840          32.000          36.000  
 127959035.676 6  99708433.081 6  24349794.577    24349814.918         130.129  
       101.047          36.000          39.000  
 113390566.216 7  88356349.017 7  21577509.212    21577525.070       -1923.984  
     -1499.133          45.000          44.000  
 110068523.771 7  85767738.072 7  20945345.171    20945359.948       -1900.270  
     -1480.504          43.000          45.000  
 107496188.441 7  83763331.647 7  20455845.948    20455861.833         -45.977  
       -35.836          47.000          44.000  
 114626517.169 7  89319452.260 7  21812700.343    21812717.788        2737.406  
      2133.418          46.000          42.000  
 127743468.445 5  99540439.158 5  24308778.771    24308797.024       -3430.644  
     -2672.996          35.000          35.000  
 24  1 10  3 24 25.3000000  0  7G08G24G18G23G10G32G15
 128055975.584 5  99783961.950 6  24368253.894    24368274.472        2704.543  
      2107.305          32.000          36.000  
 127959022.710 6  99708422.964 6  24349792.110    24349812.448         129.953  
       101.344          36.000          39.000  
 113390758.628 7  88356498.960 7  21577545.827    21577561.687       -1923.914  
     -1499.270          45.000          44.000  
 110068713.868 7  85767886.287 7  20945381.346    20945396.143       -1900.953  
     -1481.625          43.000          45.000  
 107496193.072 7  83763335.240 7  20455846.829    20455862.710         -46.398  
       -36.172          47.000          45.000  
 114626243.354 7  89319238.933 7  21812648.237    21812665.692        2738.145  
      2133.582          46.000          42.000  
 127743811.605 5  99540706.453 5  24308844.072    24308862.300       -3430.992  
     -2673.098          34.000          35.000  
 24  1 10  3 24 25.4000000  0  7G08G24G18G23G10G32G15
 128055705.270 5  99783751.294 6  24368202.299    24368222.801        2702.453  
      2106.492          32.000          36.000  
 127959009.710 6  99708412.786 6  24349789.652    24349809.751         130.199  
       101.738          36.000          40.000  
 113390951.054 7  88356648.930 7  21577582.687    21577598.679       -1924.758  
     -1499.504          45.000          44.000  
 110068904.001 7  85768034.392 7  20945417.245    20945432.218       -1901.754  
     -1481.207          43.000          45.000  
 107496197.839 7  83763338.978 7  20455847.416    20455864.053         -48.109  
       -36.914          47.000          44.000  
 114625969.590 7  89319025.597 7  21812595.783    21812613.695        2737.254  
      2133.262          46.000          42.000  
 127744154.639 5  99540973.831 6  24308908.943    24308927.698       -3431.070  
     -2673.457          35.000          36.000  
 24  1 10  3 24 25.5000000  0  7G08G24G18G23G10G32G15
 128055434.960 5  99783540.692 6  24368150.861    24368171.370        2703.477  
      2106.305          32.000          36.000  
 127958996.735 6  99708402.668 6  24349787.183    24349807.280         129.469  
       101.254          36.000          40.000  
 113391143.488 7  88356798.848 7  21577619.306    21577635.290       -1924.484  
     -1499.469          45.000          44.000  
 110069094.164 7  85768182.539 7  20945453.432    20945468.397       -1901.598  
     -1482.145          42.000          45.000  
 107496202.531 8  83763342.621 7  20455848.309    20455864.943         -46.750  
       -37.066          48.000          45.000  
 114625695.812 7  89318812.265 7  21812543.684    21812561.597        2737.793  
      2133.195          46.000          42.000  
 127744497.771 5  99541241.167 6  24308974.239    24308992.984       -3431.234  
     -2673.723          35.000          36.000  
 24  1 10  3 24 25.6000000  0  7G08G24G18G23G10G32G15
 128055164.661 5  99783330.055 6  24368099.393    24368119.782        2702.242  
      2106.270          32.000          36.000  
 127958983.740 5  99708392.570 6  24349784.577    24349805.392         129.996  
       101.035          35.000          40.000  
 113391335.945 7  88356948.824 7  21577656.046    21577671.705       -1924.379  
     -1499.617          45.000          44.000  
 110069284.353 7  85768330.806 7  20945489.538    20945504.270       -1901.859  
     -1482.023          43.000          44.000  
 107496207.380 7  83763346.397 7  20455849.403    20455865.615         -48.793  
       -37.383          47.000          45.000  
 114625422.065 7  89318598.940 7  21812491.194    21812509.665        2737.648  
      2133.344          46.000          42.000  
 127744840.868 6  99541508.493 6  24309039.715    24309058.542       -3431.453  
     -2673.082          36.000          36.000  
 24  1 10  3 24 25.7000000  0  7G08G24G18G23G10G32G15
 128054894.501 5  99783119.511 6  24368047.983    24368068.365        2702.359  
      2105.672          33.000          36.000  
 127958970.794 5  99708382.464 6  24349782.114    24349802.924         129.078  
       101.086          35.000          40.000  
 113391528.416 7  88357098.802 7  21577692.672    21577708.331       -1925.211  
     -1499.879          45.000          44.000  
 110069474.625 7  85768479.076 7  20945525.746    20945540.479       -1903.348  
     -1482.453          43.000          45.000  
 107496212.277 7  83763350.211 7  20455850.335    20455866.546         -49.590  
       -38.004          47.000          45.000  
 114625148.338 7  89318385.670 7  21812439.105    21812457.582        2737.016  
      2132.727          46.000          42.000  
 127745183.952 6  99541775.854 6  24309105.002    24309123.834       -3430.844  
     -2673.508          37.000          36.000  
 24  1 10  3 24 25.8000000  0  7G08G24G18G23G10G32G15
 128054624.240 5  99782908.907 6  24367996.609    24368017.394        2702.316  
      2105.863          33.000          37.000  
 127958957.794 5  99708372.358 6  24349779.069    24349800.324         130.066  
       101.070          35.000          40.000  
 113391720.901 7  88357248.780 7  21577729.223    21577744.543       -1924.762  
     -1499.856          45.000          44.000  
 110069664.881 7  85768627.298 7  20945561.974    20945576.676       -1902.621  
     -1482.777          43.000          45.000  
 107496217.178 7  83763354.042 7  20455851.065    20455866.982         -48.922  
       -38.137          47.000          45.000  
 114624874.582 7  89318172.358 7  21812386.925    21812405.794        2737.383  
      2132.992          46.000          42.000  
 127745527.123 6  99542043.359 6  24309170.173    24309189.505       -3431.473  
     -2674.793          37.000          36.000  
 24  1 10  3 24 25.9000000  0  7G08G24G18G23G10G32G15
 128054354.067 5  99782698.437 6  24367945.197    24367965.995        2701.758  
      2104.898          33.000          37.000  
 127958944.796 6  99708362.260 6  24349776.596    24349797.857         129.867  
       100.973          36.000          40.000  
 113391913.389 7  88357398.766 7  21577765.852    21577781.171       -1925.117  
     -1500.102          45.000          44.000  
 110069855.160 7  85768775.560 7  20945598.182    20945612.883       -1902.871  
     -1483.066          43.000          45.000  
 107496222.075 8  83763357.836 7  20455851.997    20455867.908         -49.207  
       -38.672          48.000          45.000  
 114624600.891 7  89317959.058 7  21812334.844    21812353.704        2736.844  
      2132.598          46.000          42.000  
 127745870.379 6  99542310.720 6  24309235.492    24309254.797       -3432.484  
     -2673.516          36.000          36.000  
 24  1 10  3 24 26.0000000  0  7G08G24G18G23G10G32G15
 128054083.908 5  99782487.933 6  24367893.592    24367915.151        2701.668  
      2104.945          33.000          37.000  
 127958931.872 5  99708352.108 6  24349773.785    24349795.644         129.590  
       101.430          35.000          40.000  
 113392105.868 7  88357548.761 7  21577802.534    21577817.856       -1924.727  
     -1499.691          45.000          44.000  
 110070045.527 7  85768923.911 7  20945634.393    20945649.096       -1903.438  
     -1482.379          43.000          45.000  
 107496227.008 8  83763361.708 7  20455853.123    20455868.877         -49.156  
       -38.391          48.000          45.000  
 114624327.183 7  89317745.843 6  21812283.399    21812301.814        2737.273  
      2132.805          46.000          41.000  
 127746213.492 6  99542578.052 6  24309300.347    24309319.606       -3431.359  
     -2673.289          37.000          36.000  
 24  1 10  3 24 26.1000000  0  7G08G24G18G23G10G32G15
 128053813.694 5  99782277.359 6  24367842.172    24367863.726        2701.883  
      2105.918          33.000          37.000  
 127958918.830 5  99708341.959 6  24349771.303    24349793.165         129.969  
       101.441          35.000          40.000  
 113392298.316 7  88357698.737 7  21577839.156    21577854.482       -1924.281  
     -1499.492          45.000          44.000  
 110070235.718 7  85769072.103 7  20945670.585    20945685.286       -1902.062  
     -1482.609          43.000          45.000  
 107496231.903 8  83763365.492 7  20455854.054    20455869.801         -48.699  
       -37.887          48.000          45.000  
 114624053.433 7  89317532.469 7  21812231.306    21812249.706        2737.504  
      2133.133          46.000          42.000  
 127746556.465 6  99542845.427 6  24309365.612    24309384.902       -3430.012  
     -2674.160          38.000          36.000  
 24  1 10  3 24 26.2000000  0  7G08G24G18G23G10G32G15
 128053543.474 5  99782066.851 6  24367790.876    24367812.717        2702.027  
      2104.742          33.000          37.000  
 127958905.812 5  99708331.823 6  24349769.029    24349790.807         130.289  
       101.289          35.000          40.000  
 113392490.743 7  88357848.641 7  21577875.477    21577891.481       -1924.504  
     -1499.293          45.000          44.000  
 110070425.958 7  85769220.340 7  20945707.153    20945721.511       -1902.480  
     -1482.188          43.000          45.000  
 107496236.815 8  83763369.311 7  20455855.137    20455871.211         -49.059  
       -38.055          48.000          45.000  
 114623779.722 7  89317319.229 7  21812178.955    21812197.709        2737.383  
      2132.875          46.000          42.000  
 127746899.661 6  99543112.802 6  24309431.374    24309450.174       -3431.473  
     -2673.422          37.000          36.000  
 24  1 10  3 24 26.3000000  0  7G08G24G18G23G10G32G15
 128053273.370 5  99781856.311 6  24367739.477    24367761.300        2701.590  
      2105.414          34.000          37.000  
 127958892.728 6  99708321.675 6  24349766.539    24349788.329         130.473  
       101.426          36.000          40.000  
 113392683.206 7  88357998.664 7  21577912.101    21577928.118       -1924.574  
     -1500.047          45.000          44.000  
 110070616.274 7  85769368.646 7  20945743.369    20945757.729       -1902.738  
     -1482.750          43.000          45.000  
 107496241.768 7  83763373.206 7  20455856.080    20455872.162         -49.270  
       -38.680          47.000          45.000  
 114623506.002 7  89317105.929 7  21812126.868    21812145.619        2737.188  
      2133.086          47.000          42.000  
 127747242.802 6  99543380.171 6  24309496.671    24309515.468       -3431.324  
     -2673.688          37.000          36.000  
 24  1 10  3 24 26.4000000  0  7G08G24G18G23G10G32G15
 128053003.189 5  99781645.805 6  24367688.430    24367709.463        2701.625  
      2104.840          34.000          37.000  
 127958879.788 5  99708311.568 6  24349763.921    24349786.275         129.699  
       101.445          35.000          39.000  
 113392875.709 7  88358148.629 7  21577948.663    21577964.733       -1924.879  
     -1499.902          45.000          44.000  
 110070806.555 7  85769516.929 7  20945779.914    20945794.300       -1902.766  
     -1482.922          43.000          45.000  
 107496246.724 8  83763377.049 7  20455857.125    20455872.811         -49.500  
       -38.664          48.000          45.000  
 114623232.324 7  89316892.686 7  21812075.015    21812093.402        2736.914  
      2132.188          47.000          42.000  
 127747585.947 6  99543647.531 6  24309561.868    24309580.627       -3431.305  
     -2673.426          37.000          36.000  
 24  1 10  3 24 26.5000000  0  7G08G24G18G23G10G32G15
 128052733.073 5  99781435.356 6  24367637.029    24367658.070        2701.371  
      2104.898          34.000          38.000  
 127958866.881 5  99708301.446 6  24349761.465    24349783.803         129.629  
       101.195          34.000          39.000  
 113393068.199 7  88358298.655 7  21577985.292    21578001.371       -1924.801  
     -1499.992          45.000          44.000  
 110070996.846 7  85769665.179 7  20945816.125    20945830.504       -1902.980  
     -1483.043          44.000          45.000  
 107496251.721 7  83763380.948 7  20455858.075    20455873.764         -49.766  
       -39.023          47.000          45.000  
 114622958.675 7  89316679.432 7  21812022.942    21812041.323        2736.590  
      2132.473          47.000          42.000  
 127747929.088 6  99543914.890 6  24309627.165    24309645.919       -3431.387  
     -2673.875          36.000          36.000  
 24  1 10  3 24 26.6000000  0  7G08G24G18G23G10G32G15
 128052462.940 5  99781224.843 6  24367585.898    24367606.519        2701.391  
      2105.035          33.000          38.000  
 127958853.836 5  99708291.338 6  24349758.756    24349781.584         130.074  
       101.023          34.000          39.000  
 113393260.677 7  88358448.616 7  21578021.967    21578037.930       -1924.871  
     -1499.957          45.000          44.000  
 110071187.135 7  85769813.475 7  20945852.360    20945866.532       -1903.043  
     -1482.652          43.000          44.000  
 107496256.671 8  83763384.810 7  20455858.861    20455874.808         -49.641  
       -38.754          48.000          45.000  
 114622685.005 7  89316466.182 7  21811970.802    21811989.362        2736.785  
      2132.391          47.000          42.000  
 127748272.183 6  99544182.304 6  24309692.274    24309711.146       -3431.117  
     -2673.926          37.000          36.000  
 24  1 10  3 24 26.7000000  0  7G08G24G18G23G10G32G15
 128052192.783 5  99781014.322 6  24367534.489    24367555.108        2701.445  
      2104.941          33.000          38.000  
 127958840.783 5  99708281.256 6  24349756.272    24349779.122         129.961  
       100.871          35.000          39.000  
 113393453.231 7  88358598.618 7  21578058.608    21578074.562       -1925.246  
     -1500.348          45.000          44.000  
 110071377.498 7  85769961.818 7  20945888.585    20945902.759       -1903.195  
     -1483.281          43.000          44.000  
 107496261.706 7  83763388.745 7  20455859.819    20455875.769         -50.000  
       -39.137          47.000          45.000  
 114622411.380 7  89316252.967 7  21811918.732    21811937.293        2736.332  
      2132.008          47.000          42.000  
 127748615.340 6  99544449.684 6  24309757.575    24309776.443       -3431.476  
     -2673.953          37.000          36.000  
 24  1 10  3 24 26.8000000  0  7G08G24G18G23G10G32G15
 128051922.692 5  99780803.895 6  24367483.170    24367503.860        2701.160  
      2104.523          34.000          38.000  
 127958827.959 5  99708271.132 6  24349753.949    24349776.470         129.457  
       100.910          34.000          39.000  
 113393645.767 7  88358748.689 7  21578095.419    21578111.266       -1925.305  
     -1499.969          45.000          44.000  
 110071567.829 7  85770110.104 7  20945924.811    20945938.863       -1903.258  
     -1483.074          43.000          44.000  
 107496266.724 8  83763392.641 7  20455860.571    20455876.549         -50.121  
       -39.125          48.000          45.000  
 114622137.784 7  89316039.785 7  21811866.458    21811885.216        2736.188  
      2131.828          47.000          42.000  
 127748958.475 6  99544717.035 6  24309823.246    24309841.319       -3431.402  
     -2673.645          37.000          36.000  
 24  1 10  3 24 26.9000000  0  7G08G24G18G23G10G32G15
 128051652.577 5  99780593.415 6  24367431.769    24367452.459        2701.207  
      2104.684          34.000          37.000  
 127958814.940 5  99708261.002 6  24349751.471    24349773.996         129.848  
       101.273          34.000          39.000  
 113393838.315 7  88358898.723 7  21578132.059    21578147.906       -1925.352  
     -1500.574          45.000          44.000  
 110071758.176 7  85770258.444 7  20945961.033    20945975.089       -1903.348  
     -1483.402          44.000          44.000  
 107496271.781 8  83763396.564 7  20455861.533    20455877.507         -50.215  
       -39.402          48.000          45.000  
 114621864.210 7  89315826.619 7  21811814.399    21811833.159        2735.988  
      2131.801          46.000          42.000  
 127749301.681 6  99544984.397 6  24309888.556    24309906.612       -3431.668  
     -2673.477          37.000          36.000  
 24  1 10  3 24 27.0000000  0  7G08G24G18G23G10G32G15
 128051382.474 5  99780382.945 6  24367380.237    24367400.880        2701.020  
      2104.734          34.000          37.000  
 127958801.954 5  99708250.919 6  24349749.055    24349771.401         129.648  
       100.863          35.000          39.000  
 113394030.854 7  88359048.751 7  21578168.527    21578184.216       -1925.508  
     -1500.414          45.000          44.000  
 110071948.527 7  85770406.765 7  20945997.662    20946011.396       -1903.566  
     -1483.227          43.000          45.000  
 107496276.796 8  83763400.483 7  20455862.597    20455878.565         -50.312  
       -39.066          48.000          45.000  
 114621590.594 7  89315613.409 7  21811762.167    21811780.747        2736.059  
      2132.000          46.000          42.000  
 127749644.775 6  99545251.836 6  24309953.548    24309971.931       -3431.207  
     -2674.180          37.000          36.000  
 24  1 10  3 24 27.1000000  0  7G08G24G18G23G10G32G15
 128051112.399 5  99780172.430 6  24367328.844    24367349.470        2701.016  
      2104.781          33.000          37.000  
 127958789.019 5  99708240.802 6  24349746.593    24349768.930         129.699  
       100.980          34.000          39.000  
 113394223.400 7  88359198.783 7  21578205.167    21578220.855       -1925.332  
     -1500.340          45.000          44.000  
 110072138.863 7  85770555.087 7  20946033.882    20946047.618       -1903.414  
     -1483.160          43.000          44.000  
 107496281.829 8  83763404.421 7  20455863.555    20455879.527         -50.133  
       -39.262          48.000          45.000  
 114621316.994 7  89315400.204 7  21811710.103    21811728.680        2736.059  
      2132.137          46.000          42.000  
 127749987.914 6  99545519.217 6  24310018.845    24310037.228       -3431.410  
     -2673.758          37.000          36.000  
 24  1 10  3 24 27.2000000  0  7G08G24G18G23G10G32G15
 128050842.235 5  99779961.962 6  24367277.425    24367298.283        2701.367  
      2104.805          34.000          37.000  
 127958776.045 5  99708230.764 6  24349744.304    24349766.081         129.734  
       100.738          34.000          39.000  
 113394415.960 7  88359348.820 7  21578241.872    21578257.605       -1925.488  
     -1500.215          45.000          44.000  
 110072329.196 7  85770703.394 7  20946069.585    20946083.828       -1903.398  
     -1483.047          43.000          45.000  
 107496286.872 8  83763408.318 7  20455864.491    20455880.627         -50.430  
       -39.039          48.000          45.000  
 114621043.444 7  89315187.049 7  21811658.149    21811676.946        2735.789  
      2131.859          46.000          42.000  
 127750331.034 6  99545786.572 6  24310084.436    24310102.042       -3431.312  
     -2673.891          37.000          36.000  
 24  1 10  3 24 27.3000000  0  7G08G24G18G23G10G32G15
 128050572.154 5  99779751.509 6  24367226.031    24367246.888        2701.004  
      2104.461          34.000          37.000  
 127958763.130 5  99708220.639 6  24349741.846    24349763.608         129.293  
       101.043          35.000          40.000  
 113394608.543 7  88359498.917 7  21578278.520    21578294.260       -1925.562  
     -1500.711          45.000          44.000  
 110072519.610 7  85770851.758 7  20946105.820    20946120.060       -1903.660  
     -1483.375          43.000          45.000  
 107496291.951 8  83763412.294 7  20455865.457    20455881.598         -50.637  
       -39.613          48.000          45.000  
 114620769.902 7  89314973.897 7  21811606.096    21811624.892        2735.613  
      2131.480          47.000          42.000  
 127750674.143 6  99546053.955 6  24310149.727    24310167.340       -3431.152  
     -2673.848          37.000          36.000  
 24  1 10  3 24 27.4000000  0  7G08G24G18G23G10G32G15
 128050302.086 5  99779541.023 6  24367174.631    24367195.181        2700.957  
      2104.844          34.000          37.000  
 127958750.151 5  99708210.530 6  24349739.447    24349761.163         129.641  
       101.047          34.000          40.000  
 113394801.102 7  88359648.935 7  21578315.498    21578330.717       -1925.777  
     -1500.590          45.000          44.000  
 110072709.939 7  85771000.086 7  20946141.773    20946156.151       -1903.590  
     -1483.488          44.000          44.000  
 107496297.041 8  83763416.253 7  20455866.614    20455882.534         -50.773  
       -39.699          48.000          45.000  
 114620496.356 7  89314760.751 7  21811554.073    21811572.722        2735.461  
      2131.457          47.000          42.000  
 127751017.340 6  99546321.294 6  24310214.676    24310232.072       -3431.539  
     -2673.633          36.000          36.000  
 24  1 10  3 24 27.5000000  0  7G08G24G18G23G10G32G15
 128050031.965 5  99779330.560 6  24367123.228    24367143.783        2701.062  
      2104.562          33.000          37.000  
 127958737.240 5  99708200.489 6  24349736.990    24349758.711         129.383  
       100.590          34.000          39.000  
 113394993.708 7  88359799.030 7  21578352.150    21578367.371       -1925.828  
     -1500.840          45.000          44.000  
 110072900.340 7  85771148.416 7  20946178.005    20946192.375       -1903.816  
     -1483.512          43.000          45.000  
 107496302.155 8  83763420.271 7  20455867.587    20455883.515         -51.047  
       -39.879          48.000          45.000  
 114620222.868 7  89314547.634 7  21811502.030    21811520.677        2735.125  
      2131.012          46.000          42.000  
 127751360.389 6  99546588.683 6  24310279.956    24310297.371       -3431.070  
     -2673.824          37.000          36.000  
 24  1 10  3 24 27.6000000  0  7G08G24G18G23G10G32G15
 128049761.879 5  99779120.109 6  24367072.059    24367092.342        2701.129  
      2104.594          34.000          36.000  
 127958724.220 5  99708190.393 6  24349734.466    24349756.143         129.613  
       100.914          35.000          40.000  
 113395186.294 7  88359949.083 7  21578388.329    21578403.789       -1926.016  
     -1500.883          45.000          44.000  
 110073090.729 7  85771296.768 7  20946214.321    20946228.541       -1903.836  
     -1483.680          43.000          44.000  
 107496307.274 8  83763424.224 7  20455868.381    20455884.512         -51.188  
       -40.031          48.000          45.000  
 114619949.365 7  89314334.523 7  21811449.797    21811468.485        2735.020  
      2130.855          47.000          42.000  
 127751703.624 6  99546856.073 6  24310344.842    24310362.749       -3431.562  
     -2673.664          36.000          36.000  
 24  1 10  3 24 27.7000000  0  7G08G24G18G23G10G32G15
 128049491.789 5  99778909.683 6  24367020.663    24367040.954        2700.766  
      2104.477          34.000          36.000  
 127958711.342 5  99708180.265 6  24349732.015    24349753.670         129.375  
       101.086          34.000          40.000  
 113395378.931 7  88360099.199 7  21578424.987    21578440.449       -1926.109  
     -1501.176          45.000          44.000  
 110073281.153 7  85771445.168 7  20946250.557    20946264.782       -1904.098  
     -1483.688          43.000          44.000  
 107496312.446 8  83763428.246 7  20455869.365    20455885.494         -51.453  
       -40.148          48.000          45.000  
 114619675.913 7  89314121.464 7  21811397.761    21811416.454        2734.773  
      2131.027          46.000          42.000  
 127752046.685 6  99547123.458 6  24310410.124    24310428.047       -3431.242  
     -2674.027          37.000          36.000  
 24  1 10  3 24 27.8000000  0  7G08G24G18G23G10G32G15
 128049221.726 5  99778699.255 6  24366969.256    24366989.534        2700.816  
      2104.461          34.000          37.000  
 127958698.430 5  99708170.204 6  24349729.472    24349751.409         129.258  
       100.598          34.000          40.000  
 113395571.589 7  88360249.325 7  21578461.375    21578477.244       -1926.309  
     -1501.039          45.000          44.000  
 110073471.543 7  85771593.533 7  20946286.998    20946301.186       -1903.961  
     -1483.703          44.000          44.000  
 107496317.607 8  83763432.273 7  20455870.363    20455886.579         -51.535  
       -40.352          48.000          45.000  
 114619402.474 7  89313908.383 6  21811345.657    21811364.331        2734.547  
      2130.621          46.000          41.000  
 127752389.830 6  99547390.818 6  24310475.438    24310493.354       -3431.203  
     -2673.691          36.000          36.000  
 24  1 10  3 24 27.9000000  0  7G08G24G18G23G10G32G15
 128048951.710 5  99778488.782 6  24366917.874    24366938.134        2700.520  
      2104.258          34.000          37.000  
 127958685.438 5  99708160.152 6  24349727.000    24349748.954         129.598  
       100.641          34.000          40.000  
 113395764.228 7  88360399.434 7  21578498.033    21578513.903       -1926.293  
     -1500.895          45.000          44.000  
 110073662.015 7  85771741.922 7  20946323.243    20946337.424       -1904.363  
     -1483.723          43.000          45.000  
 107496322.810 8  83763436.343 7  20455871.353    20455887.573         -51.590  
       -40.254          48.000          45.000  
 114619129.047 7  89313695.313 6  21811293.625    21811312.297        2734.465  
      2130.508          47.000          41.000  
 127752732.932 6  99547658.171 6  24310540.728    24310558.645       -3431.391  
     -2673.520          37.000          36.000  
 24  1 10  3 24 28.0000000  0  7G08G24G18G23G10G32G15
 128048681.620 5  99778278.403 6  24366866.399    24366886.734        2700.652  
      2104.164          34.000          37.000  
 127958672.560 5  99708150.061 6  24349724.268    24349746.169         129.195  
       101.059          35.000          40.000  
 113395956.904 7  88360549.551 7  21578535.135    21578550.695       -1926.668  
     -1501.438          45.000          44.000  
 110073852.471 7  85771890.377 7  20946359.400    20946373.834       -1904.332  
     -1484.273          43.000          44.000  
 107496328.034 8  83763440.411 7  20455872.621    20455888.785         -52.004  
       -40.570          48.000          45.000  
 114618855.667 7  89313482.292 7  21811241.884    21811260.174        2734.109  
      2130.246          46.000          42.000  
 127753076.091 6  99547925.573 6  24310605.889    24310623.994       -3431.180  
     -2674.023          37.000          36.000  
 24  1 10  3 24 28.1000000  0  7G08G24G18G23G10G32G15
 128048411.620 5  99778067.960 6  24366815.020    24366835.342        2700.227  
      2104.297          34.000          36.000  
 127958659.658 5  99708140.014 6  24349721.813    24349743.715         129.191  
       100.434          35.000          40.000  
 113396149.587 7  88360699.720 7  21578571.802    21578587.368       -1926.754  
     -1501.484          45.000          44.000  
 110074042.897 7  85772038.724 7  20946395.637    20946410.062       -1904.402  
     -1483.836          43.000          45.000  
 107496333.234 8  83763444.465 7  20455873.610    20455889.775         -52.148  
       -40.738          48.000          45.000  
 114618582.282 7  89313269.261 7  21811189.861    21811208.149        2733.949  
      2130.234          46.000          42.000  
 127753419.227 6  99548192.912 6  24310671.185    24310689.281       -3431.508  
     -2673.707          37.000          36.000  
 24  1 10  3 24 28.2000000  0  7G08G24G18G23G10G32G15
 128048141.608 5  99777857.520 6  24366763.771    24366783.685        2700.219  
      2104.383          33.000          36.000  
 127958646.699 5  99708129.957 6  24349719.456    24349741.400         129.215  
       100.477          34.000          40.000  
 113396342.280 7  88360849.846 7  21578608.853    21578624.163       -1926.777  
     -1501.488          45.000          44.000  
 110074233.377 7  85772187.154 7  20946431.564    20946446.521       -1904.578  
     -1484.348          44.000          44.000  
 107496338.507 8  83763448.560 7  20455874.481    20455890.244         -52.410  
       -41.004          48.000          45.000  
 114618308.943 7  89313056.257 7  21811138.127    21811156.147        2733.672  
      2130.004          47.000          42.000  
 127753762.303 6  99548460.314 6  24310736.689    24310754.786       -3430.980  
     -2673.785          37.000          36.000  
 24  1 10  3 24 28.3000000  0  7G08G24G18G23G10G32G15
 128047871.541 5  99777647.158 6  24366712.379    24366732.312        2700.457  
      2103.922          33.000          36.000  
 127958633.849 5  99708119.896 6  24349717.011    24349738.943         129.059  
       100.777          34.000          39.000  
 113396534.994 7  88361000.028 7  21578645.525    21578660.839       -1927.062  
     -1501.684          45.000          44.000  
 110074423.892 7  85772335.621 7  20946467.818    20946482.778       -1904.898  
     -1484.438          44.000          44.000  
 107496343.795 8  83763452.697 7  20455875.487    20455891.254         -52.637  
       -41.102          48.000          45.000  
 114618035.599 7  89312843.281 6  21811086.112    21811104.136        2733.547  
      2129.820          46.000          41.000  
 127754105.487 6  99548727.672 6  24310801.995    24310820.078       -3431.375  
     -2673.715          37.000          36.000  
 24  1 10  3 24 28.4000000  0  7G08G24G18G23G10G32G15
 128047601.491 5  99777436.739 6  24366661.256    24366681.019        2700.453  
      2103.902          34.000          36.000  
 127958620.880 5  99708109.822 6  24349714.504    24349736.975         129.211  
       100.621          34.000          40.000  
 113396727.720 7  88361150.204 7  21578681.973    21578697.530       -1927.117  
     -1501.699          45.000          44.000  
 110074614.390 7  85772484.055 7  20946504.076    20946518.348       -1905.031  
     -1484.398          43.000          44.000  
 107496349.059 8  83763456.801 7  20455876.301    20455892.373         -52.777  
       -41.375          48.000          44.000  
 114617762.291 7  89312630.304 7  21811033.829    21811052.164        2733.359  
      2129.785          46.000          42.000  
 127754448.656 6  99548995.087 6  24310867.376    24310885.680       -3431.621  
     -2673.941          36.000          36.000  
 24  1 10  3 24 28.5000000  0  7G08G24G18G23G10G32G15
 128047331.478 5  99777226.340 6  24366609.874    24366629.638        2700.184  
      2103.684          34.000          36.000  
 127958608.055 5  99708099.818 6  24349712.063    24349734.532         128.777  
       100.094          34.000          39.000  
 113396920.459 7  88361300.373 7  21578718.650    21578734.202       -1927.262  
     -1501.707          45.000          43.000  
 110074804.876 7  85772632.479 7  20946540.324    20946554.595       -1905.031  
     -1484.598          43.000          45.000  
 107496354.404 8  83763460.946 7  20455877.319    20455893.386         -52.930  
       -41.168          48.000          45.000  
 114617489.008 7  89312417.368 6  21810981.825    21811000.163        2732.988  
      2129.637          47.000          41.000  
 127754791.710 6  99549262.512 5  24310932.657    24310950.988       -3430.922  
     -2674.438          37.000          35.000  
 24  1 10  3 24 28.6000000  0  7G08G24G18G23G10G32G15
 128047061.476 5  99777015.940 6  24366558.541    24366578.194        2700.223  
      2104.168          34.000          36.000  
 127958595.154 5  99708089.775 6  24349709.632    24349731.619         129.023  
       100.637          34.000          40.000  
 113397113.202 7  88361450.587 7  21578755.093    21578770.948       -1927.273  
     -1501.641          45.000          43.000  
 110074995.404 7  85772780.945 7  20946576.737    20946591.281       -1905.004  
     -1484.371          44.000          45.000  
 107496359.679 8  83763465.079 7  20455878.557    20455894.356         -52.938  
       -41.262          48.000          45.000  
 114617215.689 7  89312204.398 7  21810929.791    21810947.958        2733.148  
      2129.543          46.000          42.000  
 127755134.973 6  99549529.851 6  24310998.329    24311016.267       -3431.719  
     -2673.375          37.000          36.000  
 24  1 10  3 24 28.7000000  0  7G08G24G18G23G10G32G15
 128046791.499 5  99776805.498 6  24366507.166    24366526.801        2699.938  
      2104.492          33.000          36.000  
 127958582.205 5  99708079.654 6  24349707.168    24349729.147         129.168  
       100.871          34.000          40.000  
 113397305.912 7  88361600.745 7  21578791.765    21578807.619       -1927.203  
     -1501.645          45.000          43.000  
 110075185.869 7  85772929.358 7  20946612.981    20946627.525       -1904.820  
     -1484.238          44.000          45.000  
 107496364.963 8  83763469.193 7  20455879.562    20455895.361         -52.797  
       -41.273          48.000          44.000  
 114616942.399 7  89311991.438 7  21810877.786    21810895.951        2733.039  
      2129.516          47.000          42.000  
 127755477.924 6  99549797.135 6  24311063.591    24311081.541       -3430.641  
     -2673.078          37.000          36.000  
 24  1 10  3 24 28.8000000  0  7G08G24G18G23G10G32G15
 128046521.459 5  99776595.116 6  24366455.576    24366475.869        2700.125  
      2103.965          33.000          37.000  
 127958569.372 5  99708069.632 6  24349704.663    24349727.020         128.789  
       100.402          34.000          40.000  
 113397498.643 7  88361750.921 7  21578828.573    21578844.153       -1927.418  
     -1502.035          45.000          43.000  
 110075376.422 7  85773077.847 7  20946649.320    20946663.710       -1904.980  
     -1484.656          44.000          45.000  
 107496370.329 8  83763473.365 7  20455880.958    20455896.528         -53.141  
       -41.438          48.000          44.000  
 114616669.141 7  89311778.498 7  21810825.802    21810844.340        2732.672  
      2129.148          47.000          42.000  
 127755821.141 6  99550064.555 6  24311128.645    24311147.183       -3431.457  
     -2674.047          37.000          36.000  
 24  1 10  3 24 28.9000000  0  7G08G24G18G23G10G32G15
 128046251.488 5  99776384.729 6  24366404.203    24366424.491        2700.098  
      2103.949          33.000          37.000  
 127958556.404 5  99708059.609 6  24349702.195    24349724.572         129.152  
        99.949          34.000          40.000  
 113397691.454 7  88361901.163 7  21578865.264    21578880.843       -1927.684  
     -1502.254          45.000          43.000  
 110075566.958 7  85773226.303 7  20946685.578    20946699.964       -1905.406  
     -1484.672          44.000          45.000  
 107496375.650 8  83763477.504 7  20455881.971    20455897.539         -53.406  
       -41.754          48.000          44.000  
 114616395.910 7  89311565.615 7  21810773.808    21810792.352        2732.523  
      2128.883          46.000          42.000  
 127756164.257 6  99550331.963 6  24311193.938    24311212.487       -3431.137  
     -2673.969          37.000          36.000  
 24  1 10  3 24 29.0000000  0  7G08G24G18G23G10G32G15
 128045981.425 5  99776174.347 6  24366352.624    24366373.410        2700.254  
      2103.969          34.000          37.000  
 127958543.635 5  99708049.590 6  24349700.055    24349722.102         128.312  
       100.383          34.000          40.000  
 113397884.264 7  88362051.387 7  21578902.165    21578917.248       -1927.785  
     -1502.305          45.000          43.000  
 110075757.476 7  85773374.781 7  20946721.809    20946736.068       -1905.285  
     -1484.731          44.000          45.000  
 107496381.007 8  83763481.682 7  20455883.029    20455898.661         -53.375  
       -41.711          48.000          44.000  
 114616122.696 7  89311352.705 7  21810721.606    21810740.443        2732.254  
      2129.133          47.000          42.000  
 127756507.387 6  99550599.242 6  24311258.858    24311277.736       -3431.348  
     -2672.805          37.000          37.000  
 24  1 10  3 24 29.1000000  0  7G08G24G18G23G10G32G15
 128045711.456 5  99775963.974 6  24366301.250    24366322.035        2699.965  
      2103.871          33.000          37.000  
 127958530.698 5  99708039.575 6  24349697.593    24349719.656         129.113  
       100.371          34.000          40.000  
 113398077.037 7  88362201.612 7  21578938.849    21578953.935       -1927.906  
     -1502.293          45.000          43.000  
 110075948.033 7  85773523.259 7  20946758.071    20946772.328       -1905.391  
     -1484.781          44.000          45.000  
 107496386.361 8  83763485.872 7  20455884.048    20455899.684         -53.637  
       -41.781          48.000          44.000  
 114615849.495 7  89311139.824 7  21810669.618    21810688.455        2732.094  
      2128.703          47.000          42.000  
 127756850.527 6  99550866.771 6  24311324.156    24311343.069       -3431.195  
     -2674.875          37.000          36.000  
 24  1 10  3 24 29.2000000  0  7G08G24G18G23G10G32G15
 128045441.490 5  99775753.566 6  24366249.526    24366270.761        2699.797  
      2103.922          33.000          37.000  
 127958517.860 5  99708029.513 6  24349695.298    24349717.089         128.535  
       100.668          35.000          40.000  
 113398269.845 7  88362351.873 7  21578975.578    21578990.849       -1927.914  
     -1502.191          45.000          44.000  
 110076138.568 7  85773671.725 7  20946794.297    20946808.686       -1905.484  
     -1484.523          43.000          45.000  
 107496391.753 8  83763490.074 7  20455884.598    20455900.702         -53.625  
       -41.812          48.000          44.000  
 114615576.302 7  89310926.950 7  21810617.615    21810636.563        2732.059  
      2128.855          47.000          42.000  
 127757193.686 6  99551134.051 6  24311389.011    24311408.389       -3431.637  
     -2672.738          37.000          37.000  
 24  1 10  3 24 29.3000000  0  7G08G24G18G23G10G32G15
 128045171.501 5  99775543.202 6  24366198.149    24366219.387        2699.961  
      2103.797          33.000          37.000  
 127958504.990 5  99708019.529 6  24349692.849    24349714.651         128.730  
        99.656          35.000          40.000  
 113398462.627 7  88362502.069 7  21579012.263    21579027.528       -1927.957  
     -1502.250          45.000          44.000  
 110076329.120 7  85773820.208 7  20946830.558    20946844.947       -1905.457  
     -1484.777          43.000          45.000  
 107496397.108 8  83763494.234 7  20455885.617    20455901.718         -53.598  
       -41.852          48.000          44.000  
 114615303.094 7  89310714.083 7  21810565.625    21810584.579        2732.152  
      2128.844          46.000          42.000  
 127757536.753 6  99551401.409 6  24311454.295    24311473.680       -3430.914  
     -2674.078          37.000          36.000  
 24  1 10  3 24 29.4000000  0  7G08G24G18G23G10G32G15
 128044901.452 5  99775332.795 6  24366146.284    24366168.137        2700.047  
      2103.793          33.000          37.000  
 127958492.097 5  99708009.474 6  24349690.786    24349711.782         128.969  
       100.613          35.000          40.000  
 113398655.415 7  88362652.305 7  21579048.762    21579064.022       -1927.867  
     -1502.398          45.000          43.000  
 110076519.714 7  85773968.729 7  20946866.803    20946881.296       -1905.676  
     -1484.988          43.000          44.000  
 107496402.513 8  83763498.452 7  20455886.575    20455902.733         -53.871  
       -42.059          48.000          44.000  
 114615029.879 7  89310501.173 7  21810513.611    21810532.427        2732.160  
      2129.191          46.000          42.000  
 127757879.929 6  99551668.848 6  24311519.779    24311539.194       -3431.558  
     -2673.945          36.000          36.000  
 24  1 10  3 24 29.5000000  0  7G08G24G18G23G10G32G15
 128044631.548 5  99775122.432 6  24366094.922    24366116.764        2699.703  
      2103.812          33.000          37.000  
 127958479.281 5  99707999.462 6  24349688.347    24349709.337         128.359  
        99.895          34.000          39.000  
 113398848.232 7  88362802.552 7  21579085.454    21579100.714       -1928.008  
     -1502.324          45.000          44.000  
 110076710.286 7  85774117.208 7  20946903.068    20946917.555       -1905.797  
     -1485.188          43.000          44.000  
 107496407.940 8  83763502.691 7  20455887.608    20455903.768         -53.965  
       -42.289          48.000          44.000  
 114614756.660 7  89310288.273 7  21810461.619    21810480.435        2732.125  
      2128.906          46.000          42.000  
 127758223.003 6  99551936.149 6  24311585.064    24311604.472       -3430.856  
     -2673.414          37.000          36.000  
 24  1 10  3 24 29.6000000  0  7G08G24G18G23G10G32G15
 128044361.594 5  99774912.115 6  24366043.357    24366065.434        2699.543  
      2103.117          33.000          37.000  
 127958466.418 5  99707989.492 6  24349685.954    24349706.824         128.594  
       100.094          34.000          40.000  
 113399041.008 7  88362952.759 7  21579122.216    21579137.818       -1927.973  
     -1502.586          45.000          44.000  
 110076900.884 7  85774265.703 7  20946939.142    20946953.757       -1905.980  
     -1485.113          43.000          44.000  
 107496413.338 8  83763506.876 7  20455888.588    20455904.719         -54.129  
       -42.141          48.000          44.000  
 114614483.425 7  89310075.389 7  21810409.741    21810428.681        2732.332  
      2128.762          46.000          42.000  
 127758566.354 5  99552203.619 5  24311650.542    24311669.713       -3432.473  
     -2674.645          35.000          35.000  
 24  1 10  3 24 29.7000000  0  7G08G24G18G23G10G32G15
 128044091.743 5  99774701.812 6  24365992.006    24366014.075        2698.965  
      2103.133          33.000          36.000  
 127958453.597 5  99707979.390 6  24349683.515    24349704.357         128.391  
       100.383          34.000          39.000  
 113399233.831 7  88363103.023 7  21579158.909    21579174.514       -1928.051  
     -1502.402          45.000          44.000  
 110077091.538 7  85774414.276 7  20946975.422    20946990.040       -1906.090  
     -1485.406          43.000          44.000  
 107496418.773 7  83763511.129 7  20455889.622    20455905.758         -54.281  
       -42.500          47.000          44.000  
 114614210.174 7  89309862.478 7  21810357.743    21810376.686        2732.395  
      2129.418          46.000          42.000  
 127758909.362 6  99552471.060 5  24311715.814    24311735.025       -3430.898  
     -2673.859          37.000          35.000  
 24  1 10  3 24 29.8000000  0  7G08G24G18G23G10G32G15
 128043821.935 5  99774491.537 6  24365940.639    24365962.623        2697.910  
      2102.719          33.000          36.000  
 127958440.763 5  99707969.506 6  24349680.822    24349702.318         128.473  
        99.293          35.000          39.000  
 113399426.648 7  88363253.258 7  21579195.875    21579211.062       -1928.297  
     -1502.590          45.000          44.000  
 110077282.202 7  85774562.867 7  20947011.759    20947026.132       -1906.891  
     -1485.934          43.000          44.000  
 107496424.298 7  83763515.441 7  20455890.963    20455907.147         -54.859  
       -42.844          47.000          44.000  
 114613936.913 7  89309649.505 7  21810305.837    21810324.645        2732.609  
      2129.391          46.000          42.000  
 127759252.800 6  99552738.552 5  24311781.098    24311800.138       -3434.777  
     -2675.293          36.000          35.000  
 24  1 10  3 24 29.9000000  0  7G08G24G18G23G10G32G15
 128043552.136 5  99774281.390 6  24365889.298    24365911.302        2697.812  
      2102.125          33.000          36.000  
 127958427.968 5  99707959.499 6  24349678.388    24349699.874         127.531  
        99.906          35.000          39.000  
 113399619.504 7  88363403.544 7  21579232.574    21579247.764       -1928.562  
     -1502.660          44.000          44.000  
 110077472.909 7  85774711.437 7  20947048.050    20947062.415       -1907.289  
     -1486.176          43.000          44.000  
 107496429.805 7  83763519.712 7  20455892.011    20455908.190         -55.520  
       -43.152          47.000          44.000  
 114613663.653 7  89309436.579 7  21810253.838    21810272.646        2732.785  
      2129.203          46.000          42.000  
 127759595.984 6  99553006.035 5  24311846.404    24311865.460       -3431.578  
     -2674.957          36.000          35.000  
 24  1 10  3 24 30.0000000  0  7G08G24G18G23G10G32G15
 128043282.459 5  99774071.178 6  24365838.004    24365859.927        2696.930  
      2101.949          32.000          36.000  
 127958415.185 5  99707949.503 6  24349675.892    24349697.277         127.992  
        99.859          35.000          39.000  
 113399812.355 7  88363553.824 7  21579268.608    21579284.401       -1928.664  
     -1502.785          44.000          44.000  
 110077663.684 7  85774860.118 7  20947084.494    20947098.638       -1907.449  
     -1486.430          43.000          44.000  
 107496435.428 7  83763524.115 7  20455892.924    20455908.734         -55.898  
       -43.625          47.000          44.000  
 114613390.395 7  89309223.673 7  21810201.854    21810220.683        2732.523  
      2129.145          46.000          43.000  
 127759939.308 6  99553273.491 5  24311911.806    24311930.674       -3434.203  
     -2674.578          36.000          35.000  
 24  1 10  3 24 30.1000000  0  7G08G24G18G23G10G32G15
 128043012.740 5  99773861.036 6  24365786.678    24365808.609        2697.387  
      2101.184          32.000          36.000  
 127958402.432 5  99707939.630 6  24349673.466    24349694.866         127.461  
        99.316          35.000          39.000  
 113400005.187 7  88363704.074 7  21579305.303    21579321.093       -1928.289  
     -1502.633          45.000          44.000  
 110077854.463 7  85775008.767 7  20947120.798    20947134.940       -1907.641  
     -1486.703          43.000          44.000  
 107496440.981 8  83763528.442 7  20455893.981    20455909.791         -55.699  
       -43.477          48.000          44.000  
 114613117.057 7  89309010.666 7  21810149.839    21810168.665        2733.250  
      2129.941          46.000          43.000  
 127760282.726 6  99553541.103 5  24311977.156    24311996.028       -3432.777  
     -2675.980          36.000          35.000  
 24  1 10  3 24 30.2000000  0  7G08G24G18G23G10G32G15
 128042743.075 5  99773650.895 6  24365735.394    24365757.603        2696.434  
      2101.504          32.000          36.000  
 127958389.649 5  99707929.571 6  24349671.018    24349692.940         128.199  
       100.352          34.000          39.000  
 113400198.078 7  88363854.372 7  21579341.931    21579358.126       -1928.777  
     -1502.883          45.000          44.000  
 110078045.314 7  85775157.493 7  20947157.092    20947171.557       -1908.477  
     -1486.965          43.000          44.000  
 107496446.639 7  83763532.835 7  20455895.042    20455911.028         -56.457  
       -43.980          47.000          44.000  
 114612843.750 7  89308797.721 7  21810098.167    21810116.880        2733.039  
      2129.566          46.000          43.000  
 127760625.996 6  99553808.697 5  24312042.729    24312061.127       -3434.332  
     -2675.605          36.000          35.000  
 24  1 10  3 24 30.3000000  0  7G08G24G18G23G10G32G15
 128042473.442 5  99773440.801 6  24365684.085    24365706.295        2696.168  
      2100.980          32.000          36.000  
 127958376.863 5  99707919.753 6  24349668.585    24349690.543         127.098  
        98.586          35.000          39.000  
 113400390.980 7  88364004.701 7  21579378.639    21579394.838       -1929.129  
     -1503.164          45.000          44.000  
 110078236.174 7  85775306.215 7  20947193.411    20947207.876       -1908.980  
     -1487.676          43.000          44.000  
 107496452.333 7  83763537.270 7  20455896.126    20455912.111         -57.078  
       -44.645          47.000          44.000  
 114612570.454 7  89308584.766 7  21810046.160    21810064.875        2732.945  
      2129.637          46.000          42.000  
 127760969.498 6  99554076.206 6  24312108.095    24312126.455       -3434.121  
     -2675.812          36.000          36.000  
 24  1 10  3 24 30.4000000  0  7G08G24G18G23G10G32G15
 128042203.891 5  99773230.812 6  24365632.689    24365655.061        2696.148  
      2100.273          32.000          36.000  
 127958364.210 5  99707909.747 6  24349666.419    24349688.232         127.340  
        99.719          35.000          39.000  
 113400583.884 7  88364154.992 7  21579415.534    21579431.720       -1928.809  
     -1503.062          45.000          43.000  
 110078427.090 7  85775454.990 7  20947229.468    20947243.834       -1908.734  
     -1487.477          43.000          44.000  
 107496458.062 7  83763541.736 7  20455896.974    20455913.076         -56.797  
       -44.504          47.000          44.000  
 114612297.106 7  89308371.764 7  21809993.941    21810012.107        2733.215  
      2129.875          46.000          42.000  
 127761312.911 6  99554343.917 5  24312173.608    24312192.177       -3434.402  
     -2676.715          36.000          35.000  
 24  1 10  3 24 30.5000000  0  7G08G24G18G23G10G32G15
 128041934.410 5  99773020.792 5  24365581.409    24365603.772        2695.371  
      2100.250          32.000          35.000  
 127958351.412 5  99707899.921 6  24349663.984    24349685.832         127.531  
        98.711          34.000          38.000  
 113400776.789 7  88364305.316 7  21579452.243    21579468.431       -1928.992  
     -1503.145          45.000          44.000  
 110078618.029 7  85775603.756 7  20947265.803    20947280.164       -1909.285  
     -1487.945          43.000          44.000  
 107496463.811 8  83763546.214 7  20455898.068    20455914.170         -57.219  
       -44.863          48.000          44.000  
 114612023.794 7  89308158.787 7  21809941.931    21809960.096        2733.230  
      2129.941          46.000          42.000  
 127761656.370 6  99554611.493 6  24312238.966    24312257.522       -3434.356  
     -2675.961          36.000          36.000  
 24  1 10  3 24 30.6000000  0  7G08G24G18G23G10G32G15
 128041664.916 5  99772810.795 6  24365530.297    24365552.528        2695.074  
      2100.078          32.000          36.000  
 127958338.717 5  99707889.906 6  24349661.693    24349683.348         127.426  
        99.711          34.000          39.000  
 113400969.676 7  88364455.624 7  21579489.409    21579504.715       -1929.113  
     -1503.277          44.000          44.000  
 110078809.033 7  85775752.593 7  20947302.087    20947316.535       -1909.520  
     -1488.109          43.000          44.000  
 107496469.558 8  83763550.679 7  20455899.591    20455915.463         -57.641  
       -45.008          48.000          44.000  
 114611750.459 7  89307945.785 7  21809889.691    21809907.970        2733.312  
      2129.863          46.000          42.000  
 127761999.954 5  99554879.178 5  24312304.215    24312322.877       -3435.078  
     -2677.180          35.000          35.000  
 24  1 10  3 24 30.7000000  0  7G08G24G18G23G10G32G15
 128041395.450 5  99772600.829 6  24365479.020    24365501.252        2695.090  
      2099.855          32.000          36.000  
 127958326.063 5  99707880.084 6  24349659.285    24349680.949         126.859  
        98.648          35.000          39.000  
 113401162.573 7  88364605.924 7  21579526.116    21579541.420       -1928.895  
     -1502.797          45.000          43.000  
 110078999.985 7  85775901.412 7  20947338.424    20947352.878       -1909.465  
     -1487.945          43.000          44.000  
 107496475.348 8  83763555.207 7  20455900.693    20455916.569         -57.715  
       -45.188          48.000          44.000  
 114611477.081 7  89307732.781 7  21809837.669    21809855.952        2733.594  
      2129.988          46.000          42.000  
 127762343.394 6  99555146.867 5  24312369.570    24312388.250       -3434.879  
     -2676.980          36.000          35.000  
 24  1 10  3 24 30.8000000  0  7G08G24G18G23G10G32G15
 128041126.002 5  99772390.867 6  24365427.785    24365449.789        2694.551  
      2099.527          32.000          36.000  
 127958313.276 5  99707870.100 6  24349656.633    24349678.581         127.383  
        99.453          35.000          39.000  
 113401355.485 7  88364756.248 7  21579562.631    21579578.186       -1928.934  
     -1503.035          45.000          43.000  
 110079190.980 7  85776050.245 7  20947374.402    20947389.568       -1909.625  
     -1488.164          43.000          44.000  
 107496481.149 8  83763559.721 7  20455901.703    20455917.804         -57.793  
       -45.020          48.000          44.000  
 114611203.704 7  89307519.736 7  21809785.725    21809804.151        2733.719  
      2130.402          46.000          42.000  
 127762686.886 6  99555414.513 5  24312434.715    24312453.119       -3434.871  
     -2676.301          36.000          35.000  
