     2.11           OBSERVATION DATA    M (MIXED)           RINEX VERSION / TYPE
GPP.DLL V3.2.21                         18 - MAR - 24 07:42 PGM / RUN BY / DATE 
                                                            MARKER NAME         
                                                            MARKER NUMBER       
                                                            OBSERVER / AGENCY   
6028C00128          APX-15v3 AV         5.50                REC # / TYPE / VERS 
                    E                                       ANT # / TYPE        
 -4667990.2617  2554611.8124 -3504664.2126                  APPROX POSITION XYZ 
        0.0000       -0.0000       -0.0000                  ANTENNA: DELTA H/E/N
     1     1                                                WAVELENGTH FACT L1/2
     9    L1    L2    C1    P2    C2    D1    D2    S1    S2# / TYPES OF OBSERV 
     0.100                                                  INTERVAL            
  2024     1    10     3    17    0.0000000     GPS         TIME OF FIRST OBS   
  2024     1    10     3    17   59.9000000     GPS         TIME OF LAST OBS    
    18                                                      LEAP SECONDS        
     8                                                      # OF SATELLITES     
   G08   532   532   532     0   532   532   532   532   532PRN / # OF OBS      
   G10   600   600   600     0   600   600   600   600   600PRN / # OF OBS      
   G15   600   600   600     0   600   600   600   600   600PRN / # OF OBS      
   G16   580   580   580   580     0   580   580   580   580PRN / # OF OBS      
   G18   600   600   600     0   600   600   600   600   600PRN / # OF OBS      
   G23   600   600   600     0   600   600   600   600   600PRN / # OF OBS      
   G24   528   528   528     0   528   528   528   528   528PRN / # OF OBS      
   G32   600   600   600     0   600   600   600   600   600PRN / # OF OBS      
                                                            END OF HEADER       
 24  1 10  3 17  0.0000000  0  7G24G16G18G23G10G32G15
 129645173.50025 101022303.951 6  24670655.429                    24670678.666  
       388.402         302.293          35.000          39.000  
 128958393.891 6 100487244.316 3  24539987.763    24540011.647                  
     -2162.445       -1685.109          37.000          19.000  
 114151003.132 6  88948898.248 6  21722214.725                    21722229.527  
     -1709.887       -1332.559          41.000          41.000  
 110829468.803 7  86360682.936 7  21090147.626                    21090162.663  
     -1720.426       -1340.742          45.000          44.000  
 109095383.700 8  85009457.879 7  20760162.765                    20760178.547  
       200.332         155.996          48.000          45.000  
 117462060.141 7  91528964.246 6  22352287.432                    22352306.088  
      2957.094        2304.219          46.000          41.000  
 127820551.896 5  99600506.430 6  24323444.357                    24323462.151  
     -3266.691       -2545.715          35.000          39.000  
 24  1 10  3 17  0.1000000  0  7G24G16G18G23G10G32G15
 129645134.75326 101022273.714 6  24670648.056                    24670671.282  
       387.930         302.270          36.000          39.000  
 128958610.009 6 100487412.712 3  24540028.889    24540052.770                  
     -2161.805       -1684.234          37.000          19.000  
 114151174.149 6  88949031.443 6  21722247.269                    21722262.054  
     -1710.090       -1332.453          41.000          41.000  
 110829640.817 7  86360816.928 7  21090180.359                    21090195.385  
     -1720.230       -1340.289          45.000          44.000  
 109095363.666 8  85009442.249 7  20760158.953                    20760174.730  
       200.348         156.348          48.000          45.000  
 117461764.410 7  91528733.801 6  22352231.157                    22352249.811  
      2957.184        2304.332          46.000          41.000  
 127820878.620 5  99600760.972 6  24323506.531                    24323524.313  
     -3267.043       -2545.594          35.000          39.000  
 24  1 10  3 17  0.2000000  0  7G24G16G18G23G10G32G15
 129645095.98126 101022243.504 6  24670640.607                    24670663.975  
       387.844         302.102          37.000          39.000  
 128958826.282 6 100487581.226 3  24540070.115    24540093.962                  
     -2162.246       -1684.918          36.000          19.000  
 114151345.163 6  88949164.736 7  21722279.538                    21722294.317  
     -1709.918       -1332.594          41.000          42.000  
 110829812.862 7  86360951.016 7  21090213.590                    21090228.576  
     -1720.391       -1340.449          45.000          44.000  
 109095343.648 8  85009426.658 7  20760154.878                    20760171.001  
       200.242         155.934          48.000          45.000  
 117461468.703 7  91528503.365 6  22352175.081                    22352194.115  
      2957.176        2304.367          46.000          41.000  
 127821205.208 5  99601015.517 6  24323568.663                    24323586.850  
     -3266.414       -2545.402          35.000          39.000  
 24  1 10  3 17  0.3000000  0  7G24G16G18G23G10G32G15
 129645057.26826 101022213.311 6  24670633.240                    24670656.601  
       387.598         302.094          38.000          39.000  
 128959042.498 6 100487749.703 3  24540111.259    24540135.106                  
     -2162.258       -1684.906          36.000          19.000  
 114151516.169 6  88949298.012 7  21722312.080                    21722326.864  
     -1710.145       -1332.805          41.000          42.000  
 110829984.928 7  86361085.061 7  21090246.334                    21090261.311  
     -1720.582       -1340.938          45.000          44.000  
 109095323.645 8  85009411.081 7  20760151.072                    20760167.197  
       200.109         155.781          48.000          45.000  
 117461173.008 7  91528272.956 6  22352118.812                    22352137.846  
      2956.973        2304.051          46.000          41.000  
 127821531.947 5  99601270.120 6  24323630.839                    24323649.027  
     -3266.988       -2545.715          35.000          39.000  
 24  1 10  3 17  0.4000000  0  7G24G16G18G23G10G32G15
 129645018.44326 101022183.083 6  24670626.157                    24670649.266  
       387.781         302.133          38.000          39.000  
 128959258.767 6 100487918.217 3  24540152.461    24540176.298                  
     -2162.410       -1685.012          36.000          19.000  
 114151687.300 6  88949431.323 7  21722344.176                    21722359.826  
     -1710.746       -1332.992          41.000          42.000  
 110830157.052 7  86361219.217 7  21090279.306                    21090293.902  
     -1720.848       -1341.117          45.000          44.000  
 109095303.686 8  85009395.528 7  20760147.047                    20760163.633  
       199.875         155.629          48.000          45.000  
 117460877.347 7  91528042.585 6  22352062.386                    22352081.447  
      2956.844        2303.578          46.000          41.000  
 127821858.667 6  99601524.715 6  24323692.981                    24323711.421  
     -3267.184       -2545.953          36.000          39.000  
 24  1 10  3 17  0.5000000  0  7G24G16G18G23G10G32G15
 129644979.73126 101022152.923 6  24670618.790                    24670641.901  
       387.555         301.797          39.000          39.000  
 128959475.021 6 100488086.727 3  24540193.613    24540217.450                  
     -2162.570       -1685.223          36.000          19.000  
 114151858.388 6  88949564.618 7  21722376.733                    21722392.378  
     -1710.973       -1333.301          41.000          42.000  
 110830329.150 7  86361353.305 7  21090312.055                    21090326.647  
     -1720.984       -1341.160          45.000          44.000  
 109095283.759 8  85009379.989 7  20760143.255                    20760159.838  
       199.453         155.316          48.000          45.000  
 117460581.712 7  91527812.206 6  22352006.128                    22352025.186  
      2956.500        2303.949          46.000          41.000  
 127822185.492 6  99601779.325 6  24323755.174                    24323773.599  
     -3267.652       -2546.094          36.000          39.000  
 24  1 10  3 17  0.6000000  0  7G24G16G18G23G10G32G15
 129644940.98026 101022122.718 6  24670611.893                    24670634.275  
       387.465         301.762          40.000          39.000  
 128959691.325 6 100488255.273 3  24540235.118    24540258.626                  
     -2162.719       -1685.246          36.000          19.000  
 114152029.457 6  88949697.958 7  21722409.912                    21722425.691  
     -1710.762       -1333.320          41.000          43.000  
 110830501.296 7  86361487.434 7  21090344.501                    21090359.067  
     -1721.262       -1341.207          45.000          44.000  
 109095263.842 8  85009364.468 7  20760139.496                    20760155.977  
       199.270         155.039          48.000          45.000  
 117460286.084 7  91527581.846 6  22351949.880                    22351969.109  
      2956.441        2303.598          46.000          41.000  
 127822512.174 6  99602033.938 6  24323817.425                    24323835.590  
     -3267.168       -2546.305          36.000          39.000  
 24  1 10  3 17  0.7000000  0  7G24G16G18G23G10G32G15
 129644902.25826 101022092.528 6  24670604.524                    24670626.902  
       387.387         301.926          40.000          39.000  
 128959907.618 6 100488423.809 3  24540276.277    24540299.784                  
     -2163.055       -1685.746          36.000          19.000  
 114152200.630 7  88949831.335 7  21722442.485                    21722458.263  
     -1711.156       -1333.598          42.000          43.000  
 110830673.458 7  86361621.616 7  21090377.263                    21090391.836  
     -1721.469       -1341.820          45.000          44.000  
 109095243.988 8  85009349.020 7  20760135.718                    20760152.205  
       198.977         154.641          48.000          45.000  
 117459990.515 7  91527351.536 6  22351893.635                    22351912.865  
      2956.027        2303.391          46.000          41.000  
 127822838.957 6  99602288.579 6  24323879.610                    24323897.776  
     -3267.648       -2546.352          36.000          39.000  
 24  1 10  3 17  0.8000000  0  7G24G16G18G23G10G32G15
 129644863.48126 101022062.415 6  24670597.606                    24670619.110  
       387.570         301.422          39.000          39.000  
 128960124.003 6 100488592.414 3  24540317.422    24540340.967                  
     -2163.309       -1685.820          37.000          19.000  
 114152371.735 6  88949964.629 7  21722475.521                    21722491.135  
     -1711.223       -1333.453          41.000          43.000  
 110830845.671 7  86361755.795 7  21090410.049                    21090424.775  
     -1721.828       -1341.805          45.000          44.000  
 109095224.136 8  85009333.543 7  20760131.808                    20760148.581  
       198.543         154.691          48.000          45.000  
 117459694.904 7  91527121.185 6  22351837.429                    22351856.463  
      2956.043        2303.270          46.000          41.000  
 127823165.770 6  99602543.219 6  24323941.636                    24323960.111  
     -3267.758       -2546.148          36.000          38.000  
 24  1 10  3 17  0.9000000  0  7G24G16G18G23G10G32G15
 129644824.401 6 101022032.247 6  24670590.170                    24670611.743  
       386.625         301.527          38.000          39.000  
 128960340.311 6 100488760.964 3  24540358.584    24540382.129                  
     -2163.285       -1685.684          36.000          19.000  
 114152542.838 6  88950098.034 7  21722508.081                    21722523.714  
     -1710.949       -1333.602          41.000          43.000  
 110831017.870 7  86361889.950 7  21090442.818                    21090457.537  
     -1721.891       -1341.496          45.000          44.000  
 109095204.263 7  85009318.061 7  20760128.026                    20760144.801  
       198.688         154.664          47.000          45.000  
 117459399.320 7  91526890.894 6  22351781.181                    22351800.223  
      2955.992        2303.367          46.000          41.000  
 127823492.552 6  99602797.860 6  24324003.821                    24324022.297  
     -3267.820       -2546.492          36.000          38.000  
 24  1 10  3 17  1.0000000  0  7G24G16G18G23G10G32G15
 129644785.595 6 101022002.089 6  24670582.137                    24670604.409  
       387.367         301.746          38.000          39.000  
 128960556.730 6 100488929.597 3  24540399.822    24540423.334                  
     -2163.699       -1686.145          36.000          18.000  
 114152713.906 6  88950231.319 7  21722540.595                    21722556.225  
     -1710.887       -1333.227          41.000          43.000  
 110831190.050 7  86362024.159 7  21090475.012                    21090490.281  
     -1721.758       -1341.981          45.000          44.000  
 109095184.446 8  85009302.638 7  20760124.458                    20760140.722  
       198.508         154.652          48.000          45.000  
 117459103.713 7  91526660.510 6  22351724.905                    22351743.813  
      2955.973        2303.578          46.000          41.000  
 127823819.325 6  99603052.479 6  24324066.097                    24324084.180  
     -3267.801       -2546.238          36.000          38.000  
 24  1 10  3 17  1.1000000  0  7G24G16G18G23G10G32G15
 129644746.883 6 101021971.861 6  24670574.770                    24670597.028  
       387.348         301.953          37.000          39.000  
 128960773.067 6 100489098.174 3  24540440.990    24540464.502                  
     -2163.660       -1686.160          36.000          18.000  
 114152885.057 6  88950364.706 7  21722573.164                    21722588.799  
     -1711.230       -1333.328          41.000          43.000  
 110831362.244 7  86362158.336 7  21090507.780                    21090523.049  
     -1721.895       -1342.086          45.000          44.000  
 109095164.668 8  85009287.159 7  20760120.694                    20760136.941  
       198.020         154.543          48.000          44.000  
 117458808.104 7  91526430.194 6  22351668.653                    22351687.567  
      2956.164        2303.391          46.000          41.000  
 127824146.142 6  99603307.110 6  24324128.288                    24324146.364  
     -3267.941       -2545.953          36.000          38.000  
 24  1 10  3 17  1.2000000  0  7G24G16G18G23G10G32G15
 129644708.000 6 101021941.634 6  24670567.215                    24670589.435  
       388.051         302.266          38.000          39.000  
 128960989.479 6 100489266.817 3  24540482.101    24540505.695                  
     -2163.840       -1686.305          36.000          18.000  
 114153056.161 6  88950497.942 7  21722605.170                    21722620.962  
     -1711.184       -1333.004          40.000          43.000  
 110831534.443 7  86362292.559 7  21090540.556                    21090554.905  
     -1721.910       -1341.895          45.000          44.000  
 109095144.856 7  85009271.733 7  20760117.432                    20760132.698  
       197.988         154.102          47.000          44.000  
 117458512.456 7  91526199.818 6  22351612.494                    22351631.409  
      2956.379        2303.641          46.000          41.000  
 127824472.862 6  99603561.751 6  24324190.836                    24324208.112  
     -3267.586       -2546.641          36.000          38.000  
 24  1 10  3 17  1.3000000  0  7G24G16G18G23G10G32G15
 129644669.169 6 101021911.382 6  24670559.825                    24670582.047  
       388.078         302.551          38.000          39.000  
 128961205.830 5 100489435.407 3  24540523.272    24540546.866                  
     -2163.898       -1686.387          35.000          18.000  
 114153227.194 6  88950631.251 7  21722637.716                    21722653.517  
     -1710.777       -1332.809          41.000          43.000  
 110831706.653 7  86362426.725 7  21090573.326                    21090587.670  
     -1721.980       -1341.902          45.000          44.000  
 109095125.082 7  85009256.376 7  20760113.669                    20760128.947  
       197.973         153.938          47.000          44.000  
 117458216.773 7  91525969.434 7  22351556.228                    22351575.147  
      2956.605        2303.918          46.000          42.000  
 127824799.663 6  99603816.371 6  24324253.024                    24324270.293  
     -3267.762       -2546.211          36.000          38.000  
 24  1 10  3 17  1.4000000  0  7G24G16G18G23G10G32G15
 129644630.412 6 101021881.120 6  24670552.598                    24670575.016  
       387.949         302.566          38.000          40.000  
 128961422.320 5 100489604.102 3  24540564.226    24540588.071                  
     -2164.254       -1686.602          35.000          18.000  
 114153398.173 6  88950764.515 7  21722670.166                    21722685.999  
     -1709.984       -1332.586          41.000          43.000  
 110831878.848 7  86362560.902 7  21090606.969                    21090620.867  
     -1722.043       -1341.887          45.000          44.000  
 109095105.291 7  85009240.952 7  20760109.411                    20760125.939  
       197.871         153.945          46.000          44.000  
 117457921.058 7  91525739.027 7  22351499.502                    22351518.973  
      2956.988        2304.348          46.000          42.000  
 127825126.445 6  99604071.034 6  24324315.397                    24324332.148  
     -3267.820       -2546.547          37.000          38.000  
 24  1 10  3 17  1.5000000  0  7G24G16G18G23G10G32G15
 129644591.594 6 101021850.860 6  24670545.212                    24670567.626  
       388.145         302.535          36.000          40.000  
 128961638.831 5 100489772.815 3  24540605.427    24540629.272                  
     -2164.770       -1687.172          35.000          18.000  
 114153569.138 6  88950897.717 7  21722702.700                    21722718.528  
     -1709.961       -1332.184          41.000          43.000  
 110832051.090 7  86362695.144 7  21090639.745                    21090653.651  
     -1722.238       -1342.363          45.000          44.000  
 109095085.642 7  85009225.626 7  20760105.672                    20760122.196  
       197.270         153.707          46.000          44.000  
 117457625.305 7  91525508.555 7  22351443.222                    22351462.689  
      2957.180        2304.371          46.000          42.000  
 127825453.336 6  99604325.715 6  24324377.602                    24324394.344  
     -3268.391       -2546.773          37.000          38.000  
 24  1 10  3 17  1.6000000  0  7G24G16G18G23G10G32G15
 129644552.726 6 101021820.591 6  24670537.386                    24670560.664  
       388.871         302.668          36.000          40.000  
 128961855.405 5 100489941.576 3  24540646.608    24540670.423                  
     -2165.645       -1687.566          35.000          18.000  
 114153740.074 7  88951030.935 7  21722735.095                    21722751.147  
     -1709.246       -1332.082          42.000          44.000  
 110832223.364 7  86362829.362 7  21090672.895                    21090686.654  
     -1722.930       -1342.176          45.000          44.000  
 109095065.919 7  85009210.234 7  20760101.919                    20760118.265  
       196.855         153.242          46.000          44.000  
 117457329.504 7  91525278.073 7  22351387.027                    22351406.778  
      2958.098        2304.832          46.000          42.000  
 127825780.187 6  99604580.447 6  24324439.823                    24324456.755  
     -3268.508       -2547.164          37.000          38.000  
 24  1 10  3 17  1.7000000  0  7G24G16G18G23G10G32G15
 129644513.842 5 101021790.286 6  24670529.986                    24670553.263  
       388.664         303.289          35.000          40.000  
 128962071.931 6 100490110.298 3  24540687.812    24540711.627                  
     -2165.258       -1687.184          36.000          18.000  
 114153910.976 7  88951164.108 7  21722767.617                    21722783.670  
     -1708.906       -1331.707          43.000          44.000  
 110832395.642 7  86362963.575 7  21090705.679                    21090719.431  
     -1722.758       -1342.508          45.000          43.000  
 109095046.298 7  85009194.962 7  20760098.185                    20760114.535  
       196.402         153.254          46.000          44.000  
 117457033.656 7  91525047.530 7  22351330.729                    22351350.477  
      2958.719        2305.527          46.000          42.000  
 127826107.025 6  99604835.140 6  24324502.018                    24324518.954  
     -3268.582       -2547.121          37.000          38.000  
 24  1 10  3 17  1.8000000  0  7G24G16G18G23G10G32G15
 129644474.924 6 101021759.942 6  24670522.291                    24670545.400  
       389.242         303.312          36.000          40.000  
 128962288.506 6 100490279.047 3  24540729.681    24540752.837                  
     -2165.715       -1687.523          36.000          18.000  
 114154081.863 7  88951297.301 7  21722800.925                    21722816.337  
     -1709.004       -1331.711          43.000          44.000  
 110832567.974 7  86363097.954 7  21090738.488                    21090751.552  
     -1723.168       -1343.152          45.000          43.000  
 109095026.696 7  85009179.690 7  20760094.463                    20760110.782  
       196.012         152.523          46.000          44.000  
 117456737.752 7  91524816.966 6  22351274.225                    22351294.100  
      2959.027        2305.801          46.000          41.000  
 127826433.934 6  99605089.884 6  24324563.969                    24324582.009  
     -3268.883       -2547.445          37.000          38.000  
 24  1 10  3 17  1.9000000  0  7G24G16G18G23G10G32G15
 129644435.961 6 101021729.573 6  24670514.877                    24670537.983  
       389.527         303.844          37.000          40.000  
 128962505.120 5 100490447.844 3  24540770.901    24540794.059                  
     -2166.195       -1687.945          35.000          18.000  
 114154252.790 7  88951430.450 7  21722833.451                    21722848.854  
     -1709.266       -1331.691          43.000          44.000  
 110832740.368 7  86363232.221 7  21090771.293                    21090784.341  
     -1724.004       -1343.113          45.000          43.000  
 109095007.220 7  85009164.494 7  20760090.756                    20760107.071  
       194.836         152.180          46.000          44.000  
 117456441.848 7  91524586.399 7  22351217.916                    22351237.794  
      2959.172        2305.832          46.000          42.000  
 127826760.891 6  99605344.636 6  24324626.187                    24324644.222  
     -3269.688       -2547.574          37.000          38.000  
 24  1 10  3 17  2.0000000  0  7G24G16G18G23G10G32G15
 129644396.996 6 101021699.229 6  24670507.993                    24670530.760  
       389.828         303.492          38.000          40.000  
 128962721.743 5 100490616.642 2  24540811.881    24540835.312                  
     -2166.406       -1688.117          35.000          17.000  
 114154423.652 7  88951563.558 7  21722866.566                    21722881.157  
     -1708.699       -1331.359          43.000          44.000  
 110832912.810 7  86363366.602 7  21090803.960                    21090817.752  
     -1724.305       -1343.531          45.000          43.000  
 109094987.732 7  85009149.314 7  20760087.345                    20760102.841  
       194.945         151.445          45.000          44.000  
 117456145.890 7  91524355.764 7  22351161.566                    22351181.220  
      2959.438        2306.133          46.000          42.000  
 127827087.871 6  99605599.438 6  24324688.636                    24324706.736  
     -3269.918       -2548.020          37.000          38.000  
 24  1 10  3 17  2.1000000  0  7G24G16G18G23G10G32G15
 129644358.023 6 101021668.838 6  24670500.577                    24670523.339  
       389.547         303.781          38.000          40.000  
 128962938.481 5 100490785.526 2  24540853.125    24540876.556                  
     -2167.051       -1688.625          35.000          17.000  
 114154594.509 7  88951696.728 7  21722899.079                    21722913.678  
     -1708.629       -1331.531          43.000          44.000  
 110833085.289 7  86363500.970 7  21090836.781                    21090850.566  
     -1724.891       -1344.008          44.000          44.000  
 109094968.375 7  85009134.246 7  20760083.661                    20760099.161  
       193.477         151.035          46.000          44.000  
 117455849.909 7  91524125.145 7  22351105.243                    22351124.901  
      2959.965        2306.180          46.000          42.000  
 127827414.940 6  99605854.270 6  24324750.875                    24324768.969  
     -3270.355       -2548.203          37.000          38.000  
 24  1 10  3 17  2.2000000  0  7G24G16G18G23G10G32G15
 129644318.996 6 101021638.446 6  24670493.463                    24670515.432  
       390.371         304.023          37.000          39.000  
 128963155.176 6 100490954.379 3  24540894.282    24540917.760                  
     -2167.336       -1688.848          36.000          18.000  
 114154765.383 7  88951829.853 7  21722931.627                    21722946.329  
     -1708.438       -1331.137          43.000          44.000  
 110833257.843 7  86363635.459 7  21090869.281                    21090883.863  
     -1725.391       -1344.426          44.000          44.000  
 109094949.051 7  85009119.164 7  20760079.648                    20760095.407  
       193.090         150.445          46.000          44.000  
 117455553.894 7  91523894.488 7  22351049.030                    22351068.595  
      2960.066        2306.672          46.000          42.000  
 127827741.979 6  99606109.107 6  24324813.382                    24324831.054  
     -3270.602       -2548.438          37.000          38.000  
 24  1 10  3 17  2.3000000  0  7G24G16G18G23G10G32G15
 129644280.061 6 101021608.032 6  24670486.054                    24670508.005  
       389.449         303.980          37.000          39.000  
 128963372.036 6 100491123.360 2  24540935.549    24540959.027                  
     -2168.234       -1689.520          36.000          17.000  
 114154936.216 7  88951962.989 7  21722964.135                    21722978.843  
     -1708.500       -1331.418          42.000          44.000  
 110833430.419 7  86363769.904 7  21090902.121                    21090916.696  
     -1725.855       -1344.816          44.000          44.000  
 109094929.799 7  85009104.204 7  20760075.985                    20760091.754  
       192.633         149.820          46.000          44.000  
 117455257.873 7  91523663.818 6  22350992.699                    22351012.263  
      2960.176        2306.633          46.000          41.000  
 127828069.112 6  99606363.970 6  24324875.633                    24324893.294  
     -3271.270       -2548.746          37.000          38.000  
 24  1 10  3 17  2.4000000  0  7G24G16G18G23G10G32G15
 129644240.991 6 101021577.624 6  24670478.189                    24670500.532  
       390.477         304.359          37.000          39.000  
 128963588.800 6 100491292.264 2  24540976.853    24541000.290                  
     -2167.562       -1688.984          36.000          17.000  
 114155107.100 6  88952096.121 7  21722995.974                    21723011.277  
     -1709.176       -1331.129          41.000          44.000  
 110833603.079 7  86363904.462 7  21090934.657                    21090949.658  
     -1726.707       -1345.324          44.000          44.000  
 109094910.648 7  85009089.258 7  20760072.145                    20760088.206  
       191.418         149.375          46.000          44.000  
 117454961.842 7  91523433.124 6  22350936.546                    22350955.715  
      2960.371        2306.883          46.000          41.000  
 127828396.229 6  99606618.928 6  24324938.069                    24324955.722  
     -3271.152       -2549.254          36.000          38.000  
 24  1 10  3 17  2.5000000  0  7G24G16G18G23G10G32G15
 129644201.941 6 101021547.181 6  24670470.759                    24670493.097  
       390.586         304.297          37.000          40.000  
 128963805.713 5 100491461.275 2  24541018.130    24541041.565                  
     -2168.930       -1689.992          35.000          17.000  
 114155277.950 6  88952229.215 7  21723028.485                    21723043.780  
     -1708.094       -1331.316          40.000          43.000  
 110833775.743 7  86364038.965 7  21090967.514                    21090982.505  
     -1726.844       -1345.305          44.000          44.000  
 109094891.509 7  85009074.341 7  20760068.503                    20760084.563  
       191.285         149.090          46.000          44.000  
 117454665.786 7  91523202.434 6  22350880.208                    22350899.378  
      2960.648        2306.965          46.000          41.000  
 127828723.418 6  99606873.834 6  24325000.331                    24325017.972  
     -3271.703       -2549.047          36.000          38.000  
 24  1 10  3 17  2.6000000  0  7G24G16G18G23G10G32G15
 129644162.827 6 101021516.729 6  24670463.784                    24670485.747  
       390.738         304.551          38.000          39.000  
 128964022.561 5 100491630.239 2  24541059.613    24541082.882                  
     -2168.449       -1689.703          35.000          17.000  
 114155448.795 6  88952362.364 7  21723059.926                    21723075.991  
     -1708.594       -1331.316          40.000          43.000  
 110833948.483 7  86364173.564 7  21090999.901                    21091015.243  
     -1726.879       -1345.859          44.000          44.000  
 109094872.416 7  85009059.502 7  20760065.151                    20760081.236  
       191.367         148.637          46.000          44.000  
 117454369.705 7  91522971.728 6  22350823.647                    22350842.912  
      2960.711        2307.227          46.000          41.000  
 127829050.586 6  99607128.773 6  24325062.276                    24325080.028  
     -3271.492       -2549.547          36.000          38.000  
 24  1 10  3 17  2.7000000  0  7G24G16G18G23G10G32G15
 129644123.715 6 101021486.296 6  24670456.341                    24670478.315  
       390.961         304.445          38.000          39.000  
 128964239.561 5 100491799.325 2  24541100.907    24541124.175                  
     -2169.273       -1690.684          35.000          17.000  
 114155619.565 6  88952495.463 7  21723092.422                    21723108.496  
     -1707.895       -1331.000          41.000          43.000  
 110834121.262 7  86364308.195 7  21091032.780                    21091048.121  
     -1727.387       -1346.348          44.000          44.000  
 109094853.414 7  85009044.690 7  20760061.535                    20760077.619  
       190.637         148.242          46.000          44.000  
 117454073.621 7  91522740.974 6  22350767.304                    22350786.560  
      2960.629        2307.055          46.000          41.000  
 127829377.780 6  99607383.748 6  24325124.539                    24325142.295  
     -3271.957       -2549.496          36.000          38.000  
 24  1 10  3 17  2.8000000  0  7G24G16G18G23G10G32G15
 129644084.539 6 101021455.806 6  24670449.097                    24670470.408  
       391.402         304.680          39.000          39.000  
 128964456.503 6 100491968.371 2  24541142.245    24541165.457                  
     -2169.301       -1690.438          36.000          17.000  
 114155790.400 7  88952628.592 7  21723125.665                    21723140.624  
     -1708.156       -1331.145          42.000          43.000  
 110834293.998 7  86364442.815 7  21091065.588                    21091081.215  
     -1727.398       -1346.340          44.000          44.000  
 109094834.425 7  85009029.880 7  20760058.054                    20760073.728  
       190.176         147.922          47.000          44.000  
 117453777.501 7  91522510.259 6  22350711.564                    22350730.607  
      2960.977        2307.293          46.000          41.000  
 127829704.952 6  99607638.692 6  24325186.431                    24325204.477  
     -3271.699       -2549.551          36.000          38.000  
 24  1 10  3 17  2.9000000  0  7G24G16G18G23G10G32G15
 129644045.397 6 101021425.307 6  24670441.649                    24670462.960  
       391.277         305.008          38.000          38.000  
 128964673.492 5 100492137.444 2  24541183.536    24541206.747                  
     -2169.613       -1690.719          35.000          16.000  
 114155961.170 7  88952761.638 7  21723158.162                    21723173.115  
     -1707.918       -1330.477          42.000          44.000  
 110834466.741 7  86364577.471 7  21091098.460                    21091114.100  
     -1727.414       -1346.312          45.000          44.000  
 109094815.446 7  85009015.055 7  20760054.443                    20760070.108  
       189.941         148.035          47.000          44.000  
 117453481.386 7  91522279.498 6  22350655.215                    22350674.253  
      2961.133        2307.512          46.000          41.000  
 127830032.196 6  99607893.634 6  24325248.703                    24325266.737  
     -3271.969       -2549.535          36.000          38.000  
 24  1 10  3 17  3.0000000  0  7G24G16G18G23G10G32G15
 129644006.238 6 101021394.831 6  24670434.213                    24670455.048  
       391.414         304.793          37.000          38.000  
 128964890.433 5 100492306.485 2  24541224.686    24541248.028                  
     -2169.488       -1690.438          35.000          17.000  
 114156131.881 6  88952894.627 7  21723191.233                    21723205.843  
     -1707.461       -1330.277          41.000          44.000  
 110834639.499 7  86364712.078 7  21091131.756                    21091145.519  
     -1727.402       -1345.820          45.000          44.000  
 109094796.421 7  85009000.259 7  20760051.377                    20760066.760  
       190.250         148.070          47.000          44.000  
 117453185.197 7  91522048.727 6  22350599.079                    22350617.889  
      2961.648        2307.992          46.000          41.000  
 127830359.313 6  99608148.589 6  24325310.913                    24325328.671  
     -3271.633       -2549.363          36.000          38.000  
 24  1 10  3 17  3.1000000  0  7G24G16G18G23G10G32G15
 129643967.055 6 101021364.239 6  24670426.756                    24670447.578  
       391.641         305.570          36.000          38.000  
 128965107.432 6 100492475.578 2  24541265.979    24541289.323                  
     -2169.762       -1690.863          36.000          16.000  
 114156302.627 6  88953027.676 7  21723223.725                    21723238.334  
     -1707.324       -1330.016          41.000          44.000  
 110834812.233 7  86364846.626 7  21091164.627                    21091178.377  
     -1727.324       -1345.773          45.000          44.000  
 109094777.429 7  85008985.474 7  20760047.763                    20760063.150  
       190.074         148.137          47.000          44.000  
 117452889.016 7  91521817.921 6  22350542.718                    22350561.523  
      2961.664        2307.809          46.000          41.000  
 127830686.488 6  99608403.509 6  24325373.172                    24325390.925  
     -3271.719       -2549.316          36.000          37.000  
 24  1 10  3 17  3.2000000  0  7G24G16G18G23G10G32G15
 129643927.915 5 101021333.724 6  24670418.972                    24670439.438  
       391.777         305.301          34.000          38.000  
 128965324.437 6 100492644.677 2  24541307.298    24541330.610                  
     -2169.934       -1690.996          36.000          16.000  
 114156473.333 6  88953160.668 7  21723255.545                    21723271.039  
     -1707.254       -1330.098          41.000          44.000  
 110834984.948 7  86364981.233 7  21091196.915                    21091211.913  
     -1727.301       -1345.832          45.000          44.000  
 109094758.460 7  85008970.670 7  20760043.599                    20760059.792  
       189.863         147.926          47.000          44.000  
 117452592.817 7  91521587.114 6  22350486.087                    22350505.275  
      2961.855        2308.188          46.000          41.000  
 127831013.651 6  99608658.451 6  24325435.304                    24325452.755  
     -3271.691       -2549.797          36.000          37.000  
 24  1 10  3 17  3.3000000  0  7G24G16G18G23G10G32G15
 129643888.627 5 101021303.183 6  24670411.496                    24670431.979  
       392.121         305.488          35.000          38.000  
 128965541.483 5 100492813.810 2  24541348.600    24541371.914                  
     -2170.203       -1691.273          35.000          17.000  
 114156643.944 6  88953293.671 7  21723288.011                    21723303.520  
     -1706.734       -1330.281          41.000          43.000  
 110835157.674 7  86365115.806 7  21091229.784                    21091244.778  
     -1727.352       -1345.977          45.000          44.000  
 109094739.454 7  85008955.864 7  20760039.982                    20760056.176  
       189.941         147.922          47.000          44.000  
 117452296.610 7  91521356.302 6  22350429.721                    22350448.909  
      2961.965        2308.328          46.000          41.000  
 127831340.855 6  99608913.448 6  24325497.569                    24325515.028  
     -3271.645       -2549.750          36.000          38.000  
 24  1 10  3 17  3.4000000  0  7G24G16G18G23G10G32G15
 129643849.453 6 101021272.613 6  24670403.846                    24670424.600  
       391.934         305.727          36.000          38.000  
 128965758.527 5 100492982.939 2  24541389.754    24541413.264                  
     -2170.352       -1691.375          35.000          17.000  
 114156814.610 6  88953426.672 7  21723320.746                    21723335.617  
     -1706.656       -1329.613          41.000          43.000  
 110835330.402 7  86365250.397 7  21091262.309                    21091278.005  
     -1727.180       -1345.840          45.000          44.000  
 109094720.468 7  85008941.085 7  20760036.572                    20760052.395  
       189.941         147.949          47.000          44.000  
 117452000.383 7  91521125.465 6  22350373.382                    22350392.278  
      2962.129        2308.266          46.000          41.000  
 127831668.045 6  99609168.376 6  24325559.573                    24325577.323  
     -3271.977       -2549.355          36.000          38.000  
 24  1 10  3 17  3.5000000  0  7G24G16G18G23G10G32G15
 129643810.279 6 101021242.061 6  24670396.392                    24670417.139  
       391.824         305.312          38.000          37.000  
 128965975.557 6 100493152.047 2  24541431.053    24541454.562                  
     -2170.242       -1691.031          36.000          17.000  
 114156985.259 6  88953559.633 7  21723353.219                    21723368.088  
     -1706.512       -1329.902          41.000          43.000  
 110835503.067 7  86365384.959 7  21091295.166                    21091310.867  
     -1727.000       -1345.750          45.000          44.000  
 109094701.466 7  85008926.277 7  20760032.956                    20760048.779  
       190.008         148.031          47.000          44.000  
 117451704.155 7  91520894.689 6  22350317.012                    22350335.920  
      2962.355        2308.047          46.000          41.000  
 127831995.193 5  99609423.306 6  24325621.827                    24325639.579  
     -3271.789       -2549.441          35.000          38.000  
 24  1 10  3 17  3.6000000  0  7G24G16G18G23G10G32G15
 129643771.108 6 101021211.502 6  24670389.930                    24670409.903  
       391.762         305.590          39.000          38.000  
 128966192.584 6 100493321.153 3  24541472.204    24541495.860                  
     -2170.355       -1691.227          36.000          18.000  
 114157155.953 6  88953692.639 7  21723386.061                    21723400.475  
     -1706.902       -1329.797          41.000          42.000  
 110835675.841 7  86365519.586 7  21091328.763                    21091343.650  
     -1727.301       -1346.148          45.000          44.000  
 109094682.500 7  85008911.490 7  20760029.105                    20760045.566  
       189.820         147.863          47.000          44.000  
 117451407.929 7  91520663.827 6  22350260.142                    22350279.487  
      2962.191        2308.391          46.000          41.000  
 127832322.460 6  99609678.312 6  24325684.260                    24325702.011  
     -3272.105       -2549.910          36.000          38.000  
 24  1 10  3 17  3.7000000  0  7G24G16G18G23G10G32G15
 129643731.929 6 101021180.962 6  24670382.474                    24670402.444  
       391.766         305.367          41.000          38.000  
 128966409.688 6 100493490.318 3  24541513.517    24541537.172                  
     -2170.781       -1691.727          37.000          18.000  
 114157326.663 7  88953825.618 7  21723418.546                    21723432.950  
     -1706.934       -1330.199          42.000          42.000  
 110835848.605 7  86365654.212 7  21091361.639                    21091376.527  
     -1727.551       -1346.266          45.000          44.000  
 109094663.579 7  85008896.757 7  20760025.504                    20760041.968  
       189.465         147.254          47.000          44.000  
 117451111.733 7  91520433.013 6  22350203.777                    22350223.119  
      2962.027        2308.016          46.000          41.000  
 127832649.647 6  99609933.252 6  24325746.522                    24325764.270  
     -3271.902       -2549.457          36.000          38.000  
 24  1 10  3 17  3.8000000  0  7G24G16G18G23G10G32G15
 129643692.736 6 101021150.472 6  24670376.001                    24670395.772  
       391.859         304.902          41.000          38.000  
 128966626.804 6 100493659.497 2  24541555.067    24541578.495                  
     -2170.812       -1691.496          37.000          17.000  
 114157497.415 7  88953958.722 7  21723451.554                    21723465.354  
     -1707.191       -1330.473          42.000          42.000  
 110836021.462 7  86365788.882 7  21091394.579                    21091409.681  
     -1728.016       -1346.625          44.000          44.000  
 109094644.700 7  85008882.039 7  20760021.974                    20760038.405  
       189.035         147.172          47.000          44.000  
 117450815.560 7  91520202.263 6  22350147.363                    22350167.112  
      2961.902        2307.754          46.000          41.000  
 127832976.954 6  99610188.231 6  24325808.744                    24325826.866  
     -3272.715       -2549.973          36.000          38.000  
 24  1 10  3 17  3.9000000  0  7G24G16G18G23G10G32G15
 129643653.560 6 101021119.974 6  24670368.546                    24670388.324  
       391.816         305.023          41.000          39.000  
 128966843.930 6 100493828.688 2  24541596.385    24541619.813                  
     -2171.094       -1691.914          36.000          17.000  
 114157668.115 7  88954091.703 7  21723484.037                    21723497.829  
     -1707.180       -1330.320          42.000          42.000  
 110836194.262 7  86365923.564 7  21091427.462                    21091442.571  
     -1728.289       -1347.148          44.000          44.000  
 109094625.861 7  85008867.343 7  20760018.389                    20760034.817  
       188.703         146.832          47.000          44.000  
 117450519.385 7  91519971.468 6  22350091.003                    22350110.749  
      2961.797        2307.855          46.000          41.000  
 127833304.154 6  99610443.279 6  24325871.008                    24325889.152  
     -3272.305       -2550.230          36.000          38.000  
 24  1 10  3 17  4.0000000  0  7G24G16G18G23G10G32G15
 129643614.394 6 101021089.498 6  24670361.452                    24670381.053  
       391.801         304.855          40.000          39.000  
 128967061.109 6 100493997.920 2  24541637.768    24541661.156                  
     -2171.520       -1692.367          36.000          17.000  
 114157838.889 7  88954224.798 7  21723516.660                    21723530.075  
     -1707.562       -1330.660          42.000          43.000  
 110836367.160 7  86366058.272 7  21091460.308                    21091475.383  
     -1728.637       -1346.852          44.000          44.000  
 109094607.072 7  85008852.720 7  20760014.939                    20760030.363  
       188.195         146.289          47.000          44.000  
 117450223.218 7  91519740.699 6  22350034.363                    22350054.159  
      2961.738        2307.824          46.000          41.000  
 127833631.495 6  99610698.314 6  24325933.197                    24325950.887  
     -3272.676       -2550.457          36.000          38.000  
 24  1 10  3 17  4.1000000  0  7G24G16G18G23G10G32G15
 129643575.313 6 101021058.978 6  24670354.015                    24670373.600  
       391.145         305.242          39.000          39.000  
 128967278.277 6 100494167.146 2  24541679.093    24541702.483                  
     -2171.711       -1692.480          36.000          17.000  
 114158009.594 6  88954357.797 7  21723549.144                    21723562.554  
     -1707.293       -1330.488          41.000          43.000  
 110836540.072 7  86366192.972 7  21091493.213                    21091508.278  
     -1728.844       -1347.270          45.000          44.000  
 109094588.323 7  85008838.094 7  20760011.371                    20760026.791  
       187.777         146.262          47.000          44.000  
 117449927.031 7  91519509.912 6  22349978.000                    22349997.798  
      2961.902        2307.652          46.000          41.000  
 127833958.797 6  99610953.373 6  24325995.481                    24326013.175  
     -3273.000       -2550.578          36.000          38.000  
 24  1 10  3 17  4.2000000  0  7G24G16G18G23G10G32G15
 129643536.152 6 101021028.441 6  24670345.891                    24670366.291  
       391.508         305.316          37.000          39.000  
 128967495.500 5 100494336.412 2  24541720.406    24541743.859                  
     -2171.891       -1692.543          35.000          17.000  
 114158180.284 6  88954490.842 7  21723581.094                    21723595.654  
     -1706.922       -1329.973          41.000          43.000  
 110836712.985 7  86366327.752 7  21091525.898                    21091540.974  
     -1728.977       -1347.570          45.000          44.000  
 109094569.597 7  85008823.509 7  20760008.292                    20760023.378  
       187.539         145.859          47.000          44.000  
 117449630.795 7  91519279.089 6  22349921.886                    22349941.304  
      2961.988        2308.230          46.000          41.000  
 127834286.082 6  99611208.411 6  24326058.011                    24326075.262  
     -3272.832       -2550.531          36.000          38.000  
 24  1 10  3 17  4.3000000  0  7G24G16G18G23G10G32G15
 129643496.924 6 101020997.869 6  24670338.426                    24670358.825  
       391.867         305.797          36.000          40.000  
 128967712.796 5 100494505.738 2  24541761.756    24541785.210                  
     -2172.449       -1693.145          35.000          17.000  
 114158350.987 7  88954623.825 7  21723613.577                    21723628.130  
     -1706.848       -1329.789          42.000          43.000  
 110836885.881 7  86366462.466 7  21091558.799                    21091573.872  
     -1728.961       -1347.270          45.000          44.000  
 109094550.897 7  85008808.929 7  20760004.733                    20760019.817  
       187.168         145.773          47.000          44.000  
 117449334.550 7  91519048.225 6  22349865.513                    22349884.925  
      2962.258        2308.391          46.000          41.000  
 127834613.398 6  99611463.493 6  24326120.297                    24326137.556  
     -3273.098       -2550.613          36.000          38.000  
 24  1 10  3 17  4.4000000  0  7G24G16G18G23G10G32G15
 129643457.648 6 101020967.270 6  24670329.796                    24670351.430  
       392.961         305.734          36.000          40.000  
 128967930.098 5 100494675.062 2  24541802.834    24541826.584                  
     -2172.949       -1693.246          35.000          17.000  
 114158521.574 7  88954756.740 7  21723645.844                    21723660.761  
     -1706.336       -1329.656          42.000          43.000  
 110837058.821 7  86366597.226 7  21091592.021                    21091606.626  
     -1729.352       -1347.668          44.000          44.000  
 109094532.218 7  85008794.353 7  20760000.999                    20760016.578  
       186.828         145.695          46.000          44.000  
 117449038.250 7  91518817.374 6  22349809.269                    22349828.478  
      2963.359        2308.879          46.000          41.000  
 127834940.752 6  99611718.538 6  24326182.364                    24326200.169  
     -3273.539       -2550.566          36.000          38.000  
 24  1 10  3 17  4.5000000  0  7G24G16G18G23G10G32G15
 129643418.187 6 101020936.642 6  24670322.287                    24670343.951  
       394.129         306.344          36.000          40.000  
 128968147.400 5 100494844.374 2  24541844.185    24541867.932                  
     -2173.273       -1693.332          34.000          17.000  
 114158692.119 7  88954889.650 7  21723678.297                    21723693.219  
     -1705.207       -1328.871          42.000          43.000  
 110837231.753 7  86366731.994 7  21091624.929                    21091639.537  
     -1729.367       -1347.598          44.000          44.000  
 109094513.556 7  85008779.831 7  20759997.448                    20760013.031  
       186.684         145.371          46.000          44.000  
 117448741.862 7  91518586.414 6  22349752.868                    22349772.075  
      2963.918        2309.680          46.000          41.000  
 127835268.095 6  99611973.606 6  24326244.655                    24326262.459  
     -3273.578       -2550.773          37.000          38.000  
 24  1 10  3 17  4.6000000  0  7G24G16G18G23G10G32G15
 129643378.809 5 101020905.965 6  24670314.231                    24670336.506  
       393.672         306.797          35.000          39.000  
 128968364.674 5 100495013.664 2  24541885.640    24541909.360                  
     -2173.164       -1693.211          34.000          17.000  
 114158862.634 7  88955022.514 7  21723710.831                    21723725.221  
     -1705.004       -1328.445          43.000          43.000  
 110837404.682 7  86366866.715 7  21091658.281                    21091672.039  
     -1729.180       -1347.320          44.000          43.000  
 109094494.921 7  85008765.303 7  20759993.644                    20760009.663  
       186.328         145.152          46.000          44.000  
 117448445.424 7  91518355.416 6  22349696.380                    22349715.327  
      2964.422        2309.805          46.000          41.000  
 127835595.464 6  99612228.725 6  24326306.967                    24326325.082  
     -3273.676       -2551.074          37.000          38.000  
 24  1 10  3 17  4.7000000  0  7G24G16G18G23G10G32G15
 129643339.474 5 101020875.241 6  24670306.746                    24670329.003  
       393.941         307.105          35.000          39.000  
 128968582.107 5 100495183.087 2  24541927.016    24541950.735                  
     -2174.035       -1694.012          34.000          17.000  
 114159033.083 7  88955155.339 7  21723743.267                    21723757.658  
     -1704.605       -1328.402          44.000          43.000  
 110837577.672 7  86367001.530 7  21091691.200                    21091704.962  
     -1729.801       -1347.719          45.000          43.000  
 109094476.313 7  85008750.844 7  20759990.103                    20760006.132  
       186.113         144.719          46.000          44.000  
 117448148.943 7  91518124.410 6  22349639.962                    22349658.913  
      2964.844        2310.309          46.000          41.000  
 127835922.829 6  99612483.824 6  24326369.263                    24326387.380  
     -3273.688       -2550.961          36.000          38.000  
 24  1 10  3 17  4.8000000  0  7G24G16G18G23G10G32G15
 129643300.019 5 101020844.477 6  24670298.660                    24670321.506  
       394.062         307.574          35.000          39.000  
 128968799.584 5 100495352.545 2  24541968.002    24541992.149                  
     -2174.484       -1694.391          34.000          16.000  
 114159203.536 7  88955288.152 7  21723776.546                    21723790.475  
     -1704.293       -1327.992          44.000          43.000  
 110837750.630 7  86367136.268 7  21091724.293                    21091736.882  
     -1729.934       -1347.969          45.000          43.000  
 109094457.785 7  85008736.376 7  20759986.320                    20760002.458  
       185.324         144.574          46.000          44.000  
 117447852.455 7  91517893.357 6  22349583.612                    22349602.886  
      2964.809        2310.402          46.000          41.000  
 127836250.271 6  99612738.925 6  24326431.229                    24326450.014  
     -3274.191       -2551.074          37.000          38.000  
 24  1 10  3 17  4.9000000  0  7G24G16G18G23G10G32G15
 129643260.651 6 101020813.743 6  24670291.168                    24670314.000  
       393.949         307.449          36.000          39.000  
 128969017.054 5 100495522.019 2  24542009.385    24542033.537                  
     -2174.949       -1694.891          35.000          16.000  
 114159373.929 7  88955420.945 7  21723808.971                    21723822.905  
     -1704.273       -1328.090          44.000          44.000  
 110837923.686 7  86367271.157 7  21091757.224                    21091769.824  
     -1730.199       -1348.383          45.000          44.000  
 109094439.280 7  85008721.965 7  20759982.798                    20759998.939  
       184.938         144.125          46.000          44.000  
 117447555.952 7  91517662.300 7  22349527.190                    22349546.459  
      2965.145        2310.582          46.000          42.000  
 127836577.683 6  99612994.020 6  24326493.534                    24326512.311  
     -3273.938       -2551.133          37.000          38.000  
 24  1 10  3 17  5.0000000  0  7G24G16G18G23G10G32G15
 129643221.231 6 101020783.028 6  24670283.909                    24670306.156  
       394.078         307.227          37.000          39.000  
 128969234.502 5 100495691.479 2  24542050.866    24542074.920                  
     -2174.441       -1694.523          35.000          17.000  
 114159544.359 7  88955553.758 7  21723841.778                    21723855.354  
     -1704.281       -1328.023          43.000          44.000  
 110838096.745 7  86367405.991 7  21091789.969                    21091803.798  
     -1730.355       -1348.512          45.000          44.000  
 109094420.827 7  85008707.591 7  20759979.474                    20759995.835  
       184.832         143.656          46.000          44.000  
 117447259.421 7  91517431.239 6  22349470.480                    22349490.220  
      2965.082        2310.562          46.000          41.000  
 127836905.086 6  99613249.204 6  24326555.696                    24326574.559  
     -3274.074       -2551.562          36.000          38.000  
 24  1 10  3 17  5.1000000  0  7G24G16G18G23G10G32G15
 129643181.757 6 101020752.297 6  24670276.397                    24670298.651  
       394.383         307.258          36.000          39.000  
 128969452.059 5 100495861.002 2  24542092.266    24542116.320                  
     -2175.039       -1695.199          35.000          17.000  
 114159714.798 7  88955686.559 7  21723874.211                    21723887.786  
     -1704.379       -1328.023          42.000          44.000  
 110838269.820 7  86367540.851 7  21091822.904                    21091836.733  
     -1730.746       -1348.652          45.000          44.000  
 109094402.421 7  85008693.244 7  20759975.972                    20759992.331  
       184.504         143.551          46.000          44.000  
 117446962.884 7  91517200.177 6  22349414.051                    22349433.792  
      2965.234        2310.777          45.000          41.000  
 127837232.540 6  99613504.377 6  24326618.008                    24326636.875  
     -3274.336       -2551.594          36.000          38.000  
 24  1 10  3 17  5.2000000  0  7G24G16G18G23G10G32G15
 129643142.327 6 101020721.488 6  24670269.019                    24670290.783  
       394.406         307.848          36.000          39.000  
 128969669.555 5 100496030.490 2  24542133.529    24542157.687                  
     -2175.012       -1694.957          35.000          17.000  
 114159885.274 6  88955819.362 7  21723905.871                    21723920.507  
     -1704.488       -1327.906          41.000          44.000  
 110838442.920 7  86367675.730 7  21091855.758                    21091870.250  
     -1730.801       -1348.848          45.000          44.000  
 109094384.007 7  85008678.895 7  20759972.311                    20759988.506  
       184.230         143.441          46.000          44.000  
 117446666.322 7  91516969.086 7  22349357.664                    22349377.404  
      2965.438        2310.781          45.000          42.000  
 127837560.020 6  99613759.497 6  24326680.427                    24326698.701  
     -3274.559       -2551.469          37.000          38.000  
 24  1 10  3 17  5.3000000  0  7G24G16G18G23G10G32G15
 129643102.771 5 101020690.770 6  24670261.492                    24670283.281  
       395.020         307.277          35.000          39.000  
 128969887.127 5 100496200.035 2  24542174.931    24542199.092                  
     -2175.316       -1695.176          35.000          17.000  
 114160055.684 6  88955952.139 7  21723938.299                    21723952.932  
     -1704.176       -1327.828          41.000          44.000  
 110838616.037 7  86367810.646 7  21091888.701                    21091903.197  
     -1730.934       -1348.981          45.000          44.000  
 109094365.615 7  85008664.569 7  20759968.811                    20759985.008  
       184.117         143.273          46.000          44.000  
 117446369.759 7  91516738.002 7  22349301.230                    22349320.971  
      2965.574        2311.012          45.000          42.000  
 127837887.529 6  99614014.658 6  24326742.750                    24326761.014  
     -3274.680       -2551.430          37.000          38.000  
 24  1 10  3 17  5.4000000  0  7G24G16G18G23G10G32G15
 129643063.260 5 101020660.023 6  24670253.575                    24670275.866  
       394.879         307.324          34.000          39.000  
 128970104.651 6 100496369.530 2  24542216.098    24542240.469                  
     -2175.297       -1695.086          36.000          17.000  
 114160226.087 7  88956084.933 7  21723970.647                    21723985.682  
     -1704.250       -1328.027          42.000          44.000  
 110838789.156 7  86367945.537 7  21091921.832                    21091936.350  
     -1731.109       -1348.961          45.000          44.000  
 109094347.233 7  85008650.228 7  20759964.845                    20759981.006  
       183.934         143.461          46.000          44.000  
 117446073.202 7  91516506.904 6  22349244.907                    22349264.433  
      2965.676        2310.988          45.000          41.000  
 127838214.958 6  99614269.850 6  24326805.316                    24326822.655  
     -3274.617       -2552.062          37.000          38.000  
 24  1 10  3 17  5.5000000  0  7G24G16G18G23G10G32G15
 129643023.927 5 101020629.341 6  24670246.090                    24670268.373  
       394.160         307.008          33.000          39.000  
 128970322.140 5 100496538.995 3  24542257.485    24542281.854                  
     -2175.082       -1694.727          35.000          18.000  
 114160396.505 7  88956217.756 7  21724003.076                    21724018.119  
     -1704.156       -1328.121          43.000          43.000  
 110838962.282 7  86368080.408 7  21091954.776                    21091969.287  
     -1731.211       -1348.727          45.000          44.000  
 109094328.840 7  85008635.887 7  20759961.345                    20759977.504  
       183.961         143.441          47.000          44.000  
 117445776.593 7  91516275.800 6  22349188.464                    22349207.995  
      2965.898        2310.852          45.000          41.000  
 127838542.497 6  99614525.074 6  24326867.644                    24326884.983  
     -3275.023       -2552.023          38.000          38.000  
 24  1 10  3 17  5.6000000  0  7G24G16G18G23G10G32G15
 129642984.520 5 101020598.604 6  24670238.419                    24670261.250  
       394.305         307.270          34.000          39.000  
 128970539.696 6 100496708.506 3  24542299.150    24542323.242                  
     -2175.457       -1695.305          36.000          18.000  
 114160567.000 7  88956350.591 7  21724035.763                    21724050.160  
     -1704.633       -1328.238          43.000          43.000  
 110839135.419 7  86368215.321 7  21091987.825                    21092002.195  
     -1731.324       -1349.160          45.000          45.000  
 109094310.517 7  85008621.590 7  20759958.155                    20759973.645  
       183.605         143.008          47.000          44.000  
 117445480.025 7  91516044.753 6  22349132.076                    22349151.602  
      2965.730        2310.602          46.000          41.000  
 127838870.021 6  99614780.279 6  24326930.134                    24326947.510  
     -3275.168       -2552.133          37.000          38.000  
 24  1 10  3 17  5.7000000  0  7G24G16G18G23G10G32G15
 129642945.035 5 101020567.849 6  24670230.905                    24670253.739  
       394.445         307.516          35.000          39.000  
 128970757.344 6 100496878.094 3  24542340.567    24542364.657                  
     -2175.992       -1695.809          37.000          19.000  
 114160737.443 7  88956483.405 7  21724068.197                    21724082.595  
     -1704.551       -1328.414          43.000          43.000  
 110839308.671 7  86368350.312 7  21092020.794                    21092035.161  
     -1731.777       -1349.625          44.000          45.000  
 109094292.253 7  85008607.358 7  20759954.679                    20759970.169  
       183.047         142.340          47.000          44.000  
 117445183.518 7  91515813.704 6  22349075.652                    22349095.178  
      2965.344        2310.629          46.000          41.000  
 127839197.497 6  99615035.467 6  24326992.451                    24327009.829  
     -3274.738       -2552.129          37.000          38.000  
 24  1 10  3 17  5.8000000  0  7G24G16G18G23G10G32G15
 129642905.551 6 101020537.106 6  24670224.275                    24670246.068  
       394.703         307.246          36.000          39.000  
 128970975.014 6 100497047.701 3  24542381.707    24542406.085                  
     -2176.344       -1696.004          37.000          19.000  
 114160907.897 7  88956616.239 7  21724100.446                    21724115.261  
     -1704.578       -1328.176          43.000          44.000  
 110839481.856 7  86368485.258 7  21092052.976                    21092067.710  
     -1732.012       -1349.961          44.000          45.000  
 109094274.013 7  85008593.147 7  20759951.427                    20759966.996  
       182.605         142.043          47.000          44.000  
 117444887.000 7  91515582.629 6  22349019.172                    22349038.403  
      2965.129        2310.523          46.000          40.000  
 127839525.057 6  99615290.716 6  24327054.338                    24327072.594  
     -3275.359       -2552.238          37.000          38.000  
 24  1 10  3 17  5.9000000  0  7G24G16G18G23G10G32G15
 129642866.092 6 101020506.360 6  24670216.766                    24670238.559  
       394.598         307.562          36.000          39.000  
 128971192.709 6 100497217.317 3  24542423.133    24542447.507                  
     -2176.531       -1695.973          37.000          19.000  
 114161078.375 7  88956749.072 7  21724132.887                    21724147.700  
     -1704.508       -1328.270          44.000          43.000  
 110839655.063 7  86368620.281 7  21092085.936                    21092100.684  
     -1732.012       -1350.027          43.000          44.000  
 109094255.815 8  85008578.971 7  20759947.964                    20759963.534  
       182.309         141.707          48.000          44.000  
 117444590.473 7  91515351.551 6  22348962.745                    22348981.971  
      2965.242        2310.453          47.000          40.000  
 127839852.513 6  99615545.926 6  24327116.651                    24327134.918  
     -3274.922       -2552.246          36.000          39.000  
 24  1 10  3 17  6.0000000  0  7G24G16G18G23G10G32G15
 129642826.600 5 101020475.648 6  24670210.172                    24670230.809  
       394.801         307.113          34.000          39.000  
 128971410.358 6 100497386.905 3  24542464.566    24542488.930                  
     -2176.535       -1695.910          37.000          20.000  
 114161248.863 7  88956881.898 7  21724165.486                    21724179.934  
     -1704.930       -1328.289          44.000          43.000  
 110839828.331 7  86368755.277 7  21092118.471                    21092133.214  
     -1732.316       -1349.895          43.000          44.000  
 109094237.621 8  85008564.792 7  20759944.470                    20759960.524  
       182.035         141.734          48.000          44.000  
 117444293.993 7  91515120.552 6  22348906.202                    22348925.762  
      2965.051        2310.438          47.000          40.000  
 127840180.093 5  99615801.161 6  24327178.768                    24327197.476  
     -3275.418       -2552.082          35.000          39.000  
 24  1 10  3 17  6.1000000  0  7G24G16G18G23G10G32G15
 129642787.138 5 101020444.872 6  24670202.663                    24670223.293  
       394.699         307.504          33.000          38.000  
 128971628.020 6 100497556.500 3  24542505.986    24542530.347                  
     -2176.637       -1696.078          37.000          20.000  
 114161419.275 7  88957014.688 7  21724197.914                    21724212.363  
     -1704.418       -1328.133          44.000          43.000  
 110840001.532 7  86368890.236 7  21092151.430                    21092166.172  
     -1732.207       -1349.844          43.000          44.000  
 109094219.399 8  85008550.596 7  20759941.003                    20759957.057  
       182.191         141.973          48.000          44.000  
 117443997.467 7  91514889.499 6  22348849.774                    22348869.337  
      2965.242        2310.605          47.000          40.000  
 127840507.648 5  99616056.384 6  24327241.100                    24327259.804  
     -3275.426       -2552.273          35.000          39.000  
 24  1 10  3 17  6.2000000  0  7G24G16G18G23G10G32G15
 129642747.718 5 101020414.139 6  24670195.498                    24670216.061  
       394.359         307.762          32.000          38.000  
 128971845.711 6 100497726.119 3  24542547.349    24542571.754                  
     -2176.703       -1696.062          37.000          20.000  
 114161589.720 7  88957147.544 7  21724230.364                    21724245.089  
     -1704.297       -1328.094          44.000          43.000  
 110840174.722 7  86369025.168 7  21092184.465                    21092199.452  
     -1732.094       -1349.457          43.000          44.000  
 109094201.138 8  85008536.366 7  20759937.590                    20759953.778  
       182.449         142.281          48.000          44.000  
 117443700.902 7  91514658.389 6  22348793.098                    22348812.718  
      2965.398        2311.023          47.000          39.000  
 127840835.256 5  99616311.665 6  24327303.410                    24327322.998  
     -3275.660       -2552.719          35.000          39.000  
 24  1 10  3 17  6.3000000  0  7G24G16G18G23G10G32G15
 129642708.294 5 101020383.357 6  24670187.996                    24670208.544  
       394.414         307.562          32.000          37.000  
 128972063.300 6 100497895.669 3  24542588.754    24542613.159                  
     -2176.363       -1695.750          37.000          20.000  
 114161760.131 7  88957280.311 7  21724262.792                    21724277.512  
     -1704.273       -1328.004          44.000          43.000  
 110840347.893 7  86369160.123 7  21092217.418                    21092232.410  
     -1731.703       -1349.281          44.000          44.000  
 109094182.864 8  85008522.125 7  20759934.113                    20759950.300  
       182.746         142.609          48.000          45.000  
 117443404.339 7  91514427.274 6  22348736.664                    22348756.277  
      2965.676        2311.383          47.000          39.000  
 127841162.781 5  99616566.887 6  24327365.736                    24327385.326  
     -3275.562       -2552.328          35.000          39.000  
 24  1 10  3 17  6.4000000  0  7G24G16G18G23G10G32G15
 129642668.926 5 101020352.683 6  24670180.356                    24670200.819  
       394.008         306.922          32.000          37.000  
 128972280.975 6 100498065.291 3  24542630.044    24542654.583                  
     -2176.539       -1696.047          36.000          20.000  
 114161930.570 7  88957413.149 7  21724294.953                    21724310.210  
     -1704.336       -1328.211          43.000          43.000  
 110840521.071 7  86369295.060 7  21092250.537                    21092265.238  
     -1731.781       -1349.387          44.000          44.000  
 109094164.573 8  85008507.879 7  20759930.617                    20759947.016  
       182.836         142.500          48.000          45.000  
 117443107.790 7  91514196.170 6  22348680.740                    22348699.745  
      2965.492        2310.855          46.000          38.000  
 127841490.421 6  99616822.142 6  24327428.365                    24327447.872  
     -3276.062       -2552.141          36.000          38.000  
 24  1 10  3 17  6.5000000  0  7G24G16G18G23G10G32G15
 129642629.541 5 101020322.038 6  24670172.861                    24670193.335  
       394.012         306.660          32.000          37.000  
 128972498.552 6 100498234.831 3  24542671.447    24542695.986                  
     -2176.062       -1695.422          36.000          20.000  
 114162101.067 7  88957545.999 7  21724327.397                    21724342.654  
     -1704.527       -1328.231          42.000          43.000  
 110840694.233 7  86369429.979 7  21092283.489                    21092298.186  
     -1731.719       -1349.234          44.000          44.000  
 109094146.260 8  85008493.599 7  20759927.132                    20759943.529  
       182.996         142.762          48.000          45.000  
 117442811.283 7  91513965.129 6  22348624.317                    22348643.323  
      2965.188        2310.539          47.000          38.000  
 127841817.997 6  99617077.341 6  24327490.701                    24327510.195  
     -3275.777       -2552.242          36.000          38.000  
 24  1 10  3 17  6.6000000  0  7G24G16G18G23G10G32G15
 129642590.179 5 101020291.371 6  24670164.957                    24670185.603  
       393.781         306.508          32.000          38.000  
 128972716.183 6 100498404.406 3  24542712.947    24542737.375                  
     -2176.184       -1695.707          36.000          21.000  
 114162271.601 7  88957678.841 7  21724359.692                    21724374.556  
     -1705.047       -1328.559          43.000          43.000  
 110840867.400 7  86369564.902 7  21092317.011                    21092331.042  
     -1731.680       -1349.332          45.000          45.000  
 109094127.944 7  85008479.333 7  20759923.592                    20759939.904  
       183.148         142.738          47.000          45.000  
 117442514.842 7  91513734.123 6  22348567.969                    22348586.737  
      2964.773        2309.977          47.000          38.000  
 127842145.496 5  99617332.604 6  24327553.202                    24327571.830  
     -3275.453       -2552.562          35.000          38.000  
 24  1 10  3 17  6.7000000  0  7G24G16G18G23G10G32G15
 129642550.918 5 101020260.761 6  24670157.485                    24670178.128  
       393.078         306.109          33.000          38.000  
 128972933.825 5 100498573.998 3  24542754.363    24542778.791                  
     -2176.320       -1695.855          35.000          21.000  
 114162442.178 7  88957811.749 7  21724392.152                    21724407.013  
     -1705.621       -1329.383          43.000          42.000  
 110841040.578 7  86369699.865 7  21092349.966                    21092364.001  
     -1731.699       -1349.445          45.000          45.000  
 109094109.630 7  85008465.046 7  20759920.107                    20759936.415  
       183.035         142.691          47.000          45.000  
 117442218.468 7  91513503.182 6  22348511.570                    22348530.339  
      2964.074        2309.695          47.000          37.000  
 127842473.005 5  99617587.858 6  24327615.525                    24327634.165  
     -3275.188       -2552.586          35.000          38.000  
 24  1 10  3 17  6.7000000  5  0
 24  1 10  3 17  6.7000000  5  0
 24  1 10  3 17  6.8000000  0  8G08G24G18G23G16G10G15G32
 130859226.04316 101968310.13416  24901695.025                    24901716.265  
      2921.914        2276.801          37.000          37.000  
 129642511.632 5 101020230.201 6  24670149.853                    24670170.868  
       392.762         305.762          33.000          38.000  
 114162612.767 7  88957944.711 7  21724424.653                    21724439.187  
     -1706.035       -1329.820          43.000          42.000  
 110841213.757 7  86369834.822 7  21092383.148                    21092396.639  
     -1731.648       -1349.508          45.000          45.000  
 128973151.483 5 100498743.598 3  24542795.993    24542820.193                  
     -2176.559       -1695.980          35.000          20.000  
 109094091.299 7  85008450.789 7  20759916.142                    20759932.816  
       183.156         142.680          46.000          45.000  
 127842800.583 6  99617843.080 6  24327677.533                    24327695.782  
     -3275.453       -2552.355          37.000          38.000  
 117441922.176 7  91513272.259 6  22348455.039                    22348473.961  
      2962.930        2308.676          47.000          37.000  
 24  1 10  3 17  6.9000000  0  8G08G24G18G23G16G10G15G32
 130858933.796 6 101968082.354 6  24901639.412                    24901660.639  
      2922.543        2277.629          37.000          37.000  
 129642472.371 5 101020199.604 6  24670142.382                    24670163.396  
       392.867         306.020          33.000          38.000  
 114162783.387 7  88958077.696 7  21724457.121                    21724471.663  
     -1706.062       -1329.574          43.000          43.000  
 110841386.889 7  86369969.729 7  21092416.094                    21092429.585  
     -1731.348       -1348.910          45.000          45.000  
 128973369.152 5 100498913.215 3  24542837.414    24542861.615                  
     -2176.516       -1696.027          35.000          20.000  
 109094072.959 7  85008436.506 7  20759912.652                    20759929.328  
       183.535         142.961          46.000          45.000  
 127843128.083 6  99618098.278 6  24327739.854                    24327758.104  
     -3274.973       -2551.902          39.000          38.000  
 117441625.926 7  91513041.467 6  22348398.665                    22348417.599  
      2962.336        2307.918          47.000          37.000  
 24  1 10  3 17  7.0000000  0  8G08G24G18G23G16G10G15G32
 130858641.410 6 101967854.565 6  24901583.843                    24901604.479  
      2923.637        2277.957          37.000          38.000  
 129642433.150 5 101020168.999 6  24670134.872                    24670156.008  
       392.285         306.293          33.000          37.000  
 114162954.030 7  88958210.657 7  21724489.953                    21724504.337  
     -1706.207       -1329.555          43.000          43.000  
 110841559.970 7  86370104.534 7  21092449.249                    21092463.115  
     -1730.969       -1348.477          45.000          45.000  
 128973586.823 5 100499082.830 3  24542879.109    24542903.084                  
     -2176.758       -1696.230          35.000          21.000  
 109094054.575 7  85008422.171 7  20759909.208                    20759925.593  
       183.762         143.121          46.000          45.000  
 127843455.536 6  99618353.423 6  24327802.580                    24327820.319  
     -3274.680       -2551.406          40.000          39.000  
 117441329.782 7  91512810.709 6  22348342.342                    22348361.152  
      2961.352        2307.730          46.000          37.000  
 24  1 10  3 17  7.1000000  0  8G08G24G18G23G16G10G15G32
 130858348.975 6 101967626.670 6  24901528.194                    24901548.825  
      2924.375        2279.000          37.000          38.000  
 129642393.977 5 101020138.401 6  24670127.417                    24670148.536  
       391.918         305.867          33.000          37.000  
 114163124.735 7  88958343.619 7  21724522.437                    21724536.808  
     -1707.273       -1329.625          42.000          42.000  
 110841733.048 7  86370239.399 7  21092482.184                    21092496.050  
     -1730.461       -1348.469          45.000          45.000  
 128973804.476 5 100499252.434 3  24542920.527    24542944.503                  
     -2176.555       -1696.039          35.000          21.000  
 109094036.191 7  85008407.871 7  20759905.710                    20759922.101  
       183.934         143.238          46.000          45.000  
 127843782.885 6  99618608.529 6  24327864.872                    24327882.619  
     -3273.629       -2551.109          40.000          39.000  
 117441033.715 7  91512579.989 6  22348286.002                    22348304.807  
      2960.562        2307.180          46.000          36.000  
 24  1 10  3 17  7.2000000  0  8G08G24G18G23G16G10G15G32
 130858056.435 6 101967398.727 6  24901472.534                    24901493.565  
      2925.508        2279.523          38.000          38.000  
 129642354.761 5 101020107.916 6  24670119.892                    24670141.232  
       392.371         304.840          33.000          37.000  
 114163295.470 7  88958476.633 7  21724554.927                    21724569.189  
     -1707.414       -1330.430          42.000          42.000  
 110841906.077 7  86370374.256 7  21092514.892                    21092528.874  
     -1730.445       -1348.402          45.000          45.000  
 128974022.253 5 100499422.131 3  24542962.601    24542985.968                  
     -2177.730       -1696.945          35.000          21.000  
 109094017.801 7  85008393.533 7  20759902.539                    20759918.623  
       183.902         143.289          45.000          45.000  
 127844110.249 6  99618863.591 6  24327927.511                    24327945.306  
     -3273.531       -2550.461          40.000          39.000  
 117440737.746 7  91512349.337 6  22348229.353                    22348248.097  
      2959.637        2306.000          46.000          36.000  
 24  1 10  3 17  7.3000000  0  8G08G24G18G23G16G10G15G32
 130857763.805 6 101967170.694 6  24901416.848                    24901437.877  
      2926.207        2280.188          38.000          38.000  
 129642315.579 5 101020077.380 6  24670112.436                    24670133.774  
       391.660         305.348          34.000          37.000  
 114163466.223 7  88958609.742 7  21724587.420                    21724601.696  
     -1707.441       -1330.883          42.000          42.000  
 110842079.052 7  86370509.021 7  21092547.808                    21092561.785  
     -1729.801       -1347.973          45.000          45.000  
 128974239.945 5 100499591.760 3  24543004.027    24543027.393                  
     -2177.047       -1696.402          35.000          21.000  
 109093999.364 7  85008379.189 7  20759899.030                    20759915.120  
       184.359         143.488          45.000          46.000  
 127844437.525 6  99619118.589 6  24327989.790                    24328007.579  
     -3272.816       -2550.246          40.000          40.000  
 117440441.908 7  91512118.867 6  22348173.057                    22348191.814  
      2958.328        2304.816          45.000          36.000  
 24  1 10  3 17  7.4000000  0  8G08G24G18G23G16G10G15G32
 130857471.060 6 101966942.596 6  24901361.312                    24901382.517  
      2928.434        2281.156          38.000          38.000  
 129642276.408 5 101020046.850 6  24670105.318                    24670126.381  
       392.152         305.387          34.000          37.000  
 114163637.021 7  88958742.851 7  21724619.593                    21724634.203  
     -1708.164       -1330.941          42.000          42.000  
 110842252.006 7  86370643.793 7  21092580.548                    21092594.229  
     -1729.395       -1347.625          45.000          45.000  
 128974457.670 5 100499761.417 3  24543045.786    24543068.943                  
     -2177.430       -1696.613          35.000          21.000  
 109093980.940 7  85008364.808 7  20759895.665                    20759912.131  
       184.277         143.895          45.000          46.000  
 127844764.752 6  99619373.566 6  24328052.864                    24328070.011  
     -3272.242       -2549.746          40.000          40.000  
 117440146.162 7  91511888.430 6  22348116.739                    22348135.781  
      2957.121        2304.680          46.000          36.000  
 24  1 10  3 17  7.5000000  0  8G08G24G18G23G16G10G15G32
 130857178.195 6 101966714.394 6  24901305.582                    24901326.787  
      2928.617        2281.734          38.000          38.000  
 129642237.154 5 101020016.334 6  24670097.849                    24670118.929  
       392.359         305.180          33.000          38.000  
 114163807.812 7  88958875.904 7  21724652.094                    21724666.696  
     -1707.832       -1330.809          42.000          43.000  
 110842424.866 7  86370778.511 7  21092613.442                    21092627.129  
     -1728.344       -1347.203          45.000          45.000  
 128974675.397 5 100499931.064 3  24543087.218    24543110.372                  
     -2177.621       -1696.645          35.000          21.000  
 109093962.459 7  85008350.383 7  20759892.148                    20759908.609  
       185.039         143.996          45.000          46.000  
 127845091.881 6  99619628.449 6  24328115.115                    24328132.256  
     -3271.129       -2548.945          41.000          40.000  
 117439850.505 7  91511657.992 6  22348060.478                    22348079.506  
      2956.246        2304.152          45.000          36.000  
 24  1 10  3 17  7.6000000  0  8G08G24G18G23G16G10G15G32
 130856885.252 6 101966486.127 6  24901249.720                    24901271.003  
      2930.109        2282.871          38.000          38.000  
 129642198.056 5 101019985.762 6  24670090.096                    24670111.736  
       391.000         305.488          33.000          37.000  
 114163978.640 6  88959009.047 7  21724683.992                    21724699.804  
     -1708.477       -1331.043          41.000          43.000  
 110842597.705 7  86370913.229 7  21092646.113                    21092660.083  
     -1728.195       -1346.637          45.000          45.000  
 128974893.219 5 100500100.790 3  24543128.567    24543151.899                  
     -2178.410       -1697.188          35.000          21.000  
 109093943.917 7  85008335.961 7  20759888.948                    20759904.860  
       185.941         144.387          45.000          46.000  
 127845418.943 6  99619883.323 6  24328177.673                    24328194.335  
     -3270.594       -2548.867          40.000          40.000  
 117439554.947 7  91511427.689 6  22348004.235                    22348023.490  
      2955.348        2302.766          45.000          36.000  
 24  1 10  3 17  7.7000000  0  8G08G24G18G23G16G10G15G32
 130856592.193 6 101966257.743 6  24901193.952                    24901215.230  
      2931.598        2283.500          38.000          38.000  
 129642158.961 5 101019955.311 6  24670082.656                    24670104.300  
       391.234         304.637          33.000          37.000  
 114164149.502 6  88959142.164 7  21724716.506                    21724732.313  
     -1709.203       -1331.559          41.000          43.000  
 110842770.492 7  86371047.833 7  21092678.994                    21092692.955  
     -1727.684       -1346.262          45.000          45.000  
 128975110.993 5 100500270.477 3  24543170.008    24543193.338                  
     -2177.348       -1696.824          35.000          20.000  
 109093925.334 7  85008321.488 7  20759885.412                    20759901.326  
       185.805         144.773          45.000          46.000  
 127845745.984 6  99620138.196 6  24328239.907                    24328256.577  
     -3270.492       -2548.660          40.000          40.000  
 117439259.473 7  91511197.491 6  22347948.008                    22347967.273  
      2954.316        2302.324          45.000          36.000  
 24  1 10  3 17  7.8000000  0  8G08G24G18G23G16G10G15G32
 130856299.009 6 101966029.294 6  24901138.271                    24901159.760  
      2931.953        2284.438          38.000          38.000  
 129642119.847 5 101019924.795 6  24670074.987                    24670096.543  
       391.121         305.254          33.000          37.000  
 114164320.347 6  88959275.282 7  21724749.157                    21724765.267  
     -1708.723       -1331.176          41.000          42.000  
 110842943.193 7  86371182.377 7  21092712.131                    21092726.085  
     -1727.074       -1345.746          45.000          45.000  
 128975328.771 5 100500440.180 3  24543211.200    24543234.821                  
     -2178.988       -1697.414          35.000          21.000  
 109093906.660 7  85008306.917 7  20759881.780                    20759897.689  
       187.199         145.227          45.000          46.000  
 127846072.914 6  99620392.942 6  24328301.994                    24328318.625  
     -3269.043       -2547.480          40.000          39.000  
 117438964.113 7  91510967.330 6  22347891.545                    22347911.003  
      2953.301        2301.836          45.000          36.000  
 24  1 10  3 17  7.9000000  0  8G08G24G18G23G16G10G15G32
 130856005.704 6 101965800.760 6  24901082.457                    24901103.950  
      2933.168        2285.301          38.000          38.000  
 129642080.752 5 101019894.347 6  24670067.547                    24670089.107  
       390.727         304.727          33.000          37.000  
 114164491.253 6  88959408.439 7  21724781.680                    21724797.785  
     -1709.078       -1331.816          41.000          42.000  
 110843115.834 7  86371316.906 7  21092744.984                    21092758.939  
     -1726.008       -1345.406          45.000          45.000  
 128975546.596 5 100500609.917 3  24543252.650    24543276.272                  
     -2176.969       -1696.848          35.000          21.000  
 109093888.015 7  85008292.416 7  20759878.232                    20759894.148  
       186.504         145.691          45.000          46.000  
 127846399.827 6  99620647.704 6  24328364.204                    24328380.840  
     -3269.586       -2547.582          40.000          39.000  
 117438668.831 7  91510737.226 6  22347835.355                    22347854.809  
      2952.629        2300.621          45.000          36.000  
 24  1 10  3 17  8.0000000  0  8G08G24G18G23G16G10G15G32
 130855712.236 6 101965572.117 6  24901026.705                    24901048.012  
      2935.223        2286.371          39.000          38.000  
 129642041.692 5 101019863.956 6  24670060.114                    24670081.474  
       391.164         303.953          33.000          37.000  
 114164662.161 7  88959541.624 7  21724813.929                    21724829.927  
     -1709.133       -1331.715          42.000          42.000  
 110843288.391 7  86371451.377 7  21092778.265                    21092792.059  
     -1725.121       -1344.598          45.000          45.000  
 128975764.376 6 100500779.616 3  24543293.921    24543317.730                  
     -2177.629       -1696.977          36.000          21.000  
 109093869.184 7  85008277.695 7  20759874.492                    20759890.412  
       188.641         146.457          45.000          45.000  
 127846726.697 6  99620902.363 6  24328426.178                    24328442.914  
     -3268.172       -2546.648          40.000          39.000  
 117438373.600 7  91510507.177 6  22347779.580                    22347798.301  
      2952.219        2300.219          45.000          36.000  
 24  1 10  3 17  8.1000000  0  8G08G24G18G23G16G10G15G32
 130855418.694 6 101965343.354 6  24900970.846                    24900992.145  
      2935.395        2287.441          38.000          39.000  
 129642002.690 5 101019833.532 6  24670052.692                    24670074.045  
       389.426         304.285          32.000          36.000  
 114164833.126 7  88959674.855 7  21724846.462                    21724862.464  
     -1709.793       -1331.992          42.000          42.000  
 110843460.924 7  86371585.817 7  21092811.097                    21092824.891  
     -1725.109       -1344.176          45.000          45.000  
 128975982.071 6 100500949.248 3  24543335.347    24543359.156                  
     -2178.102       -1696.891          36.000          21.000  
 109093850.401 7  85008263.132 7  20759870.918                    20759886.856  
       188.402         146.562          45.000          46.000  
 127847053.502 6  99621157.025 6  24328488.367                    24328505.105  
     -3268.160       -2546.969          40.000          39.000  
 117438078.481 7  91510277.224 6  22347723.421                    22347742.144  
      2951.242        2300.000          46.000          36.000  
 24  1 10  3 17  8.2000000  0  8G08G24G18G23G16G10G15G32
 130855125.076 6 101965114.567 6  24900914.980                    24900936.562  
      2936.609        2287.914          38.000          39.000  
 129641963.728 5 101019803.186 6  24670045.497                    24670066.446  
       388.891         303.547          32.000          36.000  
 114165004.120 7  88959808.093 7  21724879.517                    21724894.478  
     -1710.031       -1332.945          42.000          42.000  
 110843633.461 7  86371720.245 7  21092843.453                    21092857.649  
     -1725.160       -1344.215          45.000          45.000  
 128976199.875 6 100501118.968 3  24543376.809    24543400.627                  
     -2178.336       -1697.184          36.000          21.000  
 109093831.535 7  85008248.346 7  20759867.546                    20759883.729  
       188.305         147.047          46.000          45.000  
 127847380.314 6  99621411.677 6  24328550.370                    24328567.582  
     -3267.559       -2546.301          39.000          39.000  
 117437783.454 7  91510047.336 6  22347667.443                    22347686.167  
      2950.121        2298.965          46.000          36.000  
 24  1 10  3 17  8.3000000  0  8G08G24G18G23G16G10G15G32
 130854831.374 6 101964885.721 6  24900859.091                    24900880.676  
      2937.641        2288.438          38.000          38.000  
 129641925.27035 101019772.891 6  24670038.054                    24670059.048  
       390.891         302.973          31.000          37.000  
 114165175.150 7  88959941.398 7  21724912.063                    21724927.033  
     -1710.215       -1332.727          42.000          42.000  
 110843805.922 7  86371854.630 7  21092876.272                    21092890.467  
     -1724.164       -1343.871          45.000          45.000  
 128976417.611 6 100501288.636 3  24543418.243    24543442.061                  
     -2176.945       -1696.578          36.000          22.000  
 109093812.651 7  85008233.674 7  20759863.953                    20759880.146  
       189.395         147.383          46.000          45.000  
 127847707.077 6  99621666.310 6  24328612.551                    24328629.766  
     -3266.945       -2546.363          39.000          39.000  
 117437488.396 7  91509817.435 6  22347611.296                    22347630.023  
      2949.859        2298.793          46.000          37.000  
 24  1 10  3 17  8.4000000  0  8G08G24G18G23G16G10G15G32
 130854537.577 6 101964656.797 6  24900802.933                    24900824.340  
      2937.977        2289.297          38.000          38.000  
 129641886.28724 101019742.606 6  24670030.542                    24670051.488  
       389.863         302.844          29.000          37.000  
 114165346.198 7  88960074.663 7  21724944.550                    21724960.038  
     -1710.742       -1332.746          42.000          42.000  
 110843978.291 7  86371988.983 7  21092908.815                    21092923.004  
     -1723.336       -1343.738          44.000          45.000  
 128976635.277 6 100501458.246 3  24543459.484    24543483.544                  
     -2177.469       -1696.504          36.000          21.000  
 109093793.676 7  85008218.865 7  20759860.436                    20759876.412  
       189.855         147.691          46.000          45.000  
 127848033.811 6  99621920.928 6  24328674.242                    24328692.064  
     -3267.348       -2546.195          38.000          39.000  
 117437193.453 7  91509587.617 6  22347554.943                    22347574.039  
      2949.426        2298.398          46.000          37.000  
 24  1 10  3 17  8.5000000  0  8G08G24G18G23G16G10G15G32
 130854243.748 6 101964427.819 6  24900747.019                    24900768.422  
      2939.105        2289.453          37.000          38.000  
 129641847.49324 101019712.332 6  24670023.159                    24670044.095  
       388.547         302.910          28.000          37.000  
 114165517.286 7  88960207.954 7  21724977.107                    21724992.589  
     -1710.617       -1333.031          42.000          42.000  
 110844150.723 7  86372123.365 7  21092941.627                    21092955.822  
     -1724.445       -1343.414          45.000          45.000  
 128976853.041 6 100501627.932 3  24543500.923    24543524.983                  
     -2176.719       -1696.406          36.000          21.000  
 109093774.760 7  85008204.139 7  20759856.836                    20759872.816  
       189.125         147.586          47.000          45.000  
 127848360.564 6  99622175.534 6  24328736.421                    24328754.241  
     -3267.344       -2546.094          39.000          39.000  
 117436898.585 7  91509357.834 6  22347498.832                    22347517.924  
      2948.398        2297.910          46.000          37.000  
 24  1 10  3 17  8.6000000  0  8G08G24G18G23G16G10G15G32
 130853949.812 6 101964198.772 6  24900691.124                    24900712.580  
      2939.090        2290.398          38.000          38.000  
 129641808.68524 101019682.037 6  24670015.712                    24670036.899  
       386.711         302.758          29.000          37.000  
 114165688.400 7  88960341.289 7  21725009.559                    21725024.800  
     -1711.277       -1333.164          42.000          42.000  
 110844323.138 7  86372257.689 7  21092974.265                    21092989.109  
     -1724.375       -1343.496          45.000          45.000  
 128977070.727 6 100501797.552 3  24543542.402    24543566.398                  
     -2177.246       -1696.414          36.000          21.000  
 109093755.768 7  85008189.334 7  20759852.902                    20759869.122  
       190.074         147.996          47.000          45.000  
 127848687.270 6  99622430.109 6  24328798.825                    24328816.333  
     -3267.160       -2545.836          39.000          39.000  
 117436603.725 7  91509128.097 6  22347442.878                    22347461.437  
      2947.977        2297.238          46.000          37.000  
 24  1 10  3 17  8.7000000  0  8G08G24G18G23G16G10G15G32
 130853655.903 6 101963969.732 6  24900635.195                    24900656.646  
      2939.629        2290.316          38.000          38.000  
 129641769.97625 101019651.798 6  24670008.346                    24670029.515  
       386.961         302.383          30.000          37.000  
 114165859.601 7  88960474.698 7  21725042.138                    21725057.380  
     -1712.488       -1334.141          42.000          42.000  
 110844495.610 7  86372392.061 7  21093007.085                    21093021.924  
     -1724.969       -1343.652          45.000          45.000  
 128977288.519 6 100501967.259 3  24543583.846    24543607.843                  
     -2178.297       -1697.090          36.000          21.000  
 109093736.834 7  85008174.580 7  20759849.299                    20759865.520  
       189.176         147.426          46.000          46.000  
 127849014.049 6  99622684.693 6  24328861.010                    24328878.505  
     -3268.004       -2545.812          39.000          39.000  
 117436309.011 7  91508898.413 6  22347386.796                    22347405.346  
      2946.770        2296.844          46.000          37.000  
 24  1 10  3 17  8.8000000  0  8G08G24G18G23G16G10G15G32
 130853361.902 6 101963740.699 6  24900579.288                    24900600.714  
      2940.125        2290.453          38.000          38.000  
 129641731.28025 101019621.677 6  24670001.310                    24670021.792  
       386.926         301.809          30.000          37.000  
 114166030.921 7  88960608.198 7  21725074.887                    21725089.372  
     -1713.988       -1335.098          42.000          42.000  
 110844668.096 7  86372526.465 7  21093040.361                    21093054.622  
     -1725.004       -1344.285          45.000          45.000  
 128977506.284 5 100502136.949 3  24543625.285    24543649.236                  
     -2176.863       -1696.613          35.000          21.000  
 109093717.968 7  85008159.850 7  20759845.756                    20759861.829  
       188.242         147.012          47.000          46.000  
 127849340.812 6  99622939.323 6  24328923.175                    24328940.868  
     -3267.664       -2546.191          39.000          39.000  
 117436014.355 7  91508668.822 6  22347330.975                    22347349.629  
      2946.227        2295.668          46.000          37.000  
 24  1 10  3 17  8.9000000  0  8G08G24G18G23G16G10G15G32
 130853067.926 6 101963511.597 6  24900523.346                    24900544.764  
      2939.695        2290.863          38.000          38.000  
 129641692.56825 101019591.492 6  24669993.944                    24670014.420  
       387.047         301.562          31.000          37.000  
 114166202.220 7  88960741.678 7  21725107.485                    21725121.969  
     -1712.707       -1335.070          42.000          43.000  
 110844840.591 7  86372660.887 7  21093073.186                    21093087.449  
     -1724.988       -1344.051          45.000          45.000  
 128977724.092 5 100502306.672 3  24543666.733    24543690.684                  
     -2178.551       -1697.305          35.000          21.000  
 109093699.097 7  85008145.178 7  20759842.165                    20759858.245  
       188.668         146.969          47.000          46.000  
 127849667.543 6  99623193.914 6  24328985.350                    24329003.042  
     -3267.359       -2546.000          39.000          40.000  
 117435719.750 7  91508439.274 6  22347274.913                    22347293.571  
      2945.605        2295.348          46.000          37.000  
 24  1 10  3 17  9.0000000  0  8G08G24G18G23G16G10G15G32
 130852773.886 6 101963282.509 6  24900467.790                    24900488.655  
      2941.004        2291.250          38.000          37.000  
 129641653.367 5 101019561.289 6  24669986.648                    24670006.685  
       387.465         301.809          31.000          38.000  
 114166373.530 7  88960875.146 7  21725140.107                    21725155.025  
     -1713.605       -1334.871          42.000          43.000  
 110845013.064 7  86372795.298 7  21093105.999                    21093120.235  
     -1724.516       -1344.395          45.000          45.000  
 128977941.869 5 100502476.368 3  24543708.307    24543732.086                  
     -2178.520       -1697.277          35.000          21.000  
 109093680.210 7  85008130.432 7  20759838.469                    20759854.707  
       189.000         147.152          47.000          46.000  
 127849994.309 6  99623448.505 6  24329047.336                    24329065.137  
     -3267.102       -2545.730          38.000          39.000  
 117435425.202 7  91508209.739 6  22347218.847                    22347237.688  
      2945.625        2295.164          46.000          37.000  
 24  1 10  3 17  9.1000000  0  8G08G24G18G23G16G10G15G32
 130852479.790 6 101963053.308 6  24900411.826                    24900432.682  
      2941.301        2291.508          38.000          37.000  
 129641614.583 5 101019531.142 6  24669979.268                    24669999.323  
       386.117         301.715          31.000          38.000  
 114166544.863 7  88961008.635 7  21725172.711                    21725187.624  
     -1712.957       -1334.945          43.000          43.000  
 110845185.501 7  86372929.693 7  21093138.812                    21093153.055  
     -1724.250       -1343.832          45.000          45.000  
 128978159.677 5 100502646.089 3  24543749.755    24543773.534                  
     -2177.027       -1696.809          35.000          21.000  
 109093661.300 7  85008115.699 7  20759834.871                    20759851.109  
       189.473         147.531          47.000          45.000  
 127850320.988 6  99623703.096 6  24329109.501                    24329127.311  
     -3266.527       -2545.797          37.000          39.000  
 117435130.683 7  91507980.317 6  22347162.802                    22347181.661  
      2945.555        2294.977          47.000          37.000  
 24  1 10  3 17  9.2000000  0  8G08G24G18G23G16G10G15G32
 130852185.673 6 101962824.148 6  24900355.552                    24900376.765  
      2941.309        2291.645          38.000          37.000  
 129641575.955 5 101019501.001 6  24669971.847                    24669992.181  
       387.012         301.551          32.000          38.000  
 114166716.159 7  88961142.132 7  21725205.245                    21725220.171  
     -1713.023       -1334.734          43.000          43.000  
 110845357.922 7  86373064.032 7  21093171.983                    21093185.979  
     -1724.035       -1343.309          45.000          45.000  
 128978377.425 5 100502815.766 3  24543791.269    24543814.971                  
     -2178.496       -1697.184          35.000          21.000  
 109093642.354 7  85008100.928 7  20759831.461                    20759847.588  
       189.395         147.578          47.000          46.000  
 127850647.650 6  99623957.642 6  24329170.897                    24329189.653  
     -3266.617       -2545.465          37.000          39.000  
 117434836.136 7  91507750.744 6  22347106.611                    22347125.769  
      2945.305        2295.289          47.000          38.000  
 24  1 10  3 17  9.3000000  0  8G08G24G18G23G16G10G15G32
 130851891.539 6 101962594.974 6  24900299.580                    24900320.799  
      2940.887        2291.844          38.000          37.000  
 129641537.137 5 101019470.870 6  24669964.460                    24669984.822  
       388.809         301.121          31.000          38.000  
 114166887.516 7  88961275.674 7  21725237.853                    21725252.783  
     -1713.555       -1335.250          43.000          43.000  
 110845530.351 7  86373198.402 7  21093204.795                    21093218.794  
     -1724.035       -1343.508          45.000          45.000  
 128978595.201 5 100502985.454 3  24543832.710    24543856.410                  
     -2177.039       -1696.676          35.000          21.000  
 109093623.444 8  85008086.220 7  20759827.862                    20759843.996  
       188.949         147.461          48.000          45.000  
 127850974.207 6  99624212.181 6  24329233.039                    24329251.814  
     -3265.910       -2545.547          37.000          39.000  
 117434541.619 7  91507521.259 6  22347050.566                    22347069.726  
      2945.145        2294.719          47.000          38.000  
 24  1 10  3 17  9.4000000  0  8G08G24G18G23G16G10G15G32
 130851597.456 6 101962365.763 6  24900243.743                    24900264.479  
      2940.977        2291.926          38.000          37.000  
 129641498.465 5 101019440.740 6  24669957.226                    24669977.722  
       385.984         301.277          32.000          38.000  
 114167058.909 7  88961409.205 7  21725270.577                    21725285.103  
     -1713.738       -1335.211          43.000          43.000  
 110845702.788 7  86373332.776 7  21093237.851                    21093251.508  
     -1724.562       -1343.664          45.000          45.000  
 128978812.994 5 100503155.164 3  24543874.241    24543897.785                  
     -2178.383       -1697.410          35.000          21.000  
 109093604.512 8  85008071.455 7  20759824.096                    20759839.945  
       189.156         147.359          48.000          45.000  
 127851300.940 6  99624466.691 6  24329295.433                    24329313.843  
     -3267.141       -2545.176          38.000          39.000  
 117434247.157 7  91507291.782 6  22346994.415                    22347013.936  
      2944.445        2294.289          47.000          38.000  
 24  1 10  3 17  9.5000000  0  8G08G24G18G23G16G10G15G32
 130851303.340 6 101962136.602 6  24900187.775                    24900208.516  
      2941.281        2291.547          38.000          37.000  
 129641459.949 5 101019410.656 6  24669949.897                    24669970.375  
       385.766         300.695          32.000          38.000  
 114167230.259 7  88961542.756 7  21725303.184                    21725317.718  
     -1713.742       -1335.809          43.000          43.000  
 110845875.221 7  86373467.102 7  21093270.664                    21093284.312  
     -1724.500       -1343.832          45.000          45.000  
 128979030.877 5 100503324.935 3  24543915.703    24543939.245                  
     -2178.457       -1697.445          35.000          21.000  
 109093585.603 8  85008056.719 7  20759820.497                    20759836.346  
       189.062         147.297          48.000          45.000  
 127851627.652 6  99624721.296 6  24329357.604                    24329376.020  
     -3267.273       -2545.824          39.000          39.000  
 117433952.723 7  91507062.394 6  22346938.386                    22346957.917  
      2944.324        2294.086          47.000          38.000  
 24  1 10  3 17  9.6000000  0  8G08G24G18G23G16G10G15G32
 130851009.180 6 101961907.420 6  24900131.829                    24900152.563  
      2941.730        2291.906          38.000          37.000  
 129641421.197 5 101019380.551 6  24669942.218                    24669962.859  
       387.602         301.176          31.000          38.000  
 114167401.641 7  88961676.288 7  21725335.750                    21725350.367  
     -1713.781       -1335.262          43.000          43.000  
 110846047.638 7  86373601.474 7  21093303.348                    21093317.439  
     -1724.281       -1343.453          45.000          45.000  
 128979248.648 6 100503494.619 3  24543957.667    24543980.621                  
     -2178.188       -1697.234          36.000          21.000  
 109093566.682 8  85008041.973 7  20759816.944                    20759833.120  
       189.219         147.461          48.000          45.000  
 127851954.325 6  99624975.849 6  24329420.408                    24329438.036  
     -3266.531       -2545.516          39.000          39.000  
 117433658.325 7  91506832.966 6  22346882.247                    22346901.794  
      2943.992        2294.156          47.000          37.000  
 24  1 10  3 17  9.7000000  0  8G08G24G18G23G16G10G15G32
 130850715.020 6 101961678.195 6  24900075.852                    24900096.584  
      2941.738        2292.156          37.000          37.000  
 129641382.642 5 101019350.490 6  24669934.881                    24669955.518  
       385.621         300.570          32.000          38.000  
 114167572.999 7  88961809.851 7  21725368.359                    21725382.984  
     -1713.461       -1335.398          43.000          43.000  
 110846220.044 7  86373735.813 7  21093336.156                    21093350.246  
     -1723.965       -1343.488          44.000          45.000  
 128979466.513 6 100503664.378 3  24543999.125    24544022.078                  
     -2178.477       -1697.461          36.000          21.000  
 109093547.738 8  85008027.219 7  20759813.339                    20759829.517  
       189.422         147.590          48.000          45.000  
 127852281.000 6  99625230.393 6  24329482.572                    24329500.199  
     -3266.617       -2545.398          39.000          39.000  
 117433363.921 7  91506603.578 6  22346826.223                    22346845.775  
      2944.094        2293.758          47.000          37.000  
 24  1 10  3 17  9.8000000  0  8G08G24G18G23G16G10G15G32
 130850420.859 6 101961448.940 6  24900019.782                    24900040.926  
      2941.598        2292.578          37.000          37.000  
 129641344.009 5 101019320.327 6  24669927.576                    24669948.222  
       386.395         301.551          32.000          38.000  
 114167744.417 7  88961943.345 7  21725400.814                    21725415.835  
     -1714.012       -1335.289          43.000          43.000  
 110846392.464 7  86373870.177 7  21093368.263                    21093383.036  
     -1724.090       -1343.445          44.000          45.000  
 128979684.297 6 100503834.076 3  24544040.763    24544063.504                  
     -2178.062       -1697.031          36.000          21.000  
 109093528.824 8  85008012.484 7  20759809.864                    20759825.864  
       189.316         147.562          48.000          45.000  
 127852607.566 6  99625484.903 6  24329544.833                    24329562.165  
     -3266.273       -2545.133          39.000          39.000  
 117433069.540 7  91506374.210 6  22346770.415                    22346789.175  
      2943.945        2294.145          47.000          38.000  
 24  1 10  3 17  9.9000000  0  8G08G24G18G23G16G10G15G32
 130850126.679 6 101961219.734 6  24899963.801                    24899984.951  
      2941.602        2291.875          37.000          37.000  
 129641305.345 5 101019290.236 6  24669920.219                    24669940.874  
       386.340         300.820          32.000          38.000  
 114167915.841 7  88962076.965 7  21725433.435                    21725448.466  
     -1714.070       -1335.988          43.000          43.000  
 110846564.919 7  86374004.545 7  21093401.080                    21093415.850  
     -1724.328       -1343.820          44.000          45.000  
 128979902.215 6 100504003.880 3  24544082.232    24544104.972                  
     -2178.562       -1697.703          36.000          20.000  
 109093509.937 8  85007997.762 7  20759806.270                    20759822.268  
       188.973         146.867          48.000          45.000  
 127852934.282 6  99625739.436 6  24329607.005                    24329624.325  
     -3266.691       -2545.312          38.000          39.000  
 117432775.235 7  91506144.847 6  22346714.411                    22346733.163  
      2943.562        2293.395          47.000          38.000  
 24  1 10  3 17 10.0000000  0  8G08G24G18G23G16G10G15G32
 130849832.532 6 101960990.517 6  24899907.929                    24899928.841  
      2941.668        2291.809          38.000          37.000  
 129641266.760 5 101019260.175 6  24669912.767                    24669933.509  
       386.324         300.746          30.000          38.000  
 114168087.307 7  88962210.551 7  21725466.119                    21725481.675  
     -1714.391       -1335.918          43.000          43.000  
 110846737.364 7  86374138.931 7  21093433.857                    21093448.676  
     -1724.504       -1343.754          44.000          45.000  
 128980120.074 6 100504173.639 3  24544123.251    24544146.397                  
     -2178.637       -1697.727          36.000          21.000  
 109093491.079 8  85007983.048 7  20759802.736                    20759818.527  
       188.730         147.113          48.000          45.000  
 127853260.967 6  99625993.991 6  24329669.007                    24329686.935  
     -3266.754       -2545.379          38.000          39.000  
 117432480.926 7  91505915.531 6  22346658.406                    22346677.341  
      2943.188        2293.090          47.000          38.000  
 24  1 10  3 17 10.1000000  0  8G08G24G18G23G16G10G15G32
 130849538.356 6 101960761.311 6  24899851.949                    24899872.867  
      2941.703        2292.270          38.000          37.000  
 129641228.276 4 101019230.045 6  24669905.444                    24669926.151  
       385.559         301.289          29.000          38.000  
 114168258.701 7  88962344.141 7  21725498.734                    21725514.299  
     -1713.961       -1335.758          43.000          43.000  
 110846909.781 7  86374273.282 7  21093466.666                    21093481.486  
     -1724.285       -1343.500          45.000          45.000  
 128980337.940 6 100504343.405 3  24544164.710    24544187.856                  
     -2178.684       -1697.742          36.000          21.000  
 109093472.171 8  85007968.323 7  20759799.138                    20759814.931  
       188.949         147.277          48.000          45.000  
 127853587.500 6  99626248.493 6  24329731.144                    24329749.087  
     -3265.922       -2545.258          36.000          39.000  
 117432186.613 7  91505686.196 6  22346602.400                    22346621.335  
      2943.199        2293.340          47.000          38.000  
 24  1 10  3 17 10.2000000  0  8G08G24G18G23G16G10G15G32
 130849244.175 6 101960532.065 6  24899796.194                    24899816.640  
      2941.848        2292.367          38.000          37.000  
 129641189.557 4 101019199.971 6  24669897.810                    24669918.869  
       386.250         300.797          29.000          37.000  
 114168430.130 7  88962477.689 7  21725531.301                    21725546.788  
     -1714.211       -1335.586          43.000          43.000  
 110847082.193 7  86374407.634 7  21093499.702                    21093514.077  
     -1724.070       -1343.477          45.000          45.000  
 128980555.889 6 100504513.235 3  24544206.051    24544229.307                  
     -2179.070       -1698.176          36.000          21.000  
 109093453.295 8  85007953.618 7  20759795.218                    20759811.371  
       188.969         147.355          48.000          45.000  
 127853914.099 6  99626503.034 6  24329792.911                    24329811.459  
     -3266.258       -2545.281          36.000          39.000  
 117431892.328 7  91505456.902 6  22346546.212                    22346565.550  
      2943.016        2293.203          47.000          38.000  
 24  1 10  3 17 10.3000000  0  8G08G24G18G23G16G10G15G32
 130848949.997 6 101960302.833 6  24899740.214                    24899760.659  
      2941.727        2292.289          37.000          37.000  
 129641150.972 4 101019169.912 6  24669890.467                    24669911.529  
       385.914         300.832          29.000          37.000  
 114168601.581 7  88962611.265 7  21725563.927                    21725579.409  
     -1714.480       -1336.176          43.000          44.000  
 110847254.641 7  86374541.994 7  21093532.518                    21093546.889  
     -1724.328       -1343.746          45.000          45.000  
 128980773.790 6 100504683.029 3  24544247.516    24544270.772                  
     -2179.051       -1698.023          36.000          21.000  
 109093434.436 8  85007938.928 7  20759791.629                    20759807.784  
       188.684         146.852          48.000          45.000  
 127854240.770 6  99626757.500 6  24329855.075                    24329873.602  
     -3266.406       -2544.750          36.000          39.000  
 117431598.117 7  91505227.633 6  22346490.225                    22346509.560  
      2942.586        2292.875          47.000          38.000  
 24  1 10  3 17 10.4000000  0  8G08G24G18G23G16G10G15G32
 130848655.824 6 101960073.621 6  24899684.180                    24899704.598  
      2941.738        2292.258          38.000          37.000  
 129641112.418 4 101019139.789 6  24669883.185                    24669903.797  
       385.887         300.789          29.000          38.000  
 114168773.099 7  88962744.958 7  21725595.980                    21725612.120  
     -1714.727       -1336.320          43.000          44.000  
 110847427.084 7  86374676.378 7  21093565.301                    21093579.418  
     -1724.539       -1343.938          45.000          45.000  
 128980991.747 6 100504852.866 3  24544288.984    24544312.225                  
     -2179.129       -1697.973          36.000          20.000  
 109093415.615 8  85007924.262 7  20759787.954                    20759803.999  
       188.438         146.727          48.000          45.000  
 127854567.404 6  99627011.990 6  24329917.153                    24329935.806  
     -3266.207       -2545.008          36.000          39.000  
 117431303.918 7  91504998.387 6  22346434.148                    22346453.654  
      2942.180        2292.312          47.000          38.000  
 24  1 10  3 17 10.5000000  0  8G08G24G18G23G16G10G15G32
 130848361.652 6 101959844.386 6  24899628.201                    24899648.616  
      2941.770        2292.266          38.000          37.000  
 129641073.815 5 101019109.798 6  24669875.840                    24669896.473  
       385.891         300.262          32.000          38.000  
 114168944.631 7  88962878.637 7  21725628.621                    21725644.766  
     -1715.047       -1336.922          43.000          44.000  
 110847599.620 7  86374810.807 7  21093598.134                    21093612.247  
     -1724.871       -1344.309          45.000          45.000  
 128981209.721 6 100505022.723 3  24544330.463    24544353.706                  
     -2179.547       -1698.543          36.000          20.000  
 109093396.851 8  85007909.636 7  20759784.384                    20759800.427  
       187.910         146.250          48.000          45.000  
 127854894.087 6  99627266.562 6  24329979.319                    24329997.975  
     -3266.688       -2545.598          36.000          39.000  
 117431009.793 7  91504769.195 6  22346378.177                    22346397.683  
      2941.617        2291.992          47.000          38.000  
 24  1 10  3 17 10.6000000  0  8G08G24G18G23G16G10G15G32
 130848067.502 6 101959615.195 6  24899572.437                    24899592.770  
      2941.543        2292.020          37.000          37.000  
 129641035.275 5 101019079.742 6  24669868.990                    24669889.344  
       385.672         300.617          34.000          38.000  
 114169116.196 7  88963012.314 7  21725661.801                    21725677.545  
     -1715.672       -1337.133          43.000          43.000  
 110847772.188 7  86374945.264 7  21093631.011                    21093645.341  
     -1725.461       -1344.586          44.000          45.000  
 128981427.731 5 100505192.601 3  24544372.207    24544395.168                  
     -2179.891       -1698.871          35.000          20.000  
 109093378.115 8  85007895.032 7  20759780.553                    20759797.017  
       187.605         145.941          48.000          45.000  
 127855220.790 6  99627521.107 6  24330041.332                    24330059.911  
     -3266.781       -2545.473          37.000          39.000  
 117430715.705 7  91504540.058 6  22346322.363                    22346341.765  
      2941.184        2291.211          47.000          38.000  
 24  1 10  3 17 10.7000000  0  8G08G24G18G23G16G10G15G32
 130847773.361 6 101959385.964 6  24899516.464                    24899536.790  
      2941.484        2292.461          37.000          37.000  
 129640996.737 5 101019049.724 6  24669861.657                    24669882.013  
       385.516         300.188          35.000          38.000  
 114169287.839 7  88963146.085 7  21725694.463                    21725710.213  
     -1715.934       -1337.203          43.000          43.000  
 110847944.718 7  86375079.707 7  21093663.843                    21093678.173  
     -1725.426       -1344.805          45.000          45.000  
 128981645.752 5 100505362.483 3  24544413.695    24544436.655                  
     -2180.172       -1699.094          35.000          20.000  
 109093359.412 8  85007880.479 7  20759776.993                    20759793.463  
       187.270         145.734          48.000          45.000  
 127855547.428 6  99627775.663 6  24330103.489                    24330122.076  
     -3266.617       -2545.523          38.000          39.000  
 117430421.668 7  91504310.917 6  22346266.409                    22346285.806  
      2940.711        2291.438          47.000          38.000  
 24  1 10  3 17 10.8000000  0  8G08G24G18G23G16G10G15G32
 130847479.189 6 101959156.715 6  24899460.407                    24899480.625  
      2941.641        2292.234          37.000          37.000  
 129640958.249 5 101019019.734 6  24669854.598                    24669874.877  
       385.348         300.145          34.000          38.000  
 114169459.436 7  88963279.741 7  21725726.812                    21725742.275  
     -1716.129       -1337.062          43.000          43.000  
 110848117.238 7  86375214.164 7  21093696.797                    21093711.189  
     -1725.109       -1344.199          45.000          45.000  
 128981863.779 5 100505532.376 3  24544455.013    24544478.176                  
     -2180.004       -1698.602          35.000          20.000  
 109093340.656 8  85007865.844 7  20759773.487                    20759789.670  
       187.367         146.105          48.000          45.000  
 127855874.087 6  99628030.199 6  24330166.181                    24330184.198  
     -3266.520       -2545.383          38.000          39.000  
 117430127.607 7  91504081.784 6  22346210.529                    22346229.826  
      2940.688        2291.051          47.000          39.000  
 24  1 10  3 17 10.9000000  0  8G08G24G18G23G16G10G15G32
 130847185.029 6 101958927.535 6  24899404.430                    24899424.657  
      2941.613        2291.879          37.000          37.000  
 129640919.611 5 101018989.658 6  24669847.246                    24669867.532  
       385.746         300.387          33.000          38.000  
 114169630.990 7  88963413.427 7  21725759.458                    21725774.922  
     -1715.664       -1336.562          43.000          43.000  
 110848289.741 7  86375348.578 7  21093729.623                    21093744.014  
     -1725.082       -1344.145          45.000          45.000  
 128982081.810 6 100505702.262 3  24544496.502    24544519.664                  
     -2180.254       -1698.973          36.000          20.000  
 109093321.910 8  85007851.254 7  20759769.920                    20759786.107  
       187.617         146.199          48.000          45.000  
 127856200.699 6  99628284.671 6  24330228.334                    24330246.342  
     -3266.352       -2544.957          39.000          39.000  
 117429833.534 7  91503852.646 6  22346154.569                    22346173.868  
      2940.723        2291.469          47.000          39.000  
 24  1 10  3 17 11.0000000  0  8G08G24G18G23G16G10G15G32
 130846890.889 6 101958698.315 6  24899348.324                    24899368.859  
      2941.500        2292.223          37.000          37.000  
 129640881.170 5 101018959.672 6  24669839.930                    24669860.655  
       385.145         300.137          33.000          38.000  
 114169802.565 7  88963547.103 7  21725792.186                    21725807.458  
     -1715.578       -1336.652          44.000          43.000  
 110848462.225 7  86375482.963 7  21093762.345                    21093776.762  
     -1724.953       -1344.062          45.000          45.000  
 128982299.867 6 100505872.171 3  24544537.708    24544561.181                  
     -2180.246       -1698.758          36.000          20.000  
 109093303.135 8  85007836.610 7  20759766.706                    20759782.781  
       187.672         146.355          48.000          45.000  
 127856527.369 6  99628539.205 6  24330290.864                    24330308.143  
     -3266.535       -2545.156          38.000          39.000  
 117429539.487 7  91503623.515 6  22346098.583                    22346117.256  
      2940.648        2291.195          47.000          39.000  
 24  1 10  3 17 11.1000000  0  8G08G24G18G23G16G10G15G32
 130846596.662 6 101958469.067 6  24899292.335                    24899312.874  
      2941.906        2292.000          37.000          36.000  
 129640842.622 5 101018929.623 6  24669832.595                    24669853.316  
       385.516         300.508          32.000          38.000  
 114169974.029 7  88963680.748 7  21725824.814                    21725840.095  
     -1715.098       -1336.254          44.000          43.000  
 110848634.656 7  86375617.332 7  21093795.157                    21093809.576  
     -1724.492       -1343.484          45.000          45.000  
 128982517.915 6 100506042.077 3  24544579.201    24544602.674                  
     -2180.410       -1699.051          36.000          20.000  
 109093284.309 8  85007821.957 7  20759763.124                    20759779.202  
       188.047         146.613          48.000          45.000  
 127856853.997 6  99628793.691 6  24330353.019                    24330370.291  
     -3266.223       -2545.062          38.000          38.000  
 117429245.392 7  91503394.366 6  22346042.618                    22346061.295  
      2940.945        2291.871          46.000          39.000  
 24  1 10  3 17 11.2000000  0  8G08G24G18G23G16G10G15G32
 130846302.532 6 101958239.851 6  24899236.215                    24899257.210  
      2941.594        2292.281          37.000          37.000  
 129640804.060 5 101018899.574 6  24669825.288                    24669846.166  
       385.273         300.336          31.000          38.000  
 114170145.620 7  88963814.418 7  21725858.076                    21725872.434  
     -1715.438       -1336.770          44.000          43.000  
 110848807.139 7  86375751.715 7  21093827.714                    21093842.222  
     -1724.812       -1344.156          45.000          45.000  
 128982735.944 6 100506211.972 3  24544620.988    24544644.187                  
     -2180.180       -1698.668          36.000          20.000  
 109093265.532 8  85007807.319 7  20759759.707                    20759775.526  
       187.922         146.395          48.000          45.000  
 127857180.624 6  99629048.238 6  24330415.135                    24330432.071  
     -3266.363       -2545.434          38.000          38.000  
 117428951.318 7  91503165.216 6  22345986.759                    22346005.186  
      2940.746        2291.289          47.000          39.000  
 24  1 10  3 17 11.3000000  0  8G08G24G18G23G16G10G15G32
 130846008.381 6 101958010.645 6  24899180.240                    24899201.235  
      2941.488        2291.809          37.000          37.000  
 129640765.665 5 101018869.633 6  24669817.982                    24669838.854  
       384.762         299.723          32.000          38.000  
 114170317.184 7  88963948.117 7  21725890.724                    21725905.085  
     -1715.691       -1337.012          44.000          43.000  
 110848979.607 7  86375886.142 7  21093860.534                    21093875.050  
     -1724.676       -1344.020          44.000          45.000  
 128982954.022 5 100506381.901 3  24544662.487    24544685.686                  
     -2180.574       -1699.277          35.000          20.000  
 109093246.759 8  85007792.684 7  20759756.135                    20759771.952  
       187.770         146.242          48.000          45.000  
 127857507.329 6  99629302.760 6  24330477.305                    24330494.228  
     -3266.746       -2545.324          38.000          38.000  
 117428657.244 7  91502936.077 6  22345930.799                    22345949.228  
      2940.715        2291.453          47.000          39.000  
 24  1 10  3 17 11.4000000  0  8G08G24G18G23G16G10G15G32
 130845714.269 6 101957781.500 6  24899124.202                    24899145.354  
      2941.297        2291.820          37.000          37.000  
 129640727.022 5 101018839.629 6  24669810.113                    24669831.464  
       385.730         299.734          31.000          38.000  
 114170488.744 7  88964081.806 7  21725923.620                    21725938.116  
     -1715.609       -1337.004          44.000          43.000  
 110849152.120 7  86376020.548 7  21093892.862                    21093907.866  
     -1724.855       -1344.152          44.000          44.000  
 128983172.018 6 100506551.771 3  24544704.071    24544727.123                  
     -2180.266       -1698.844          36.000          20.000  
 109093227.980 8  85007778.064 7  20759752.631                    20759768.764  
       187.789         146.250          48.000          45.000  
 127857833.883 6  99629557.305 6  24330539.571                    24330556.289  
     -3266.141       -2545.316          37.000          38.000  
 117428363.171 7  91502706.910 6  22345875.058                    22345893.459  
      2940.699        2291.520          47.000          39.000  
 24  1 10  3 17 11.5000000  0  8G08G24G18G23G16G10G15G32
 130845420.147 6 101957552.305 6  24899068.233                    24899089.382  
      2941.195        2291.945          37.000          37.000  
 129640688.606 5 101018809.596 6  24669802.802                    24669824.129  
       384.602         300.148          32.000          38.000  
 114170660.297 7  88964215.504 7  21725956.266                    21725970.766  
     -1715.574       -1336.731          44.000          43.000  
 110849324.617 7  86376154.956 7  21093925.687                    21093940.690  
     -1725.004       -1344.145          44.000          44.000  
 128983390.088 5 100506721.697 3  24544745.569    24544768.620                  
     -2180.551       -1699.273          35.000          20.000  
 109093209.203 8  85007763.423 7  20759749.058                    20759765.189  
       187.758         146.320          48.000          45.000  
 127858160.656 6  99629811.825 6  24330601.754                    24330618.445  
     -3267.016       -2545.355          38.000          38.000  
 117428069.076 7  91502477.760 6  22345819.093                    22345837.498  
      2940.797        2291.672          47.000          39.000  
 24  1 10  3 17 11.6000000  0  8G08G24G18G23G16G10G15G32
 130845126.016 6 101957323.104 6  24899012.347                    24899033.471  
      2941.266        2291.918          37.000          37.000  
 129640650.076 5 101018779.602 6  24669795.267                    24669816.711  
       385.180         299.973          32.000          38.000  
 114170831.870 7  88964349.152 7  21725988.884                    21726003.287  
     -1715.719       -1336.805          44.000          43.000  
 110849497.094 7  86376289.365 7  21093958.258                    21093973.561  
     -1724.949       -1344.207          44.000          44.000  
 128983608.112 5 100506891.585 3  24544787.276    24544810.038                  
     -2180.379       -1698.973          35.000          20.000  
 109093190.435 8  85007748.806 7  20759745.346                    20759761.705  
       187.699         146.047          48.000          45.000  
 127858487.324 6  99630066.398 6  24330664.097                    24330680.279  
     -3266.773       -2545.680          38.000          38.000  
 117427774.996 7  91502248.581 6  22345763.053                    22345781.428  
      2940.922        2291.785          47.000          39.000  
 24  1 10  3 17 11.7000000  0  8G08G24G18G23G16G10G15G32
 130844831.954 6 101957093.963 6  24898956.389                    24898977.513  
      2940.859        2291.305          37.000          37.000  
 129640611.647 5 101018749.675 6  24669787.955                    24669809.402  
       384.594         299.250          32.000          38.000  
 114171003.505 7  88964482.919 7  21726021.545                    21726035.955  
     -1715.957       -1337.320          44.000          43.000  
 110849669.646 7  86376423.820 7  21093991.094                    21094006.396  
     -1725.340       -1344.508          44.000          44.000  
 128983826.168 5 100507061.495 3  24544828.771    24544851.532                  
     -2180.527       -1699.215          35.000          20.000  
 109093171.696 8  85007734.190 7  20759741.780                    20759758.136  
       187.516         146.051          48.000          45.000  
 127858814.047 6  99630320.995 6  24330726.270                    24330742.454  
     -3267.051       -2546.102          39.000          38.000  
 117427480.905 7  91502019.445 6  22345707.090                    22345725.471  
      2940.973        2291.379          47.000          39.000  
 24  1 10  3 17 11.8000000  0  8G08G24G18G23G16G10G15G32
 130844537.877 6 101956864.843 6  24898900.241                    24898921.622  
      2940.961        2291.277          38.000          37.000  
 129640573.253 5 101018719.740 6  24669780.711                    24669802.030  
       384.301         299.551          33.000          38.000  
 114171175.021 7  88964616.570 7  21726054.168                    21726068.633  
     -1715.695       -1336.922          44.000          43.000  
 110849842.207 7  86376558.271 7  21094024.360                    21094038.973  
     -1725.348       -1344.441          44.000          44.000  
 128984044.205 5 100507231.397 3  24544870.004    24544893.001                  
     -2180.426       -1699.027          35.000          21.000  
 109093152.980 8  85007719.608 7  20759737.937                    20759754.176  
       187.332         145.980          48.000          45.000  
 127859140.796 6  99630575.584 6  24330788.808                    24330805.197  
     -3267.277       -2545.539          39.000          38.000  
 117427186.791 7  91501790.274 6  22345651.262                    22345669.653  
      2940.941        2291.578          47.000          39.000  
 24  1 10  3 17 11.9000000  0  8G08G24G18G23G16G10G15G32
 130844243.862 6 101956635.732 6  24898844.292                    24898865.671  
      2940.391        2291.148          38.000          37.000  
 129640534.842 5 101018689.783 6  24669773.401                    24669794.714  
       384.242         299.520          32.000          38.000  
 114171346.683 7  88964750.349 7  21726086.834                    21726101.303  
     -1716.023       -1337.227          44.000          43.000  
 110850014.789 7  86376692.747 7  21094057.202                    21094071.813  
     -1725.543       -1344.820          44.000          44.000  
 128984262.257 5 100507401.308 3  24544911.498    24544934.494                  
     -2180.406       -1698.992          35.000          20.000  
 109093134.254 8  85007705.010 7  20759734.374                    20759750.611  
       187.297         145.812          48.000          45.000  
 127859467.615 6  99630830.207 6  24330850.999                    24330867.379  
     -3267.805       -2546.227          39.000          38.000  
 117426892.709 7  91501561.105 6  22345595.301                    22345613.688  
      2940.934        2291.992          47.000          39.000  
 24  1 10  3 17 12.0000000  0  8G08G24G18G23G16G10G15G32
 130843949.861 6 101956406.613 6  24898788.283                    24898810.155  
      2940.051        2291.039          37.000          37.000  
 129640496.476 5 101018659.822 6  24669765.843                    24669787.045  
       383.312         299.148          31.000          38.000  
 114171518.369 7  88964884.106 7  21726118.973                    21726134.186  
     -1716.863       -1337.902          43.000          43.000  
 110850187.434 7  86376827.279 7  21094090.235                    21094104.644  
     -1726.309       -1345.098          44.000          44.000  
 128984480.296 5 100507571.211 3  24544952.513    24544976.010                  
     -2180.605       -1699.191          35.000          21.000  
 109093115.598 8  85007690.488 7  20759730.871                    20759747.432  
       186.617         145.371          48.000          45.000  
 127859794.371 6  99631084.883 6  24330913.202                    24330929.448  
     -3267.770       -2546.871          38.000          38.000  
 117426598.648 7  91501331.970 6  22345539.124                    22345557.973  
      2940.617        2291.289          47.000          40.000  
 24  1 10  3 17 12.1000000  0  8G08G24G18G23G16G10G15G32
 130843655.902 6 101956177.575 6  24898732.344                    24898754.222  
      2939.641        2290.770          37.000          37.000  
 129640458.026 4 101018629.915 6  24669758.526                    24669779.742  
       384.363         299.387          29.000          38.000  
 114171690.015 7  88965017.848 7  21726151.637                    21726166.848  
     -1716.695       -1337.504          44.000          43.000  
 110850360.038 7  86376961.782 7  21094123.080                    21094137.490  
     -1726.484       -1345.398          44.000          44.000  
 128984698.383 5 100507741.146 3  24544994.013    24545017.510                  
     -2180.926       -1699.398          35.000          21.000  
 109093096.967 8  85007675.940 7  20759727.325                    20759743.879  
       186.109         145.227          48.000          45.000  
 127860121.186 6  99631339.552 6  24330975.393                    24330991.641  
     -3268.227       -2546.457          38.000          37.000  
 117426304.573 7  91501102.810 6  22345483.163                    22345502.010  
      2940.551        2291.605          47.000          40.000  
 24  1 10  3 17 12.2000000  0  8G08G24G18G23G16G10G15G32
 130843361.922 6 101955948.484 6  24898676.292                    24898697.846  
      2939.945        2290.824          37.000          37.000  
 129640420.22034 101018599.993 6  24669750.871                    24669772.106  
       383.492         299.102          28.000          38.000  
 114171861.703 7  88965151.666 7  21726184.362                    21726199.660  
     -1716.656       -1337.820          44.000          43.000  
 110850532.707 7  86377096.344 7  21094155.719                    21094170.024  
     -1726.387       -1345.195          44.000          44.000  
 128984916.506 5 100507911.107 3  24545035.568    24545059.094                  
     -2180.777       -1699.223          35.000          21.000  
 109093078.355 8  85007661.457 7  20759723.838                    20759739.921  
       186.371         145.211          48.000          45.000  
 127860448.035 6  99631594.219 6  24331037.301                    24331053.958  
     -3268.094       -2546.887          38.000          37.000  
 117426010.510 7  91500873.676 6  22345426.822                    22345446.295  
      2940.691        2291.266          47.000          40.000  
 24  1 10  3 17 12.3000000  0  8G08G24G18G23G16G10G15G32
 130843067.952 6 101955719.435 6  24898620.351                    24898641.909  
      2939.719        2290.457          37.000          37.000  
 129640381.85724 101018570.141 6  24669743.571                    24669764.816  
       383.699         298.688          27.000          38.000  
 114172033.379 7  88965285.403 7  21726217.031                    21726232.320  
     -1716.852       -1338.129          44.000          43.000  
 110850705.419 7  86377230.905 7  21094188.585                    21094202.885  
     -1726.734       -1345.844          45.000          45.000  
 128985134.518 5 100508080.979 3  24545077.054    24545100.579                  
     -2180.590       -1699.066          35.000          20.000  
 109093059.776 8  85007646.997 7  20759720.303                    20759736.389  
       186.039         144.555          48.000          45.000  
 127860774.836 6  99631848.884 6  24331099.489                    24331116.150  
     -3268.164       -2546.695          38.000          37.000  
 117425716.481 7  91500644.566 6  22345370.870                    22345390.344  
      2940.512        2291.164          47.000          39.000  
 24  1 10  3 17 12.4000000  0  8G08G24G18G23G16G10G15G32
 130842774.058 6 101955490.429 6  24898564.113                    24898585.616  
      2939.336        2290.188          37.000          37.000  
 129640343.39924 101018540.214 6  24669736.213                    24669757.953  
       383.859         299.109          28.000          38.000  
 114172205.129 7  88965419.294 7  21726249.855                    21726264.924  
     -1716.867       -1338.254          44.000          43.000  
 110850878.103 7  86377365.500 7  21094221.680                    21094236.036  
     -1726.844       -1345.859          45.000          44.000  
 128985352.684 6 100508250.970 3  24545118.827    24545142.170                  
     -2181.012       -1699.531          36.000          20.000  
 109093041.173 8  85007632.487 7  20759716.661                    20759732.830  
       186.004         145.035          48.000          45.000  
 127861101.740 6  99632103.645 6  24331161.666                    24331178.006  
     -3268.484       -2547.523          38.000          37.000  
 117425422.432 7  91500415.438 6  22345315.071                    22345334.444  
      2940.496        2291.383          47.000          39.000  
 24  1 10  3 17 12.5000000  0  8G08G24G18G23G16G10G15G32
 130842480.175 6 101955261.390 6  24898508.189                    24898529.683  
      2939.059        2290.164          37.000          37.000  
 129640305.17925 101018510.344 6  24669728.940                    24669750.658  
       383.055         298.520          31.000          37.000  
 114172376.831 7  88965553.052 7  21726282.529                    21726297.589  
     -1717.258       -1338.035          44.000          43.000  
 110851050.819 7  86377500.073 7  21094254.547                    21094268.900  
     -1727.098       -1345.934          45.000          44.000  
 128985570.789 6 100508420.933 3  24545160.332    24545183.677                  
     -2181.141       -1699.770          36.000          20.000  
 109093022.607 8  85007618.025 7  20759713.128                    20759729.298  
       185.707         144.410          48.000          45.000  
 127861428.640 6  99632358.404 6  24331223.873                    24331240.221  
     -3268.848       -2547.727          38.000          37.000  
 117425128.351 7  91500186.295 6  22345259.109                    22345278.484  
      2940.527        2291.160          47.000          39.000  
 24  1 10  3 17 12.6000000  0  8G08G24G18G23G16G10G15G32
 130842186.284 6 101955032.403 6  24898452.349                    24898474.285  
      2939.051        2290.008          37.000          37.000  
 129640266.86225 101018480.501 6  24669722.336                    24669743.675  
       383.328         298.402          33.000          37.000  
 114172548.540 7  88965686.839 7  21726315.071                    21726330.542  
     -1717.016       -1337.820          44.000          44.000  
 110851223.545 7  86377634.673 7  21094287.838                    21094301.724  
     -1727.098       -1345.660          45.000          45.000  
 128985788.841 5 100508590.853 3  24545201.419    24545225.212                  
     -2180.688       -1699.121          35.000          20.000  
 109093004.024 8  85007603.534 7  20759709.506                    20759726.119  
       185.828         144.945          48.000          45.000  
 127861755.589 6  99632613.111 6  24331286.019                    24331302.431  
     -3269.070       -2547.160          39.000          37.000  
 117424834.275 7  91499957.142 6  22345203.226                    22345222.523  
      2940.828        2291.754          47.000          39.000  
 24  1 10  3 17 12.7000000  0  8G08G24G18G23G16G10G15G32
 130841892.429 6 101954803.434 6  24898396.430                    24898418.369  
      2938.758        2289.848          37.000          37.000  
 129640228.46325 101018450.676 6  24669715.029                    24669736.392  
       383.480         298.207          32.000          37.000  
 114172720.228 7  88965820.597 7  21726347.742                    21726363.207  
     -1717.027       -1337.848          44.000          44.000  
 110851396.265 7  86377769.227 7  21094320.705                    21094334.583  
     -1727.191       -1345.731          44.000          44.000  
 128986006.979 6 100508760.827 3  24545242.929    24545266.722                  
     -2181.039       -1699.590          36.000          20.000  
 109092985.414 8  85007589.062 7  20759705.965                    20759722.585  
       186.000         145.062          48.000          45.000  
 127862082.459 6  99632867.817 6  24331348.220                    24331364.633  
     -3268.891       -2547.160          39.000          37.000  
 117424540.155 7  91499727.950 6  22345147.257                    22345166.552  
      2941.059        2291.922          47.000          39.000  
 24  1 10  3 17 12.8000000  0  8G08G24G18G23G16G10G15G32
 130841598.548 6 101954574.419 6  24898340.467                    24898362.574  
      2938.828        2289.742          37.000          37.000  
 129640190.09725 101018420.765 6  24669708.064                    24669729.149  
       383.621         299.023          32.000          36.000  
 114172891.861 7  88965954.422 7  21726380.817                    21726396.397  
     -1716.438       -1337.957          44.000          44.000  
 110851568.919 7  86377903.758 7  21094353.904                    21094367.539  
     -1726.832       -1345.238          44.000          44.000  
 128986225.030 6 100508930.742 3  24545284.369    24545308.224                  
     -2180.844       -1699.336          36.000          20.000  
 109092966.754 8  85007574.517 7  20759702.453                    20759718.962  
       186.438         145.344          48.000          45.000  
 127862409.380 6  99633122.590 6  24331410.595                    24331426.983  
     -3269.223       -2547.621          39.000          37.000  
 117424245.986 7  91499498.732 6  22345090.990                    22345110.387  
      2941.441        2292.234          47.000          39.000  
 24  1 10  3 17 12.9000000  0  8G08G24G18G23G16G10G15G32
 130841304.715 6 101954345.471 6  24898284.553                    24898306.662  
      2938.582        2289.641          37.000          37.000  
 129640151.421 5 101018390.986 6  24669700.704                    24669721.877  
       382.637         298.043          32.000          36.000  
 114173063.553 7  88966088.174 7  21726413.489                    21726429.060  
     -1716.746       -1337.504          44.000          43.000  
 110851741.611 7  86378038.332 7  21094386.766                    21094400.403  
     -1726.719       -1345.531          44.000          44.000  
 128986443.061 6 100509100.635 3  24545325.858    24545349.714                  
     -2180.551       -1699.000          36.000          20.000  
 109092948.099 8  85007559.976 7  20759698.903                    20759715.411  
       186.590         145.531          48.000          45.000  
 127862736.386 6  99633377.384 6  24331472.822                    24331489.207  
     -3269.527       -2547.898          39.000          37.000  
 117423951.795 7  91499269.473 6  22345035.007                    22345054.400  
      2941.703        2292.652          47.000          39.000  
 24  1 10  3 17 13.0000000  0  8G08G24G18G23G16G10G15G32
 130841010.886 6 101954116.472 6  24898228.655                    24898250.504  
      2938.477        2289.836          37.000          37.000  
 129640113.134 5 101018361.171 6  24669694.161                    24669713.955  
       382.676         297.871          31.000          36.000  
 114173235.239 7  88966221.948 7  21726446.152                    21726461.096  
     -1716.895       -1337.762          44.000          43.000  
 110851914.323 7  86378172.928 7  21094418.898                    21094433.585  
     -1727.043       -1345.961          44.000          44.000  
 128986661.053 6 100509270.492 3  24545367.497    24545391.218                  
     -2180.164       -1698.574          36.000          21.000  
 109092929.441 8  85007545.423 7  20759695.517                    20759711.764  
       186.484         145.492          48.000          45.000  
 127863063.369 6  99633632.183 6  24331535.288                    24331551.572  
     -3269.742       -2547.797          39.000          38.000  
 117423657.589 7  91499040.220 6  22344979.240                    22344998.414  
      2941.926        2292.207          47.000          39.000  
 24  1 10  3 17 13.1000000  0  8G08G24G18G23G16G10G15G32
 130840717.053 6 101953887.549 6  24898172.740                    24898194.599  
      2938.406        2289.328          37.000          37.000  
 129640074.844 5 101018331.406 6  24669686.874                    24669706.687  
       382.781         297.688          31.000          36.000  
 114173406.962 7  88966355.732 7  21726478.829                    21726493.768  
     -1717.023       -1338.051          44.000          43.000  
 110852087.027 7  86378307.470 7  21094451.762                    21094466.442  
     -1727.164       -1345.781          44.000          44.000  
 128986879.049 5 100509440.355 3  24545408.980    24545432.701                  
     -2180.109       -1698.672          35.000          20.000  
 109092910.781 8  85007530.904 7  20759691.966                    20759708.218  
       186.609         145.379          48.000          45.000  
 127863390.383 6  99633887.007 6  24331597.516                    24331613.802  
     -3270.008       -2548.285          38.000          38.000  
 117423363.394 7  91498811.023 6  22344923.257                    22344942.441  
      2941.996        2292.480          47.000          39.000  
 24  1 10  3 17 13.2000000  0  8G08G24G18G23G16G10G15G32
 130840423.206 6 101953658.607 6  24898116.987                    24898138.861  
      2938.434        2289.484          37.000          37.000  
 129640036.730 5 101018301.623 6  24669679.426                    24669699.609  
       381.984         297.574          30.000          37.000  
 114173578.702 7  88966489.548 7  21726511.753                    21726525.642  
     -1717.336       -1338.281          45.000          43.000  
 110852259.771 7  86378442.094 7  21094484.744                    21094499.006  
     -1727.297       -1346.031          44.000          44.000  
 128987097.074 5 100509610.236 3  24545450.501    24545474.148                  
     -2180.285       -1698.988          35.000          21.000  
 109092892.138 8  85007516.369 7  20759688.715                    20759704.715  
       186.434         145.113          48.000          45.000  
 127863717.458 6  99634141.849 6  24331659.905                    24331676.201  
     -3270.312       -2548.340          39.000          38.000  
 117423069.196 7  91498581.739 6  22344867.343                    22344886.503  
      2941.953        2292.348          47.000          39.000  
 24  1 10  3 17 13.3000000  0  8G08G24G18G23G16G10G15G32
 130840129.436 6 101953429.623 6  24898061.084                    24898082.940  
      2938.031        2289.418          37.000          37.000  
 129639998.448 5 101018271.888 6  24669672.142                    24669692.347  
       382.402         297.383          30.000          37.000  
 114173750.444 7  88966623.390 7  21726544.434                    21726558.328  
     -1717.477       -1338.566          45.000          43.000  
 110852432.545 7  86378576.721 7  21094517.621                    21094531.883  
     -1727.523       -1346.289          45.000          44.000  
 128987315.084 6 100509780.113 3  24545491.986    24545515.634                  
     -2180.086       -1698.668          36.000          21.000  
 109092873.534 8  85007501.854 7  20759685.175                    20759701.170  
       186.199         144.922          48.000          45.000  
 127864044.531 6  99634396.728 6  24331722.145                    24331738.446  
     -3270.594       -2548.723          39.000          38.000  
 117422775.016 7  91498352.504 6  22344811.362                    22344830.521  
      2941.809        2292.500          47.000          39.000  
 24  1 10  3 17 13.4000000  0  8G08G24G18G23G16G10G15G32
 130839835.647 6 101953200.756 6  24898005.202                    24898026.885  
      2937.914        2288.887          37.000          37.000  
 129639960.298 5 101018242.169 6  24669664.655                    24669685.363  
       381.723         297.004          30.000          37.000  
 114173922.226 7  88966757.260 7  21726577.326                    21726591.802  
     -1717.512       -1338.340          44.000          43.000  
 110852605.371 7  86378711.366 7  21094550.462                    21094565.007  
     -1728.031       -1346.606          44.000          45.000  
 128987533.121 6 100509950.011 3  24545533.415    24545557.093                  
     -2180.086       -1698.637          37.000          21.000  
 109092854.975 8  85007487.395 7  20759681.760                    20759697.311  
       185.859         144.734          48.000          45.000  
 127864371.617 6  99634651.621 6  24331784.145                    24331801.068  
     -3270.707       -2548.883          39.000          38.000  
 117422480.872 7  91498123.300 6  22344755.435                    22344774.758  
      2941.562        2291.691          47.000          39.000  
 24  1 10  3 17 13.5000000  0  8G08G24G18G23G16G10G15G32
 130839541.893 6 101952971.824 6  24897949.302                    24897970.977  
      2937.758        2289.352          37.000          37.000  
 129639922.246 5 101018212.451 6  24669657.414                    24669678.105  
       381.262         297.340          30.000          37.000  
 114174094.010 7  88966891.130 7  21726610.016                    21726624.494  
     -1717.723       -1338.785          45.000          43.000  
 110852778.142 7  86378846.005 7  21094583.339                    21094597.887  
     -1727.898       -1346.469          45.000          45.000  
 128987751.187 5 100510119.932 3  24545574.911    24545598.590                  
     -2180.461       -1699.211          35.000          21.000  
 109092836.388 8  85007472.928 7  20759678.223                    20759693.778  
       185.789         144.680          48.000          45.000  
 127864698.722 6  99634906.489 6  24331846.391                    24331863.310  
     -3270.824       -2548.699          39.000          38.000  
 117422186.693 7  91497894.061 6  22344699.455                    22344718.776  
      2941.617        2292.406          47.000          39.000  
 24  1 10  3 17 13.6000000  0  8G08G24G18G23G16G10G15G32
 130839248.129 6 101952742.915 6  24897893.424                    24897915.021  
      2937.617        2289.219          37.000          37.000  
 129639884.101 5 101018182.713 6  24669649.773                    24669670.663  
       381.484         297.340          31.000          37.000  
 114174265.821 7  88967024.970 7  21726642.484                    21726657.007  
     -1717.953       -1338.703          44.000          43.000  
 110852950.947 7  86378980.701 7  21094616.348                    21094630.930  
     -1727.852       -1346.684          45.000          45.000  
 128987969.212 5 100510289.819 3  24545616.455    24545640.055                  
     -2180.445       -1699.141          35.000          21.000  
 109092817.821 8  85007458.446 7  20759674.135                    20759690.523  
       185.836         144.848          48.000          45.000  
 127865025.808 6  99635161.336 6  24331908.594                    24331925.350  
     -3270.805       -2548.832          39.000          38.000  
 117421892.566 7  91497664.876 6  22344643.633                    22344663.017  
      2941.547        2292.047          47.000          39.000  
 24  1 10  3 17 13.7000000  0  8G08G24G18G23G16G10G15G32
 130838954.409 6 101952514.027 6  24897837.531                    24897859.124  
      2937.508        2288.891          37.000          37.000  
 129639845.886 5 101018152.952 6  24669642.501                    24669663.395  
       381.762         297.578          31.000          38.000  
 114174437.588 7  88967158.837 7  21726675.170                    21726689.699  
     -1717.746       -1338.418          44.000          43.000  
 110853123.754 7  86379115.343 7  21094649.232                    21094663.810  
     -1728.008       -1346.449          45.000          45.000  
 128988187.272 6 100510459.739 3  24545657.951    24545681.551                  
     -2180.574       -1699.277          36.000          21.000  
 109092799.277 8  85007444.007 7  20759670.606                    20759686.997  
       185.711         144.578          48.000          45.000  
 127865352.938 6  99635416.220 6  24331970.845                    24331987.596  
     -3271.055       -2548.383          39.000          38.000  
 117421598.403 7  91497435.685 6  22344587.656                    22344607.046  
      2941.512        2291.684          46.000          39.000  
 24  1 10  3 17 13.8000000  0  8G08G24G18G23G16G10G15G32
 130838660.641 6 101952285.177 6  24897781.934                    24897803.471  
      2937.484        2288.695          37.000          38.000  
 129639807.745 5 101018123.206 6  24669635.149                    24669655.873  
       381.699         297.512          31.000          38.000  
 114174609.380 7  88967292.687 7  21726707.173                    21726722.418  
     -1717.812       -1338.496          44.000          43.000  
 110853296.590 7  86379249.993 7  21094682.442                    21094696.162  
     -1728.066       -1346.273          44.000          45.000  
 128988405.414 5 100510629.717 3  24545699.727    24545723.053                  
     -2181.012       -1699.738          35.000          21.000  
 109092780.749 8  85007429.553 7  20759667.206                    20759683.615  
       185.441         144.457          48.000          45.000  
 127865679.981 6  99635671.062 6  24332032.572                    24332049.659  
     -3270.805       -2548.559          38.000          39.000  
 117421304.277 7  91497206.503 6  22344532.060                    22344550.953  
      2941.480        2291.930          47.000          39.000  
 24  1 10  3 17 13.9000000  0  8G08G24G18G23G16G10G15G32
 130838366.958 6 101952056.319 6  24897726.048                    24897747.581  
      2937.215        2288.660          37.000          37.000  
 129639769.482 5 101018093.469 6  24669627.868                    24669648.611  
       381.875         297.543          30.000          38.000  
 114174781.151 7  88967426.523 7  21726739.860                    21726755.102  
     -1717.668       -1338.434          44.000          43.000  
 110853469.391 7  86379384.622 7  21094715.325                    21094729.040  
     -1728.129       -1346.645          44.000          45.000  
 128988623.544 5 100510799.691 3  24545741.236    24545764.563                  
     -2181.109       -1699.688          35.000          21.000  
 109092762.219 8  85007415.124 7  20759663.680                    20759680.092  
       185.340         144.340          48.000          45.000  
 127866007.080 6  99635925.949 6  24332094.816                    24332111.905  
     -3270.984       -2548.734          37.000          39.000  
 117421010.167 7  91496977.307 6  22344476.093                    22344494.981  
      2941.145        2291.715          47.000          39.000  
 24  1 10  3 17 14.0000000  0  8G08G24G18G23G16G10G15G32
 130838073.286 6 101951827.467 6  24897669.992                    24897691.693  
      2936.914        2288.434          37.000          37.000  
 129639731.332 5 101018063.723 6  24669620.538                    24669641.628  
       381.887         297.434          30.000          38.000  
 114174952.887 7  88967560.356 7  21726772.931                    21726787.387  
     -1717.750       -1338.492          44.000          43.000  
 110853642.185 7  86379519.325 7  21094747.816                    21094762.092  
     -1728.000       -1346.547          44.000          45.000  
 128988841.729 6 100510969.708 3  24545783.044    24545806.067                  
     -2181.414       -1699.934          36.000          21.000  
 109092743.697 8  85007400.691 7  20759660.053                    20759676.208  
       185.234         144.137          48.000          45.000  
 127866334.164 6  99636180.836 6  24332156.832                    24332174.291  
     -3270.711       -2548.773          37.000          39.000  
 117420716.052 7  91496748.127 6  22344419.883                    22344439.005  
      2941.211        2291.848          47.000          38.000  
 24  1 10  3 17 14.1000000  0  8G08G24G18G23G16G10G15G32
 130837779.622 6 101951598.640 6  24897614.109                    24897635.811  
      2936.898        2288.602          37.000          37.000  
 129639693.151 5 101018033.972 6  24669613.272                    24669634.363  
       381.914         297.578          31.000          39.000  
 114175124.643 7  88967694.204 7  21726805.615                    21726820.074  
     -1717.465       -1338.301          43.000          43.000  
 110853815.009 7  86379653.969 7  21094780.703                    21094794.974  
     -1728.051       -1346.371          44.000          45.000  
 128989059.805 5 100511139.628 3  24545824.543    24545847.563                  
     -2181.074       -1699.371          35.000          21.000  
 109092725.204 8  85007386.280 7  20759656.534                    20759672.688  
       185.008         144.277          48.000          45.000  
 127866661.191 6  99636435.689 6  24332219.063                    24332236.529  
     -3270.527       -2548.484          38.000          39.000  
 117420421.955 7  91496518.967 6  22344363.918                    22344383.042  
      2941.082        2291.684          47.000          38.000  
 24  1 10  3 17 14.2000000  0  8G08G24G18G23G16G10G15G32
 130837485.952 6 101951369.844 6  24897558.140                    24897579.874  
      2936.633        2287.754          37.000          37.000  
 129639655.040 5 101018004.196 6  24669606.832                    24669626.989  
       381.375         297.703          30.000          39.000  
 114175296.429 7  88967828.070 7  21726838.281                    21726852.711  
     -1717.535       -1338.340          43.000          43.000  
 110853987.779 7  86379788.598 7  21094813.549                    21094827.859  
     -1727.906       -1346.582          44.000          45.000  
 128989278.052 5 100511309.688 3  24545866.183    24545889.109                  
     -2182.016       -1700.707          34.000          21.000  
 109092706.705 8  85007371.868 7  20759653.366                    20759669.091  
       185.086         144.113          48.000          45.000  
 127866988.237 6  99636690.526 6  24332281.204                    24332299.286  
     -3270.637       -2548.363          38.000          39.000  
 117420127.872 7  91496289.816 6  22344307.714                    22344326.596  
      2941.012        2291.680          47.000          38.000  
 24  1 10  3 17 14.3000000  0  8G08G24G18G23G16G10G15G32
 130837192.312 6 101951141.009 6  24897502.262                    24897523.991  
      2936.535        2288.434          37.000          37.000  
 129639617.06934 101017974.434 6  24669599.544                    24669619.721  
       383.105         297.688          29.000          38.000  
 114175468.153 7  88967961.874 7  21726870.960                    21726885.387  
     -1717.586       -1338.332          43.000          43.000  
 110854160.579 7  86379923.240 7  21094846.432                    21094860.740  
     -1727.992       -1346.340          44.000          45.000  
 128989496.327 5 100511479.771 3  24545907.719    24545930.645                  
     -2182.219       -1700.582          34.000          20.000  
 109092688.222 8  85007357.469 7  20759649.848                    20759665.574  
       184.988         143.914          48.000          45.000  
 127867315.299 6  99636945.376 6  24332343.442                    24332361.523  
     -3270.574       -2548.508          38.000          39.000  
 117419833.801 7  91496060.666 6  22344251.754                    22344270.635  
      2940.793        2291.695          47.000          38.000  
 24  1 10  3 17 14.4000000  0  8G08G24G18G23G16G10G15G32
 130836898.655 6 101950912.172 6  24897446.256                    24897468.239  
      2936.520        2288.500          37.000          38.000  
 129639578.98034 101017944.636 6  24669592.609                    24669612.686  
       381.980         297.809          29.000          38.000  
 114175639.875 7  88968095.642 7  21726903.129                    21726918.226  
     -1717.391       -1337.793          43.000          43.000  
 110854333.360 7  86380057.878 7  21094878.717                    21094893.542  
     -1727.867       -1346.375          44.000          45.000  
 128989714.496 5 100511649.778 3  24545949.001    24545972.217                  
     -2181.957       -1700.176          34.000          21.000  
 109092669.731 8  85007343.044 7  20759646.400                    20759662.005  
       184.828         144.199          48.000          45.000  
 127867642.314 6  99637200.227 6  24332405.882                    24332423.682  
     -3270.312       -2548.426          37.000          39.000  
 117419539.709 7  91495831.477 6  22344195.626                    22344214.626  
      2940.777        2291.379          47.000          38.000  
 24  1 10  3 17 14.5000000  0  8G08G24G18G23G16G10G15G32
 130836605.011 6 101950683.356 6  24897390.377                    24897412.360  
      2936.578        2288.160          38.000          38.000  
 129639540.76324 101017914.804 6  24669585.336                    24669605.401  
       382.188         298.188          29.000          38.000  
 114175811.615 7  88968229.515 7  21726935.810                    21726950.919  
     -1717.508       -1338.883          44.000          43.000  
 110854506.177 7  86380192.529 7  21094911.603                    21094926.425  
     -1727.938       -1346.469          44.000          45.000  
 128989932.788 5 100511819.872 3  24545990.541    24546013.756                  
     -2182.422       -1700.719          34.000          20.000  
 109092651.270 8  85007328.663 7  20759642.887                    20759658.493  
       184.762         143.828          48.000          45.000  
 127867969.351 6  99637455.044 6  24332468.115                    24332485.911  
     -3270.410       -2548.277          37.000          40.000  
 117419245.690 7  91495602.399 6  22344139.676                    22344158.683  
      2940.523        2291.020          47.000          38.000  
 24  1 10  3 17 14.6000000  0  8G08G24G18G23G16G10G15G32
 130836311.394 6 101950454.580 6  24897334.605                    24897356.420  
      2936.332        2287.656          38.000          38.000  
 129639502.63024 101017885.073 6  24669577.939                    24669597.703  
       381.547         297.426          29.000          38.000  
 114175983.439 7  88968363.438 7  21726968.906                    21726984.164  
     -1717.711       -1338.637          44.000          43.000  
 110854678.994 7  86380327.203 7  21094944.231                    21094959.189  
     -1728.129       -1346.789          44.000          45.000  
 128990151.042 5 100511989.935 3  24546032.190    24546055.318                  
     -2182.605       -1700.863          34.000          20.000  
 109092632.857 8  85007314.333 7  20759639.219                    20759655.470  
       184.348         143.441          48.000          45.000  
 127868296.437 6  99637709.926 6  24332530.052                    24332548.180  
     -3270.535       -2548.797          37.000          40.000  
 117418951.684 7  91495373.296 6  22344083.705                    22344102.953  
      2940.102        2290.801          47.000          38.000  
 24  1 10  3 17 14.7000000  0  8G08G24G18G23G16G10G15G32
 130836017.792 6 101950225.786 6  24897278.735                    24897300.546  
      2936.148        2288.129          38.000          38.000  
 129639464.31334 101017855.325 6  24669570.663                    24669590.438  
       382.234         297.465          29.000          38.000  
 114176155.227 7  88968497.280 7  21727001.596                    21727016.849  
     -1717.941       -1338.688          44.000          43.000  
 110854851.845 7  86380461.888 7  21094977.124                    21094992.080  
     -1728.426       -1346.797          44.000          45.000  
 128990369.362 5 100512160.050 3  24546073.735    24546096.862                  
     -2182.848       -1701.023          34.000          21.000  
 109092614.462 8  85007299.985 7  20759635.719                    20759651.966  
       184.141         143.391          48.000          45.000  
 127868623.465 6  99637964.787 6  24332592.284                    24332610.419  
     -3270.473       -2548.676          37.000          39.000  
 117418657.736 7  91495144.251 6  22344027.768                    22344047.017  
      2939.828        2290.594          47.000          38.000  
 24  1 10  3 17 14.8000000  0  8G08G24G18G23G16G10G15G32
 130835724.174 6 101949997.007 6  24897222.932                    24897244.598  
      2936.160        2287.602          37.000          38.000  
 129639426.17534 101017825.547 6  24669563.203                    24669583.315  
       382.223         297.746          29.000          38.000  
 114176327.065 7  88968631.133 7  21727034.546                    21727049.405  
     -1718.164       -1338.781          44.000          43.000  
 110855024.682 7  86380596.584 7  21095009.982                    21095025.607  
     -1728.305       -1347.090          44.000          45.000  
 128990587.668 5 100512330.151 3  24546115.051    24546138.434                  
     -2182.961       -1701.082          34.000          21.000  
 109092596.070 8  85007285.666 7  20759631.930                    20759648.360  
       183.984         143.199          48.000          45.000  
 127868950.511 6  99638219.591 6  24332654.151                    24332672.489  
     -3270.445       -2548.004          37.000          39.000  
 117418363.782 7  91494915.185 6  22343971.932                    22343990.913  
      2939.598        2290.469          47.000          38.000  
 24  1 10  3 17 14.9000000  0  8G08G24G18G23G16G10G15G32
 130835430.595 6 101949768.234 6  24897167.065                    24897188.729  
      2935.930        2287.785          37.000          38.000  
 129639387.97024 101017795.828 6  24669555.932                    24669576.057  
       381.852         297.289          28.000          38.000  
 114176498.890 7  88968765.045 7  21727067.243                    21727082.107  
     -1718.117       -1338.977          44.000          43.000  
 110855197.556 7  86380731.274 7  21095042.879                    21095058.500  
     -1728.547       -1346.926          44.000          45.000  
 128990806.039 5 100512500.311 3  24546156.606    24546179.989                  
     -2183.340       -1701.430          35.000          21.000  
 109092577.706 8  85007271.354 7  20759628.435                    20759644.864  
       183.816         143.090          48.000          45.000  
 127869277.557 6  99638474.438 6  24332716.386                    24332734.725  
     -3270.578       -2548.461          38.000          39.000  
 117418069.872 7  91494686.161 6  22343916.003                    22343934.983  
      2939.336        2290.238          47.000          38.000  
 24  1 10  3 17 15.0000000  0  8G08G24G18G23G16G10G15G32
 130835136.976 6 101949539.414 6  24897111.434                    24897132.318  
      2936.082        2288.094          37.000          38.000  
 129639349.96824 101017766.073 6  24669548.521                    24669568.923  
       381.137         297.523          28.000          38.000  
 114176670.715 7  88968898.950 7  21727099.862                    21727114.394  
     -1718.305       -1338.801          44.000          43.000  
 110855370.397 7  86380865.925 7  21095075.582                    21095091.438  
     -1728.547       -1346.840          44.000          45.000  
 128991024.325 5 100512670.397 3  24546197.949    24546221.518                  
     -2183.262       -1701.305          35.000          21.000  
 109092559.339 8  85007257.033 7  20759624.963                    20759641.094  
       183.766         143.262          48.000          45.000  
 127869604.628 6  99638729.274 6  24332778.735                    24332796.545  
     -3270.582       -2548.215          39.000          38.000  
 117417775.954 7  91494457.155 6  22343859.823                    22343879.143  
      2939.250        2290.480          47.000          38.000  
 24  1 10  3 17 15.1000000  0  8G08G24G18G23G16G10G15G32
 130834843.361 6 101949310.666 6  24897055.561                    24897076.455  
      2936.023        2287.535          37.000          37.000  
 129639311.69324 101017736.320 6  24669541.238                    24669561.657  
       382.062         297.430          29.000          38.000  
 114176842.542 7  88969032.816 7  21727132.560                    21727147.086  
     -1718.266       -1338.941          43.000          43.000  
 110855543.243 7  86381000.654 7  21095108.474                    21095124.340  
     -1728.402       -1347.016          44.000          45.000  
 128991242.734 5 100512840.595 3  24546239.511    24546263.082                  
     -2183.484       -1701.508          35.000          20.000  
 109092540.981 8  85007242.734 7  20759621.470                    20759637.602  
       183.703         143.051          48.000          45.000  
 127869931.637 6  99638984.100 6  24332840.963                    24332858.775  
     -3270.320       -2548.430          39.000          38.000  
 117417482.059 7  91494228.115 6  22343803.896                    22343823.209  
      2939.094        2290.062          47.000          38.000  
 24  1 10  3 17 15.2000000  0  8G08G24G18G23G16G10G15G32
 130834549.751 6 101949081.898 6  24897000.095                    24897020.588  
      2936.156        2287.887          37.000          37.000  
 129639273.48524 101017706.582 6  24669533.795                    24669554.700  
       381.723         297.559          29.000          38.000  
 114177014.350 7  88969166.691 7  21727164.894                    21727180.233  
     -1718.211       -1338.887          43.000          43.000  
 110855716.097 7  86381135.327 7  21095141.523                    21095157.017  
     -1728.395       -1346.731          45.000          45.000  
 128991461.071 5 100513010.729 3  24546281.168    24546304.599                  
     -2183.574       -1701.707          35.000          20.000  
 109092522.597 8  85007228.409 7  20759618.620                    20759634.307  
       183.750         143.125          48.000          45.000  
 127870258.679 6  99639238.944 6  24332903.470                    24332920.699  
     -3270.301       -2548.426          39.000          38.000  
 117417188.155 7  91493999.142 6  22343748.007                    22343767.308  
      2939.113        2290.051          47.000          39.000  
 24  1 10  3 17 15.3000000  0  8G08G24G18G23G16G10G15G32
 130834256.206 6 101948853.120 6  24896944.235                    24896964.718  
      2935.715        2287.613          37.000          37.000  
 129639235.37725 101017676.873 6  24669526.543                    24669547.444  
       381.828         297.258          30.000          38.000  
 114177186.218 7  88969300.615 7  21727197.600                    21727212.938  
     -1718.340       -1339.086          43.000          43.000  
 110855888.943 7  86381270.048 7  21095174.415                    21095189.918  
     -1728.453       -1347.070          45.000          45.000  
 128991679.479 5 100513180.932 3  24546322.730    24546346.164                  
     -2183.730       -1701.758          35.000          20.000  
 109092504.241 8  85007214.103 7  20759615.127                    20759630.813  
       183.676         143.133          48.000          45.000  
 127870585.720 6  99639493.778 6  24332965.704                    24332982.932  
     -3270.480       -2548.414          39.000          38.000  
 117416894.268 7  91493770.114 6  22343692.082                    22343711.377  
      2938.953        2289.961          47.000          38.000  
 24  1 10  3 17 15.4000000  0  8G08G24G18G23G16G10G15G32
 130833962.599 6 101948624.322 6  24896888.590                    24896908.968  
      2935.914        2287.852          37.000          37.000  
 129639197.18724 101017647.133 6  24669518.956                    24669540.033  
       381.551         297.539          29.000          38.000  
 114177358.057 7  88969434.522 7  21727229.987                    21727245.757  
     -1718.492       -1339.195          43.000          43.000  
 110856061.806 7  86381404.709 7  21095207.575                    21095223.085  
     -1728.672       -1346.906          45.000          45.000  
 128991897.818 6 100513351.072 3  24546364.231    24546387.699                  
     -2183.531       -1701.438          36.000          20.000  
 109092485.878 8  85007199.791 7  20759611.039                    20759627.404  
       183.590         143.059          48.000          45.000  
 127870912.835 6  99639748.633 6  24333028.296                    24333045.217  
     -3270.789       -2548.652          40.000          38.000  
 117416600.374 7  91493541.124 6  22343636.117                    22343655.455  
      2938.883        2289.926          47.000          38.000  
 24  1 10  3 17 15.5000000  0  8G08G24G18G23G16G10G15G32
 130833668.982 6 101948395.564 6  24896832.717                    24896853.103  
      2936.109        2287.820          37.000          37.000  
 129639158.618 4 101017617.407 6  24669511.616                    24669532.774  
       381.133         296.773          29.000          37.000  
 114177529.938 7  88969568.451 7  21727262.695                    21727278.464  
     -1718.543       -1339.164          44.000          43.000  
 110856234.678 7  86381539.432 7  21095240.471                    21095255.985  
     -1728.672       -1347.066          45.000          45.000  
 128992116.182 6 100513521.219 3  24546405.785    24546429.250                  
     -2183.570       -1701.438          36.000          20.000  
 109092467.553 8  85007185.518 7  20759607.552                    20759623.918  
       183.520         142.945          48.000          45.000  
 127871239.909 6  99640003.493 6  24333090.536                    24333107.456  
     -3270.828       -2548.754          40.000          38.000  
 117416306.517 7  91493312.123 6  22343580.198                    22343599.531  
      2938.781        2290.438          47.000          39.000  
 24  1 10  3 17 15.6000000  0  8G08G24G18G23G16G10G15G32
 130833375.419 6 101948166.828 6  24896776.853                    24896797.681  
      2935.891        2287.512          37.000          37.000  
 129639120.606 4 101017587.769 6  24669504.383                    24669525.739  
       380.539         296.879          29.000          38.000  
 114177701.829 7  88969702.367 7  21727295.537                    21727311.285  
     -1718.934       -1339.477          43.000          43.000  
 110856407.580 7  86381674.145 7  21095273.920                    21095288.899  
     -1728.855       -1347.215          45.000          45.000  
 128992334.597 6 100513691.407 3  24546447.394    24546470.812                  
     -2183.832       -1701.727          36.000          20.000  
 109092449.219 8  85007171.210 7  20759604.094                    20759620.236  
       183.301         142.723          48.000          45.000  
 127871566.992 6  99640258.385 6  24333153.739                    24333170.703  
     -3270.781       -2548.660          40.000          38.000  
 117416012.674 7  91493083.173 6  22343524.297                    22343543.970  
      2938.656        2289.523          47.000          39.000  
 24  1 10  3 17 15.7000000  0  8G08G24G18G23G16G10G15G32
 130833081.849 6 101947938.059 6  24896720.989                    24896741.813  
      2935.711        2287.824          37.000          37.000  
 129639082.88134 101017558.032 6  24669497.118                    24669518.477  
       381.941         297.137          28.000          38.000  
 114177873.721 7  88969836.351 7  21727328.247                    21727344.005  
     -1718.820       -1339.578          43.000          43.000  
 110856580.501 7  86381808.909 7  21095306.826                    21095321.810  
     -1729.086       -1347.441          44.000          45.000  
 128992552.944 6 100513861.548 3  24546488.945    24546512.362                  
     -2183.609       -1701.367          36.000          20.000  
 109092430.918 8  85007156.980 7  20759600.612                    20759616.761  
       183.227         142.660          48.000          45.000  
 127871894.058 6  99640513.216 6  24333215.977                    24333232.936  
     -3270.617       -2548.609          40.000          39.000  
 117415718.831 7  91492854.216 6  22343468.381                    22343488.057  
      2938.535        2289.723          47.000          38.000  
 24  1 10  3 17 15.8000000  0  8G08G24G18G23G16G10G15G32
 130832788.312 6 101947709.332 6  24896665.084                    24896685.940  
      2935.539        2287.387          37.000          37.000  
 129639044.83034 101017528.354 6  24669489.737                    24669511.643  
       380.562         296.582          27.000          38.000  
 114178045.625 7  88969970.265 7  21727360.928                    21727376.403  
     -1718.922       -1339.234          43.000          43.000  
 110856753.416 7  86381943.624 7  21095339.817                    21095354.560  
     -1729.184       -1347.441          44.000          45.000  
 128992771.368 5 100514031.744 3  24546530.400    24546553.941                  
     -2184.023       -1701.992          35.000          20.000  
 109092412.638 8  85007142.726 7  20759597.258                    20759613.132  
       182.934         142.402          48.000          45.000  
 127872221.154 6  99640768.153 6  24333278.323                    24333295.233  
     -3270.895       -2549.219          40.000          39.000  
 117415425.004 7  91492625.212 6  22343412.717                    22343432.272  
      2938.320        2289.617          47.000          39.000  
 24  1 10  3 17 15.9000000  0  8G08G24G18G23G16G10G15G32
 130832494.796 6 101947480.621 6  24896609.230                    24896630.087  
      2935.422        2286.980          37.000          37.000  
 129639006.64034 101017498.703 6  24669482.477                    24669504.402  
       381.773         296.570          26.000          38.000  
 114178217.604 7  88970104.241 7  21727393.655                    21727409.122  
     -1719.449       -1339.824          43.000          43.000  
 110856926.372 7  86382078.416 7  21095372.729                    21095387.478  
     -1729.301       -1347.727          44.000          45.000  
 128992989.827 6 100514201.970 3  24546571.971    24546595.512                  
     -2184.312       -1702.242          36.000          19.000  
 109092394.365 8  85007128.480 7  20759593.781                    20759609.653  
       182.801         142.316          48.000          45.000  
 127872548.330 6  99641023.090 6  24333340.583                    24333357.491  
     -3271.258       -2549.266          40.000          39.000  
 117415131.197 7  91492396.311 6  22343356.808                    22343376.372  
      2938.176        2289.234          47.000          38.000  
 24  1 10  3 17 16.0000000  0  8G08G24G18G23G16G10G15G32
 130832201.237 6 101947251.868 6  24896552.930                    24896574.262  
      2935.535        2287.621          37.000          37.000  
 129638968.42534 101017469.052 6  24669474.963                    24669497.302  
       381.371         296.883          24.000          38.000  
 114178389.499 7  88970238.221 7  21727426.475                    21727441.825  
     -1719.094       -1339.609          43.000          43.000  
 110857099.295 7  86382213.156 7  21095405.417                    21095420.086  
     -1729.270       -1347.356          44.000          45.000  
 128993208.220 6 100514372.140 3  24546613.827    24546637.069                  
     -2183.902       -1701.504          36.000          20.000  
 109092376.057 8  85007114.225 7  20759590.274                    20759605.992  
       183.035         142.723          48.000          45.000  
 127872875.433 6  99641277.934 6  24333402.852                    24333420.406  
     -3271.020       -2548.840          40.000          39.000  
 117414837.350 7  91492167.311 6  22343300.898                    22343319.987  
      2938.324        2289.746          47.000          38.000  
 24  1 10  3 17 16.1000000  0  8G08G24G18G23G16G10G15G32
 130831907.678 6 101947023.122 6  24896497.067                    24896518.400  
      2935.531        2287.293          36.000          37.000  
 129638930.46324 101017439.360 6  24669467.739                    24669490.051  
       380.555         296.648          26.000          38.000  
 114178561.394 7  88970372.176 7  21727459.185                    21727474.539  
     -1718.988       -1339.770          43.000          43.000  
 110857272.203 7  86382347.894 7  21095438.320                    21095452.990  
     -1729.199       -1347.402          45.000          45.000  
 128993426.538 6 100514542.257 3  24546655.372    24546678.614                  
     -2183.793       -1701.621          36.000          20.000  
 109092357.776 8  85007099.959 7  20759586.795                    20759602.508  
       182.910         142.434          48.000          45.000  
 127873202.507 6  99641532.817 6  24333465.092                    24333482.652  
     -3271.078       -2548.762          40.000          39.000  
 117414543.522 7  91491938.365 6  22343244.985                    22343264.076  
      2938.336        2289.730          47.000          39.000  
 24  1 10  3 17 16.2000000  0  8G08G24G18G23G16G10G15G32
 130831614.190 6 101946794.401 6  24896441.007                    24896462.598  
      2935.164        2287.340          37.000          37.000  
 129638892.42634 101017409.688 6  24669460.758                    24669482.859  
       380.957         296.887          28.000          38.000  
 114178733.347 7  88970506.210 7  21727491.798                    21727506.919  
     -1719.281       -1339.871          43.000          43.000  
 110857445.171 7  86382482.638 7  21095471.586                    21095486.091  
     -1729.367       -1347.562          45.000          45.000  
 128993645.028 6 100514712.505 3  24546696.480    24546720.128                  
     -2184.297       -1702.195          36.000          20.000  
 109092339.515 8  85007085.750 7  20759583.265                    20759599.358  
       182.758         142.250          48.000          45.000  
 127873529.681 6  99641787.729 6  24333527.257                    24333544.411  
     -3271.438       -2549.160          39.000          39.000  
 117414249.739 7  91491709.452 6  22343188.955                    22343208.165  
      2938.141        2289.094          47.000          39.000  
 24  1 10  3 17 16.3000000  0  8G08G24G18G23G16G10G15G32
 130831320.671 6 101946565.706 6  24896385.153                    24896406.749  
      2935.125        2287.309          37.000          37.000  
 129638854.39524 101017380.036 6  24669453.521                    24669475.618  
       380.363         296.762          28.000          38.000  
 114178905.310 7  88970640.132 7  21727524.521                    21727539.624  
     -1719.566       -1339.742          43.000          43.000  
 110857618.122 7  86382617.413 7  21095504.498                    21095519.005  
     -1729.520       -1347.832          45.000          45.000  
 128993863.473 6 100514882.718 3  24546738.049    24546761.695                  
     -2184.266       -1702.016          36.000          20.000  
 109092321.263 8  85007071.512 7  20759579.792                    20759595.881  
       182.570         142.254          48.000          45.000  
 127873856.818 6  99642042.648 6  24333589.509                    24333606.665  
     -3271.246       -2549.191          38.000          39.000  
 117413955.934 7  91491480.542 6  22343133.045                    22343152.263  
      2938.023        2289.379          47.000          39.000  
 24  1 10  3 17 16.4000000  0  8G08G24G18G23G16G10G15G32
 130831027.135 6 101946336.978 6  24896329.294                    24896350.742  
      2935.348        2287.277          37.000          37.000  
 129638816.39125 101017350.367 6  24669446.508                    24669468.232  
       380.188         296.535          30.000          38.000  
 114179077.272 7  88970774.197 7  21727557.205                    21727572.302  
     -1719.477       -1340.133          43.000          43.000  
 110857791.058 7  86382752.175 7  21095537.484                    21095552.204  
     -1729.504       -1347.516          44.000          45.000  
 128994081.903 5 100515052.926 3  24546779.732    24546803.246                  
     -2184.348       -1702.156          35.000          20.000  
 109092302.983 8  85007057.276 7  20759576.571                    20759592.678  
       182.723         142.457          48.000          45.000  
 127874183.949 6  99642297.536 6  24333651.276                    24333668.536  
     -3271.398       -2548.836          37.000          38.000  
 117413662.116 7  91491251.560 6  22343077.282                    22343096.343  
      2938.176        2289.625          47.000          39.000  
 24  1 10  3 17 16.5000000  0  8G08G24G18G23G16G10G15G32
 130830733.622 6 101946108.251 6  24896273.441                    24896294.885  
      2935.086        2287.129          37.000          37.000  
 129638778.29025 101017320.746 6  24669439.258                    24669460.998  
       380.691         296.223          30.000          38.000  
 114179249.190 7  88970908.129 7  21727589.920                    21727605.010  
     -1719.324       -1339.656          43.000          43.000  
 110857964.019 7  86382886.954 7  21095570.398                    21095585.119  
     -1729.406       -1347.770          44.000          45.000  
 128994300.280 5 100515223.086 3  24546821.288    24546844.801                  
     -2184.008       -1701.719          35.000          20.000  
 109092284.735 8  85007043.060 7  20759573.099                    20759589.206  
       182.562         142.297          48.000          45.000  
 127874511.126 6  99642552.403 6  24333713.536                    24333730.778  
     -3271.523       -2548.836          36.000          38.000  
 117413368.344 7  91491022.644 6  22343021.379                    22343040.440  
      2937.914        2289.297          47.000          39.000  
 24  1 10  3 17 16.6000000  0  8G08G24G18G23G16G10G15G32
 130830440.146 6 101945879.580 6  24896217.547                    24896239.541  
      2935.035        2286.844          37.000          37.000  
 129638740.31825 101017291.098 6  24669432.126                    24669453.304  
       380.172         296.246          31.000          38.000  
 114179421.170 7  88971042.152 7  21727622.483                    21727637.521  
     -1719.609       -1340.055          43.000          43.000  
 110858136.992 7  86383021.743 7  21095603.384                    21095618.028  
     -1729.605       -1347.793          45.000          45.000  
 128994518.748 5 100515393.324 3  24546863.243    24546886.351                  
     -2184.414       -1702.285          35.000          20.000  
 109092266.515 8  85007028.872 7  20759569.499                    20759585.523  
       182.500         142.043          48.000          45.000  
 127874838.244 6  99642807.385 6  24333775.058                    24333792.734  
     -3271.410       -2549.508          36.000          38.000  
 117413074.567 7  91490793.701 6  22342965.452                    22342984.225  
      2937.844        2289.020          47.000          38.000  
 24  1 10  3 17 16.7000000  0  8G08G24G18G23G16G10G15G32
 130830146.632 6 101945650.842 6  24896161.693                    24896183.681  
      2935.086        2287.152          37.000          37.000  
 129638702.31325 101017261.501 6  24669424.894                    24669446.077  
       380.059         296.156          31.000          37.000  
 114179593.126 7  88971176.146 7  21727655.205                    21727670.243  
     -1719.539       -1340.047          43.000          43.000  
 110858309.961 7  86383156.528 7  21095636.299                    21095650.943  
     -1729.625       -1347.746          45.000          45.000  
 128994737.215 6 100515563.560 3  24546904.816    24546927.925                  
     -2184.395       -1702.066          36.000          20.000  
 109092248.261 8  85007014.635 7  20759566.025                    20759582.046  
       182.398         142.254          48.000          45.000  
 127875165.436 6  99643062.300 6  24333837.320                    24333854.987  
     -3271.504       -2549.070          37.000          38.000  
 117412780.785 7  91490564.834 6  22342909.547                    22342928.333  
      2937.906        2288.945          47.000          38.000  
 24  1 10  3 17 16.8000000  0  8G08G24G18G23G16G10G15G32
 130829853.128 6 101945422.195 6  24896105.974                    24896127.999  
      2934.914        2286.504          37.000          37.000  
 129638664.28225 101017231.874 6  24669417.727                    24669438.396  
       380.102         296.117          31.000          37.000  
 114179765.142 7  88971310.139 7  21727688.548                    21727703.599  
     -1719.938       -1339.961          43.000          43.000  
 110858482.944 7  86383291.305 7  21095669.552                    21095683.748  
     -1729.754       -1347.770          45.000          45.000  
 128994955.655 5 100515733.771 3  24546946.329    24546969.492                  
     -2184.527       -1702.328          35.000          20.000  
 109092230.031 8  85007000.436 7  20759562.439                    20759578.649  
       182.477         142.074          48.000          45.000  
 127875492.623 6  99643317.234 6  24333899.644                    24333917.096  
     -3271.742       -2549.234          38.000          38.000  
 117412487.036 7  91490335.903 6  22342853.500                    22342872.645  
      2937.684        2289.516          47.000          38.000  
 24  1 10  3 17 16.9000000  0  8G08G24G18G23G16G10G15G32
 130829559.637 6 101945193.500 6  24896050.125                    24896072.150  
      2935.000        2286.844          37.000          37.000  
 129638625.773 5 101017202.243 6  24669410.399                    24669431.160  
       379.879         296.164          31.000          37.000  
 114179937.164 7  88971444.184 7  21727721.283                    21727736.334  
     -1719.922       -1340.305          44.000          43.000  
 110858655.921 7  86383426.079 7  21095702.468                    21095716.661  
     -1729.832       -1348.016          45.000          45.000  
 128995174.127 5 100515904.003 3  24546987.903    24547011.064                  
     -2184.465       -1702.094          35.000          20.000  
 109092211.797 8  85006986.244 7  20759558.969                    20759575.183  
       182.363         141.844          48.000          45.000  
 127875819.792 6  99643572.196 6  24333961.903                    24333979.361  
     -3271.688       -2549.656          38.000          38.000  
 117412193.262 7  91490107.012 6  22342797.597                    22342816.747  
      2937.574        2288.637          47.000          38.000  
 24  1 10  3 17 17.0000000  0  8G08G24G18G23G16G10G15G32
 130829266.158 6 101944964.796 6  24895994.379                    24896015.946  
      2934.973        2286.766          37.000          37.000  
 129638587.918 5 101017172.706 6  24669402.648                    24669423.869  
       379.531         295.504          31.000          37.000  
 114180109.178 7  88971578.241 7  21727754.500                    21727768.916  
     -1720.172       -1340.645          44.000          43.000  
 110858828.931 7  86383560.918 7  21095735.485                    21095749.504  
     -1729.977       -1348.219          45.000          45.000  
 128995392.625 5 100516074.265 3  24547029.193    24547052.621                  
     -2184.938       -1702.801          35.000          20.000  
 109092193.602 8  85006972.042 7  20759555.671                    20759571.379  
       182.000         141.855          48.000          45.000  
 127876146.920 6  99643827.182 6  24334023.809                    24334041.724  
     -3271.449       -2549.586          39.000          38.000  
 117411899.539 7  91489878.152 6  22342741.523                    22342760.646  
      2937.410        2288.875          47.000          38.000  
 24  1 10  3 17 17.1000000  0  8G08G24G18G23G16G10G15G32
 130828972.715 6 101944736.118 6  24895938.539                    24895960.101  
      2934.656        2286.949          37.000          37.000  
 129638549.981 5 101017143.132 6  24669395.429                    24669416.646  
       379.234         295.750          30.000          37.000  
 114180281.199 7  88971712.271 7  21727787.235                    21727801.647  
     -1720.102       -1340.312          43.000          43.000  
 110859001.943 7  86383695.716 7  21095768.408                    21095782.423  
     -1730.164       -1348.270          45.000          45.000  
 128995611.050 5 100516244.463 3  24547070.758    24547094.185                  
     -2184.656       -1702.379          35.000          20.000  
 109092175.418 8  85006957.881 7  20759552.210                    20759567.920  
       181.941         141.578          48.000          45.000  
 127876474.099 6  99644082.101 6  24334086.069                    24334103.978  
     -3271.750       -2549.305          39.000          38.000  
 117411605.824 7  91489649.284 6  22342685.631                    22342704.754  
      2937.285        2288.680          47.000          38.000  
 24  1 10  3 17 17.2000000  0  8G08G24G18G23G16G10G15G32
 130828679.277 6 101944507.516 6  24895882.840                    24895904.016  
      2934.484        2286.348          38.000          36.000  
 129638511.992 5 101017113.513 6  24669388.013                    24669408.999  
       379.750         296.027          30.000          37.000  
 114180453.218 7  88971846.349 7  21727819.750                    21727834.187  
     -1720.098       -1340.434          43.000          43.000  
 110859174.961 7  86383830.557 7  21095801.543                    21095815.455  
     -1730.023       -1348.109          45.000          45.000  
 128995829.601 5 100516414.767 3  24547112.104    24547135.767                  
     -2184.910       -1702.586          35.000          20.000  
 109092157.227 8  85006943.699 7  20759548.428                    20759564.683  
       181.949         141.773          48.000          45.000  
 127876801.334 6  99644337.109 6  24334148.238                    24334166.066  
     -3271.980       -2550.023          39.000          38.000  
 117411312.080 7  91489420.374 6  22342630.312                    22342648.727  
      2937.324        2288.926          47.000          38.000  
 24  1 10  3 17 17.3000000  0  8G08G24G18G23G16G10G15G32
 130828385.851 6 101944278.847 6  24895827.003                    24895848.173  
      2934.410        2286.473          37.000          36.000  
 129638473.961 4 101017083.903 6  24669380.776                    24669401.768  
       379.902         296.109          29.000          37.000  
 114180625.297 7  88971980.378 7  21727852.496                    21727866.919  
     -1720.492       -1340.363          43.000          43.000  
 110859347.993 7  86383965.370 7  21095834.470                    21095848.377  
     -1730.199       -1348.191          45.000          45.000  
 128996048.123 5 100516585.040 3  24547153.688    24547177.349                  
     -2185.055       -1702.664          35.000          20.000  
 109092139.063 8  85006929.549 7  20759544.972                    20759561.228  
       181.797         141.551          48.000          45.000  
 127877128.527 6  99644592.060 6  24334210.501                    24334228.328  
     -3271.988       -2549.516          39.000          39.000  
 117411018.372 7  91489191.539 6  22342574.421                    22342592.843  
      2937.230        2288.617          47.000          38.000  
 24  1 10  3 17 17.4000000  0  8G08G24G18G23G16G10G15G32
 130828092.491 6 101944050.178 6  24895771.272                    24895792.392  
      2933.926        2286.535          37.000          36.000  
 129638436.061 4 101017054.404 6  24669373.165                    24669394.673  
       379.340         295.191          29.000          37.000  
 114180797.304 7  88972114.427 7  21727885.001                    21727900.147  
     -1720.336       -1340.844          43.000          43.000  
 110859521.047 7  86384100.233 7  21095866.862                    21095881.164  
     -1730.402       -1348.586          44.000          45.000  
 128996266.561 5 100516755.248 3  24547195.755    24547218.932                  
     -2184.859       -1702.465          35.000          20.000  
 109092120.946 8  85006915.435 7  20759541.860                    20759557.570  
       181.410         141.246          48.000          45.000  
 127877455.729 6  99644847.048 6  24334272.539                    24334291.255  
     -3271.980       -2549.758          38.000          39.000  
 117410724.654 7  91488962.650 6  22342518.551                    22342537.462  
      2937.027        2288.617          47.000          39.000  
 24  1 10  3 17 17.5000000  0  8G08G24G18G23G16G10G15G32
 130827799.078 6 101943821.613 6  24895715.438                    24895736.574  
      2934.133        2285.879          37.000          36.000  
 129638398.094 5 101017024.798 6  24669365.940                    24669387.443  
       379.602         296.105          30.000          37.000  
 114180969.367 7  88972248.559 7  21727917.743                    21727932.903  
     -1720.488       -1341.098          43.000          43.000  
 110859694.113 7  86384235.101 7  21095899.796                    21095914.100  
     -1730.480       -1348.613          44.000          45.000  
 128996485.167 5 100516925.585 3  24547237.355    24547260.530                  
     -2185.262       -1702.859          35.000          20.000  
 109092102.798 8  85006901.306 7  20759538.407                    20759554.120  
       181.570         141.207          48.000          45.000  
 127877782.975 6  99645102.005 6  24334334.812                    24334353.518  
     -3272.324       -2549.895          38.000          39.000  
 117410430.991 7  91488733.789 6  22342462.669                    22342481.572  
      2937.027        2288.477          47.000          39.000  
 24  1 10  3 17 17.6000000  0  8G08G24G18G23G16G10G15G32
 130827505.647 6 101943593.003 6  24895659.600                    24895680.706  
      2934.098        2286.238          37.000          36.000  
 129638360.244 5 101016995.306 6  24669359.058                    24669380.163  
       379.004         295.113          30.000          37.000  
 114181141.481 7  88972382.625 7  21727950.191                    21727965.378  
     -1720.965       -1340.875          43.000          43.000  
 110859867.196 7  86384369.990 7  21095932.381                    21095946.619  
     -1730.660       -1348.863          44.000          45.000  
 128996703.685 5 100517095.855 3  24547278.937    24547302.119                  
     -2185.398       -1703.035          35.000          20.000  
 109092084.702 8  85006887.179 7  20759534.854                    20759551.037  
       181.160         141.262          48.000          45.000  
 127878110.283 6  99645357.064 6  24334397.386                    24334415.423  
     -3272.484       -2550.211          38.000          39.000  
 117410137.316 7  91488504.961 6  22342406.746                    22342425.448  
      2936.789        2288.457          47.000          39.000  
 24  1 10  3 17 17.7000000  0  8G08G24G18G23G16G10G15G32
 130827212.314 6 101943364.345 6  24895603.780                    24895624.865  
      2933.777        2286.023          37.000          36.000  
 129638322.274 5 101016965.773 6  24669351.833                    24669372.951  
       379.488         295.277          31.000          37.000  
 114181313.591 7  88972516.737 7  21727982.942                    21727998.129  
     -1721.008       -1341.117          43.000          43.000  
 110860040.316 7  86384504.851 7  21095965.324                    21095979.554  
     -1731.008       -1348.539          44.000          45.000  
 128996922.278 5 100517266.186 3  24547320.534    24547343.716                  
     -2185.695       -1703.309          35.000          20.000  
 109092066.593 8  85006873.089 7  20759531.408                    20759547.596  
       181.105         141.008          48.000          45.000  
 127878437.572 6  99645612.053 6  24334459.667                    24334477.694  
     -3272.730       -2549.887          37.000          39.000  
 117409843.636 7  91488276.158 6  22342350.860                    22342369.571  
      2936.730        2288.234          47.000          38.000  
 24  1 10  3 17 17.8000000  0  8G08G24G18G23G16G10G15G32
 130826918.938 6 101943135.812 6  24895547.984                    24895569.024  
      2933.719        2285.859          37.000          36.000  
 129638284.330 5 101016936.254 6  24669344.940                    24669365.804  
       379.227         294.992          31.000          37.000  
 114181485.671 7  88972650.854 7  21728015.633                    21728030.413  
     -1720.938       -1341.043          43.000          43.000  
 110860213.413 7  86384639.711 7  21095998.349                    21096012.605  
     -1730.996       -1348.848          44.000          45.000  
 128997140.777 5 100517436.438 3  24547362.285    24547385.309                  
     -2185.316       -1702.715          35.000          20.000  
 109092048.508 8  85006858.987 7  20759527.967                    20759544.480  
       180.957         140.984          48.000          45.000  
 127878764.837 6  99645867.071 6  24334521.443                    24334539.910  
     -3272.879       -2550.238          37.000          39.000  
 117409549.980 7  91488047.279 6  22342294.433                    22342313.232  
      2936.609        2288.391          47.000          38.000  
 24  1 10  3 17 17.9000000  0  8G08G24G18G23G16G10G15G32
 130826625.559 6 101942907.158 6  24895492.155                    24895513.185  
      2933.773        2286.262          37.000          36.000  
 129638246.463 5 101016906.729 6  24669337.734                    24669358.594  
       379.035         295.312          31.000          37.000  
 114181657.814 7  88972784.960 7  21728048.391                    21728063.164  
     -1721.020       -1340.902          43.000          43.000  
 110860386.538 7  86384774.621 7  21096031.294                    21096045.551  
     -1731.055       -1349.031          44.000          45.000  
 128997359.342 5 100517606.743 3  24547403.876    24547426.899                  
     -2185.430       -1702.891          35.000          20.000  
 109092030.418 8  85006844.890 7  20759524.524                    20759541.038  
       181.027         140.891          48.000          45.000  
 127879092.145 6  99646122.071 6  24334583.728                    24334602.183  
     -3272.930       -2549.945          37.000          39.000  
 117409256.327 7  91487818.487 6  22342238.552                    22342257.358  
      2936.617        2287.855          47.000          39.000  
 24  1 10  3 17 18.0000000  0  8G08G24G18G23G16G10G15G32
 130826332.228 6 101942678.591 6  24895436.735                    24895457.116  
      2933.496        2285.961          37.000          36.000  
 129638208.654 5 101016877.215 6  24669330.875                    24669351.496  
       378.199         295.180          31.000          37.000  
 114181829.971 7  88972919.102 7  21728081.331                    21728096.438  
     -1721.320       -1341.594          43.000          43.000  
 110860559.685 7  86384909.555 7  21096063.969                    21096078.683  
     -1731.293       -1349.234          44.000          45.000  
 128997577.915 5 100517777.056 3  24547445.548    24547468.475                  
     -2185.508       -1702.957          35.000          20.000  
 109092012.358 8  85006830.819 7  20759521.197                    20759537.125  
       180.727         140.840          48.000          45.000  
 127879419.420 6  99646377.117 6  24334645.631                    24334664.788  
     -3272.859       -2550.301          36.000          39.000  
 117408962.693 7  91487589.704 6  22342182.644                    22342201.229  
      2936.418        2287.766          47.000          39.000  
 24  1 10  3 17 18.1000000  0  8G08G24G18G23G16G10G15G32
 130826038.905 6 101942450.043 6  24895380.918                    24895401.302  
      2933.469        2285.520          37.000          36.000  
 129638170.774 4 101016847.705 6  24669323.667                    24669344.289  
       378.863         295.125          29.000          37.000  
 114182002.092 7  88973053.237 7  21728114.085                    21728129.195  
     -1721.328       -1341.215          44.000          43.000  
 110860732.807 7  86385044.456 7  21096096.913                    21096111.628  
     -1731.246       -1348.914          44.000          45.000  
 128997796.488 5 100517947.374 3  24547487.141    24547510.069                  
     -2185.918       -1703.605          34.000          20.000  
 109091994.301 8  85006816.745 7  20759517.761                    20759533.688  
       180.633         140.520          48.000          45.000  
 127879746.738 6  99646632.160 6  24334707.918                    24334727.072  
     -3272.918       -2550.277          36.000          39.000  
 117408669.078 7  91487360.919 6  22342126.771                    22342145.358  
      2936.324        2288.047          47.000          39.000  
 24  1 10  3 17 18.2000000  0  8G08G24G18G23G16G10G15G32
 130825745.573 6 101942221.502 6  24895324.926                    24895345.592  
      2933.219        2285.566          37.000          36.000  
 129638133.009 5 101016818.257 6  24669316.371                    24669336.816  
       378.168         294.684          30.000          37.000  
 114182174.268 7  88973187.377 7  21728146.919                    21728162.344  
     -1721.605       -1341.723          44.000          43.000  
 110860905.974 7  86385179.376 7  21096129.890                    21096144.787  
     -1731.523       -1349.379          44.000          45.000  
 128998015.118 5 100518117.728 3  24547528.549    24547551.671                  
     -2185.945       -1703.387          34.000          20.000  
 109091976.298 8  85006802.727 7  20759514.069                    20759529.929  
       180.270         140.352          48.000          45.000  
 127880074.039 6  99646887.261 6  24334770.638                    24334789.589  
     -3273.125       -2550.973          37.000          39.000  
 117408375.501 7  91487132.141 6  22342070.937                    22342090.027  
      2936.008        2287.770          47.000          38.000  
 24  1 10  3 17 18.3000000  0  8G08G24G18G23G16G10G15G32
 130825452.294 6 101941992.939 6  24895269.117                    24895289.775  
      2933.227        2285.480          37.000          36.000  
 129638095.256 4 101016788.795 6  24669309.187                    24669329.621  
       378.117         294.883          29.000          37.000  
 114182346.444 7  88973321.586 7  21728179.683                    21728195.119  
     -1721.621       -1341.637          44.000          43.000  
 110861079.099 7  86385314.299 7  21096162.834                    21096177.737  
     -1731.383       -1349.180          45.000          45.000  
 128998233.745 5 100518288.085 3  24547570.153    24547593.274                  
     -2186.148       -1703.605          35.000          20.000  
 109091958.241 8  85006788.646 7  20759510.633                    20759526.490  
       180.477         140.672          48.000          45.000  
 127880401.327 6  99647142.269 6  24334832.919                    24334851.865  
     -3272.863       -2550.188          38.000          39.000  
 117408081.903 7  91486903.340 6  22342015.067                    22342034.151  
      2936.000        2287.562          47.000          39.000  
 24  1 10  3 17 18.4000000  0  8G08G24G18G23G16G10G15G32
 130825158.971 6 101941764.378 6  24895213.042                    24895233.918  
      2933.211        2285.629          37.000          37.000  
 129638057.344 5 101016759.292 6  24669301.746                    24669322.776  
       378.324         294.980          30.000          37.000  
 114182518.589 7  88973455.724 7  21728212.543                    21728227.268  
     -1721.492       -1341.543          44.000          43.000  
 110861252.243 7  86385449.221 7  21096195.899                    21096210.601  
     -1731.277       -1349.234          45.000          45.000  
 128998452.323 5 100518458.405 3  24547611.700    24547634.907                  
     -2185.938       -1703.234          35.000          20.000  
 109091940.183 8  85006774.577 7  20759507.384                    20759523.281  
       180.551         140.762          48.000          45.000  
 127880728.683 6  99647397.357 6  24334895.565                    24334913.949  
     -3273.230       -2550.883          38.000          39.000  
 117407788.294 7  91486674.584 6  22341959.406                    22341978.037  
      2936.102        2287.941          47.000          39.000  
 24  1 10  3 17 18.5000000  0  8G08G24G18G23G16G10G15G32
 130824865.619 6 101941535.818 6  24895157.219                    24895178.102  
      2933.262        2285.566          37.000          37.000  
 129638019.628 5 101016729.840 6  24669294.569                    24669315.583  
       377.840         294.586          31.000          37.000  
 114182690.692 7  88973589.840 7  21728245.293                    21728260.020  
     -1721.324       -1341.309          44.000          43.000  
 110861425.352 7  86385584.102 7  21096228.841                    21096243.540  
     -1731.129       -1348.660          45.000          45.000  
 128998670.925 5 100518628.750 3  24547653.298    24547676.507                  
     -2186.000       -1703.434          35.000          20.000  
 109091922.087 8  85006760.479 7  20759503.941                    20759519.838  
       180.820         141.047          48.000          45.000  
 127881055.936 6  99647652.409 6  24334957.839                    24334976.236  
     -3272.883       -2550.512          38.000          38.000  
 117407494.654 7  91486445.737 6  22341903.528                    22341922.150  
      2936.262        2288.035          47.000          38.000  
 24  1 10  3 17 18.6000000  0  8G08G24G18G23G16G10G15G32
 130824572.307 6 101941307.207 6  24895101.185                    24895122.507  
      2933.312        2286.000          37.000          37.000  
 129637981.735 5 101016700.355 6  24669287.327                    24669307.930  
       378.422         294.699          32.000          37.000  
 114182862.832 7  88973723.988 7  21728278.456                    21728292.773  
     -1721.344       -1341.176          43.000          42.000  
 110861598.458 7  86385718.994 7  21096262.274                    21096276.029  
     -1731.074       -1348.910          45.000          45.000  
 128998889.479 5 100518799.054 3  24547694.677    24547718.073                  
     -2185.578       -1702.789          35.000          20.000  
 109091904.005 8  85006746.380 7  20759500.609                    20759516.528  
       180.848         140.957          48.000          45.000  
 127881383.269 6  99647907.479 6  24335020.261                    24335038.628  
     -3273.047       -2550.637          38.000          38.000  
 117407201.044 7  91486216.970 6  22341847.429                    22341866.103  
      2936.176        2287.773          47.000          39.000  
 24  1 10  3 17 18.7000000  0  8G08G24G18G23G16G10G15G32
 130824278.981 6 101941078.689 6  24895045.367                    24895066.701  
      2933.230        2285.199          37.000          37.000  
 129637943.907 5 101016670.925 6  24669280.129                    24669300.743  
       378.285         294.426          32.000          37.000  
 114183034.980 7  88973858.066 7  21728311.215                    21728325.516  
     -1721.562       -1341.336          43.000          42.000  
 110861771.576 7  86385853.871 7  21096295.217                    21096308.967  
     -1731.184       -1348.938          45.000          45.000  
 128999108.138 5 100518969.427 3  24547736.286    24547759.680                  
     -2186.246       -1703.797          35.000          21.000  
 109091885.917 8  85006732.291 7  20759497.167                    20759513.087  
       180.914         140.957          48.000          45.000  
 127881710.572 6  99648162.468 6  24335082.545                    24335100.899  
     -3273.121       -2550.203          37.000          38.000  
 117406907.438 7  91485988.187 6  22341791.558                    22341810.232  
      2936.156        2288.027          47.000          39.000  
 24  1 10  3 17 18.8000000  0  8G08G24G18G23G16G10G15G32
 130823985.663 6 101940850.118 6  24894989.284                    24895010.772  
      2933.188        2285.617          38.000          37.000  
 129637906.206 5 101016641.468 6  24669273.603                    24669293.799  
       377.551         294.668          32.000          37.000  
 114183207.144 7  88973992.223 7  21728343.695                    21728358.036  
     -1721.605       -1341.594          44.000          42.000  
 110861944.694 7  86385988.792 7  21096328.153                    21096341.955  
     -1731.238       -1349.215          45.000          45.000  
 128999326.699 5 100519139.731 3  24547777.666    24547801.270                  
     -2185.934       -1703.219          35.000          21.000  
 109091867.858 8  85006718.239 7  20759493.488                    20759510.022  
       180.672         140.734          48.000          45.000  
 127882037.870 6  99648417.550 6  24335144.663                    24335162.442  
     -3273.062       -2550.582          37.000          38.000  
 117406613.859 7  91485759.438 6  22341735.918                    22341754.697  
      2935.969        2287.625          47.000          39.000  
 24  1 10  3 17 18.9000000  0  8G08G24G18G23G16G10G15G32
 130823692.353 6 101940621.570 6  24894933.469                    24894954.958  
      2933.234        2285.402          38.000          37.000  
 129637868.329 5 101016611.976 6  24669266.395                    24669286.597  
       378.297         294.613          31.000          37.000  
 114183379.294 7  88974126.411 7  21728376.454                    21728390.806  
     -1721.488       -1341.660          43.000          43.000  
 110862117.800 7  86386123.671 7  21096361.094                    21096374.894  
     -1731.078       -1348.801          44.000          45.000  
 128999545.346 5 100519310.102 3  24547819.273    24547842.876                  
     -2186.277       -1703.734          35.000          21.000  
 109091849.771 8  85006704.118 7  20759490.047                    20759506.574  
       180.703         140.801          48.000          45.000  
 127882365.248 6  99648672.631 6  24335206.961                    24335224.736  
     -3273.477       -2550.961          37.000          38.000  
 117406320.263 7  91485530.641 6  22341680.049                    22341698.823  
      2935.871        2287.750          47.000          39.000  
 24  1 10  3 17 19.0000000  0  8G08G24G18G23G16G10G15G32
 130823399.023 6 101940393.018 6  24894877.729                    24894899.292  
      2933.125        2285.770          38.000          37.000  
 129637830.561 5 101016582.582 6  24669259.145                    24669279.387  
       377.832         294.383          32.000          37.000  
 114183551.470 7  88974260.519 7  21728409.148                    21728423.361  
     -1721.652       -1341.219          44.000          43.000  
 110862290.931 7  86386258.580 7  21096393.555                    21096407.965  
     -1731.062       -1348.965          45.000          45.000  
 128999764.028 5 100519480.495 3  24547860.606    24547884.480                  
     -2186.426       -1703.691          35.000          21.000  
 109091831.721 8  85006690.067 7  20759486.549                    20759502.846  
       180.742         140.695          48.000          45.000  
 127882692.574 6  99648927.685 6  24335269.531                    24335287.155  
     -3273.289       -2550.332          38.000          39.000  
 117406026.695 7  91485301.900 6  22341624.271                    22341643.321  
      2935.836        2287.387          47.000          39.000  
 24  1 10  3 17 19.1000000  0  8G08G24G18G23G16G10G15G32
 130823105.743 6 101940164.499 6  24894821.919                    24894843.485  
      2933.023        2285.031          37.000          37.000  
 129637792.782 5 101016553.103 6  24669251.956                    24669272.188  
       377.738         294.766          32.000          38.000  
 114183723.629 7  88974394.708 7  21728441.909                    21728456.132  
     -1721.449       -1341.340          43.000          42.000  
 110862464.030 7  86386393.454 7  21096426.495                    21096440.903  
     -1731.152       -1348.871          44.000          45.000  
 128999982.657 5 100519650.853 3  24547902.210    24547926.083                  
     -2186.422       -1703.719          35.000          21.000  
 109091813.666 8  85006675.983 7  20759483.113                    20759499.406  
       180.516         140.648          48.000          45.000  
 127883019.926 6  99649182.707 6  24335331.824                    24335349.434  
     -3273.441       -2550.504          39.000          39.000  
 117405733.147 7  91485073.159 6  22341568.410                    22341587.460  
      2935.562        2287.375          47.000          39.000  
 24  1 10  3 17 19.2000000  0  8G08G24G18G23G16G10G15G32
 130822812.509 6 101939935.970 6  24894766.267                    24894787.621  
      2932.605        2285.207          37.000          37.000  
 129637754.987 5 101016523.682 6  24669244.178                    24669265.159  
       378.105         294.438          31.000          38.000  
 114183895.813 7  88974528.871 7  21728474.807                    21728488.482  
     -1721.805       -1341.953          44.000          42.000  
 110862637.196 7  86386528.368 7  21096459.346                    21096474.288  
     -1731.430       -1349.434          44.000          45.000  
 129000201.383 5 100519821.284 3  24547943.972    24547967.705                  
     -2186.789       -1704.094          35.000          21.000  
 109091795.697 8  85006661.982 7  20759480.007                    20759495.721  
       180.125         140.176          48.000          45.000  
 127883347.240 6  99649437.807 6  24335394.180                    24335412.099  
     -3273.301       -2550.844          39.000          39.000  
 117405439.632 7  91484844.422 6  22341512.306                    22341531.592  
      2935.371        2287.160          47.000          38.000  
 24  1 10  3 17 19.3000000  0  8G08G24G18G23G16G10G15G32
 130822519.269 6 101939707.465 6  24894710.465                    24894731.818  
      2932.547        2285.238          37.000          37.000  
 129637717.76435 101016494.232 6  24669237.001                    24669257.967  
       377.250         294.258          30.000          38.000  
 114184068.081 7  88974663.114 7  21728507.589                    21728521.265  
     -1722.242       -1342.094          43.000          42.000  
 110862810.394 7  86386663.353 7  21096492.304                    21096507.252  
     -1731.754       -1349.664          44.000          45.000  
 129000420.118 6 100519991.721 3  24547985.596    24548009.327                  
     -2187.051       -1704.285          36.000          21.000  
 109091777.736 8  85006647.991 7  20759476.589                    20759492.305  
       179.711         139.715          48.000          45.000  
 127883674.599 6  99649692.862 6  24335456.474                    24335474.387  
     -3273.352       -2550.855          39.000          39.000  
 117405146.156 7  91484615.789 6  22341456.460                    22341475.758  
      2934.895        2286.352          47.000          38.000  
 24  1 10  3 17 19.4000000  0  8G08G24G18G23G16G10G15G32
 130822226.047 6 101939479.026 6  24894654.675                    24894676.234  
      2932.355        2284.336          37.000          36.000  
 129637680.07524 101016464.842 6  24669229.798                    24669250.970  
       377.387         293.883          29.000          38.000  
 114184240.287 7  88974797.255 7  21728540.374                    21728554.133  
     -1722.324       -1342.094          44.000          43.000  
 110862983.630 7  86386798.350 7  21096524.934                    21096539.697  
     -1731.988       -1349.871          44.000          45.000  
 129000638.906 6 100520162.205 3  24548027.418    24548050.937                  
     -2187.520       -1704.754          36.000          21.000  
 109091759.845 8  85006634.062 7  20759473.161                    20759488.911  
       179.250         139.422          48.000          45.000  
 127884001.936 6  99649947.964 6  24335519.030                    24335536.669  
     -3273.477       -2550.781          38.000          38.000  
 117404852.721 7  91484387.121 6  22341400.761                    22341419.579  
      2934.590        2286.672          47.000          38.000  
 24  1 10  3 17 19.5000000  0  8G08G24G18G23G16G10G15G32
 130821932.853 6 101939250.520 6  24894598.882                    24894620.430  
      2932.215        2285.020          37.000          36.000  
 129637642.18525 101016435.389 6  24669222.588                    24669243.777  
       378.270         294.348          30.000          38.000  
 114184412.563 7  88974931.496 7  21728573.157                    21728586.916  
     -1722.426       -1342.215          44.000          42.000  
 110863156.844 7  86386933.343 7  21096557.895                    21096572.663  
     -1732.070       -1349.785          44.000          45.000  
 129000857.638 5 100520332.640 3  24548069.041    24548092.559                  
     -2187.430       -1704.531          35.000          21.000  
 109091741.916 8  85006620.073 7  20759469.749                    20759485.495  
       179.242         139.691          48.000          45.000  
 127884329.282 6  99650203.015 6  24335581.322                    24335598.955  
     -3273.410       -2550.586          37.000          38.000  
 117404559.271 7  91484158.429 6  22341344.920                    22341363.730  
      2934.555        2286.496          47.000          38.000  
 24  1 10  3 17 19.6000000  0  8G08G24G18G23G16G10G15G32
 130821639.639 6 101939022.055 6  24894543.077                    24894564.637  
      2932.109        2284.664          37.000          36.000  
 129637604.31125 101016405.929 6  24669215.216                    24669237.059  
       378.129         294.551          30.000          38.000  
 114184584.805 7  88975065.726 7  21728605.590                    21728619.908  
     -1722.379       -1342.281          44.000          43.000  
 110863330.093 7  86387068.286 7  21096590.410                    21096605.508  
     -1732.371       -1349.512          44.000          45.000  
 129001076.407 6 100520503.110 3  24548110.851    24548134.167                  
     -2187.551       -1704.633          36.000          21.000  
 109091724.051 8  85006606.172 7  20759466.154                    20759482.256  
       179.027         139.223          48.000          45.000  
 127884656.642 6  99650458.088 6  24335643.577                    24335661.341  
     -3273.621       -2550.898          37.000          38.000  
 117404265.867 7  91483929.845 6  22341289.001                    22341307.587  
      2934.406        2286.023          47.000          38.000  
 24  1 10  3 17 19.7000000  0  8G08G24G18G23G16G10G15G32
 130821346.464 6 101938793.590 6  24894487.288                    24894508.844  
      2931.863        2284.617          37.000          36.000  
 129637566.73534 101016376.539 6  24669208.043                    24669229.882  
       377.164         294.055          29.000          38.000  
 114184757.037 7  88975199.992 7  21728638.364                    21728652.697  
     -1722.395       -1342.324          44.000          43.000  
 110863503.322 7  86387203.269 7  21096623.375                    21096638.473  
     -1732.340       -1350.172          44.000          45.000  
 129001295.232 5 100520673.627 3  24548152.492    24548175.808                  
     -2187.895       -1705.023          35.000          21.000  
 109091706.159 8  85006592.215 7  20759462.749                    20759478.848  
       178.883         139.312          48.000          45.000  
 127884984.049 6  99650713.190 6  24335705.881                    24335723.639  
     -3273.609       -2550.965          38.000          38.000  
 117403972.432 7  91483701.175 6  22341233.162                    22341251.744  
      2934.246        2286.547          47.000          38.000  
 24  1 10  3 17 19.8000000  0  8G08G24G18G23G16G10G15G32
 130821053.283 6 101938565.152 6  24894431.646                    24894452.955  
      2931.859        2284.633          37.000          36.000  
 129637528.84125 101016347.091 6  24669201.394                    24669222.362  
       378.156         294.297          30.000          38.000  
 114184929.345 7  88975334.214 7  21728671.232                    21728686.194  
     -1722.539       -1341.984          44.000          43.000  
 110863676.554 7  86387338.298 7  21096656.684                    21096671.698  
     -1732.184       -1349.742          44.000          45.000  
 129001513.968 5 100520844.071 3  24548194.624    24548217.386                  
     -2187.707       -1704.727          35.000          20.000  
 109091688.273 8  85006578.276 7  20759459.557                    20759475.576  
       178.926         139.504          48.000          45.000  
 127885311.354 6  99650968.289 6  24335768.313                    24335785.695  
     -3273.473       -2551.039          38.000          38.000  
 117403679.008 7  91483472.541 6  22341177.310                    22341196.057  
      2934.336        2286.344          47.000          39.000  
 24  1 10  3 17 19.9000000  0  8G08G24G18G23G16G10G15G32
 130820760.119 6 101938336.696 6  24894375.859                    24894397.164  
      2931.754        2284.445          37.000          36.000  
 129637491.12035 101016317.711 6  24669194.208                    24669215.187  
       377.273         293.578          30.000          38.000  
 114185101.614 7  88975468.417 7  21728704.013                    21728718.968  
     -1722.879       -1342.672          44.000          43.000  
 110863849.789 7  86387473.266 7  21096689.649                    21096704.659  
     -1732.426       -1350.121          44.000          45.000  
 129001732.870 6 100521014.645 3  24548236.280    24548259.042                  
     -2188.262       -1705.352          36.000          20.000  
 109091670.436 8  85006564.384 7  20759456.162                    20759472.184  
       178.668         138.949          48.000          45.000  
 127885638.751 6  99651223.390 6  24335830.615                    24335847.993  
     -3273.762       -2550.840          39.000          38.000  
 117403385.637 7  91483243.958 6  22341121.483                    22341140.235  
      2933.977        2285.871          47.000          39.000  
 24  1 10  3 17 20.0000000  0  8G08G24G18G23G16G10G15G32
 130820466.994 6 101938108.313 6  24894319.923                    24894341.289  
      2931.484        2283.812          37.000          36.000  
 129637453.44624 101016288.300 6  24669187.016                    24669207.825  
       377.398         294.480          29.000          38.000  
 114185273.893 7  88975602.693 7  21728736.750                    21728751.611  
     -1722.781       -1342.262          44.000          43.000  
 110864023.048 7  86387608.279 7  21096722.893                    21096737.505  
     -1732.547       -1349.988          44.000          45.000  
 129001951.737 6 100521185.192 3  24548277.827    24548300.652                  
     -2188.480       -1705.477          36.000          20.000  
 109091652.563 8  85006550.455 7  20759452.714                    20759468.954  
       178.578         139.199          48.000          45.000  
 127885966.140 6  99651478.489 6  24335893.157                    24335910.306  
     -3273.766       -2550.781          40.000          38.000  
 117403092.230 7  91483015.298 6  22341065.595                    22341084.339  
      2933.957        2286.570          47.000          39.000  
 24  1 10  3 17 20.1000000  0  8G08G24G18G23G16G10G15G32
 130820173.848 6 101937879.879 6  24894264.139                    24894285.503  
      2931.430        2284.449          37.000          36.000  
 129637415.69825 101016258.883 6  24669179.832                    24669200.641  
       377.457         293.883          31.000          38.000  
 114185446.090 7  88975736.844 7  21728769.518                    21728784.372  
     -1722.367       -1341.969          43.000          42.000  
 110864196.284 7  86387743.261 7  21096755.858                    21096770.469  
     -1732.320       -1349.875          44.000          45.000  
 129002170.522 5 100521355.679 3  24548319.460    24548342.287                  
     -2188.133       -1704.949          35.000          20.000  
 109091634.701 8  85006536.557 7  20759449.315                    20759465.560  
       178.777         139.168          48.000          45.000  
 127886293.530 6  99651733.563 6  24335955.457                    24335972.598  
     -3273.891       -2550.961          40.000          38.000  
 117402798.825 7  91482786.672 6  22341009.762                    22341028.506  
      2934.078        2286.090          47.000          39.000  
 24  1 10  3 17 20.2000000  0  8G08G24G18G23G16G10G15G32
 130819880.737 6 101937651.456 6  24894208.127                    24894229.634  
      2931.188        2284.277          37.000          36.000  
 129637377.97025 101016229.515 6  24669172.817                    24669193.344  
       377.410         293.836          32.000          38.000  
 114185618.382 7  88975871.156 7  21728801.656                    21728817.336  
     -1722.512       -1342.539          43.000          43.000  
 110864369.510 7  86387878.231 7  21096789.002                    21096803.782  
     -1732.383       -1349.731          44.000          45.000  
 129002389.364 6 100521526.207 3  24548360.995    24548383.939                  
     -2188.203       -1705.121          36.000          20.000  
 109091616.819 8  85006522.606 7  20759445.702                    20759462.270  
       178.699         139.371          48.000          45.000  
 127886620.888 6  99651988.658 6  24336018.134                    24336035.411  
     -3273.711       -2550.910          39.000          39.000  
 117402505.445 7  91482558.071 6  22340953.863                    22340972.727  
      2933.934        2285.926          47.000          39.000  
 24  1 10  3 17 20.3000000  0  8G08G24G18G23G16G10G15G32
 130819587.608 6 101937423.062 6  24894152.347                    24894173.858  
      2931.258        2283.961          37.000          36.000  
 129637340.22425 101016200.111 6  24669165.634                    24669186.164  
       377.102         293.953          32.000          38.000  
 114185790.646 7  88976005.356 7  21728834.437                    21728850.109  
     -1722.668       -1342.176          43.000          43.000  
 110864542.726 7  86388013.227 7  21096821.964                    21096836.749  
     -1732.254       -1349.805          44.000          45.000  
 129002608.284 6 100521696.798 3  24548402.654    24548425.599                  
     -2188.773       -1705.758          36.000          20.000  
 109091598.962 8  85006508.682 7  20759442.304                    20759458.870  
       178.672         139.262          48.000          45.000  
 127886948.260 6  99652243.768 6  24336080.431                    24336097.711  
     -3273.750       -2550.902          38.000          39.000  
 117402212.043 7  91482329.462 6  22340898.031                    22340916.898  
      2933.973        2286.008          47.000          39.000  
 24  1 10  3 17 20.4000000  0  8G08G24G18G23G16G10G15G32
 130819294.492 6 101937194.660 6  24894096.319                    24894118.001  
      2931.281        2284.156          37.000          36.000  
 129637302.51525 101016170.696 6  24669158.677                    24669179.488  
       377.250         294.098          32.000          38.000  
 114185962.877 7  88976139.555 7  21728867.086                    21728883.140  
     -1722.508       -1342.199          44.000          42.000  
 110864715.946 7  86388148.187 7  21096854.833                    21096869.387  
     -1732.223       -1349.520          44.000          45.000  
 129002827.144 5 100521867.334 3  24548443.724    24548467.230                  
     -2188.695       -1705.531          35.000          20.000  
 109091581.077 8  85006494.757 7  20759438.900                    20759455.454  
       178.746         139.238          48.000          45.000  
 127887275.630 6  99652498.856 6  24336142.392                    24336159.819  
     -3273.738       -2551.062          37.000          39.000  
 117401918.660 7  91482100.854 6  22340842.311                    22340861.327  
      2933.988        2286.359          47.000          39.000  
 24  1 10  3 17 20.5000000  0  8G08G24G18G23G16G10G15G32
 130819001.375 6 101936966.236 6  24894040.540                    24894062.218  
      2931.176        2284.133          37.000          36.000  
 129637264.80425 101016141.293 6  24669151.501                    24669172.307  
       377.168         294.020          32.000          38.000  
 114186135.090 7  88976273.790 7  21728899.857                    21728915.921  
     -1722.246       -1341.938          44.000          42.000  
 110864889.151 7  86388283.140 7  21096887.792                    21096902.344  
     -1732.094       -1349.625          44.000          45.000  
 129003046.075 5 100522037.935 3  24548485.385    24548508.893                  
     -2189.035       -1705.965          35.000          20.000  
 109091563.184 8  85006480.798 7  20759435.495                    20759452.045  
       178.891         139.500          48.000          45.000  
 127887602.957 6  99652753.928 6  24336204.680                    24336222.110  
     -3273.504       -2550.547          37.000          39.000  
 117401625.245 7  91481872.185 6  22340786.476                    22340805.484  
      2933.879        2286.180          47.000          39.000  
 24  1 10  3 17 20.6000000  0  8G08G24G18G23G16G10G15G32
 130818708.216 6 101936737.861 6  24893984.832                    24894006.493  
      2931.445        2283.957          37.000          36.000  
 129637226.97425 101016111.865 6  24669144.224                    24669165.394  
       377.680         294.480          32.000          38.000  
 114186307.274 7  88976407.917 7  21728932.943                    21728948.208  
     -1722.016       -1341.859          44.000          42.000  
 110865062.297 7  86388418.072 7  21096920.616                    21096935.374  
     -1731.711       -1349.316          44.000          45.000  
 129003264.880 6 100522208.440 3  24548526.968    24548550.571                  
     -2188.359       -1704.945          36.000          20.000  
 109091545.275 8  85006466.858 7  20759432.236                    20759448.148  
       179.066         139.641          48.000          45.000  
 127887930.334 6  99653009.021 6  24336266.165                    24336284.398  
     -3273.594       -2551.035          37.000          39.000  
 117401331.848 7  91481643.575 6  22340730.808                    22340749.686  
      2934.098        2286.461          47.000          39.000  
 24  1 10  3 17 20.7000000  0  8G08G24G18G23G16G10G15G32
 130818415.110 6 101936509.398 6  24893929.056                    24893950.700  
      2931.137        2284.141          37.000          36.000  
 129637189.25525 101016082.450 6  24669137.046                    24669158.211  
       377.621         294.117          31.000          38.000  
 114186479.517 7  88976542.173 7  21728965.720                    21728980.995  
     -1722.145       -1342.059          44.000          43.000  
 110865235.499 7  86388553.029 7  21096953.575                    21096968.332  
     -1731.891       -1349.426          44.000          45.000  
 129003483.760 6 100522378.994 3  24548568.619    24548592.222                  
     -2188.684       -1705.574          36.000          20.000  
 109091527.400 8  85006452.943 7  20759428.834                    20759444.750  
       178.922         139.309          48.000          45.000  
 127888257.722 6  99653264.136 6  24336328.465                    24336346.700  
     -3273.715       -2550.902          37.000          39.000  
 117401038.483 7  91481414.980 6  22340674.983                    22340693.861  
      2933.785        2285.863          47.000          38.000  
 24  1 10  3 17 20.8000000  0  8G08G24G18G23G16G10G15G32
 130818122.021 6 101936281.028 6  24893873.580                    24893894.688  
      2931.027        2283.785          38.000          36.000  
 129637151.52925 101016053.060 6  24669129.024                    24669151.049  
       377.211         294.047          30.000          38.000  
 114186651.803 7  88976676.398 7  21728998.762                    21729013.531  
     -1722.590       -1342.371          44.000          42.000  
 110865408.690 7  86388688.012 7  21096986.189                    21097001.390  
     -1731.797       -1349.645          44.000          45.000  
 129003702.706 5 100522549.604 3  24548610.393    24548633.863                  
     -2189.004       -1705.840          35.000          20.000  
 109091509.520 8  85006438.995 7  20759425.213                    20759441.156  
       178.777         139.227          48.000          45.000  
 127888585.046 6  99653519.196 6  24336390.659                    24336409.152  
     -3273.488       -2550.773          37.000          39.000  
 117400745.111 7  91481186.390 6  22340619.141                    22340638.029  
      2933.730        2286.059          47.000          39.000  
 24  1 10  3 17 20.9000000  0  8G08G24G18G23G16G10G15G32
 130817828.917 6 101936052.658 6  24893817.804                    24893838.918  
      2931.145        2283.977          38.000          36.000  
 129637113.80425 101016023.709 6  24669121.845                    24669143.881  
       377.512         293.641          30.000          38.000  
 114186824.053 7  88976810.615 7  21729031.541                    21729046.308  
     -1722.656       -1342.082          44.000          42.000  
 110865581.911 7  86388822.978 7  21097019.152                    21097034.350  
     -1732.273       -1349.984          44.000          45.000  
 129003921.648 5 100522720.213 3  24548652.056    24548675.528                  
     -2189.332       -1706.242          35.000          20.000  
 109091491.675 8  85006425.094 7  20759421.817                    20759437.762  
       178.578         139.031          48.000          45.000  
 127888912.420 6  99653774.296 6  24336452.956                    24336471.450  
     -3273.676       -2550.914          37.000          39.000  
 117400451.776 7  91480957.812 6  22340563.321                    22340582.208  
      2933.469        2285.559          47.000          39.000  
 24  1 10  3 17 21.0000000  0  8G08G24G18G23G16G10G15G32
 130817535.827 6 101935824.294 6  24893762.414                    24893782.875  
      2930.930        2283.629          38.000          37.000  
 129637076.21725 101015994.321 6  24669114.684                    24669136.970  
       376.469         293.734          30.000          38.000  
 114186996.332 7  88976944.824 7  21729064.684                    21729078.935  
     -1722.742       -1342.406          44.000          42.000  
 110865755.146 7  86388957.951 7  21097052.242                    21097066.937  
     -1732.293       -1349.766          45.000          45.000  
 129004140.589 5 100522890.820 3  24548693.875    24548717.223                  
     -2189.266       -1705.984          35.000          20.000  
 109091473.845 8  85006411.195 7  20759418.573                    20759434.477  
       178.418         138.941          48.000          45.000  
 127889239.746 6  99654029.394 6  24336515.377                    24336533.724  
     -3273.344       -2551.074          38.000          38.000  
 117400158.440 7  91480729.243 6  22340507.243                    22340526.397  
      2933.418        2285.668          47.000          39.000  
 24  1 10  3 17 21.1000000  0  8G08G24G18G23G16G10G15G32
 130817242.707 6 101935595.862 6  24893706.635                    24893727.090  
      2931.039        2284.473          37.000          36.000  
 129637038.46625 101015964.985 6  24669107.501                    24669129.806  
       377.152         293.594          31.000          38.000  
 114187168.600 7  88977079.072 7  21729097.465                    21729111.720  
     -1722.648       -1342.578          44.000          42.000  
 110865928.339 7  86389092.921 7  21097085.200                    21097099.898  
     -1732.199       -1349.727          44.000          45.000  
 129004359.514 5 100523061.408 3  24548735.535    24548758.882                  
     -2189.301       -1705.953          35.000          20.000  
 109091455.994 8  85006397.283 7  20759415.176                    20759431.079  
       178.473         139.168          48.000          45.000  
 127889567.104 6  99654284.479 6  24336577.671                    24336596.019  
     -3273.621       -2550.785          38.000          38.000  
 117399865.120 7  91480500.672 6  22340451.426                    22340470.578  
      2933.309        2285.496          47.000          39.000  
 24  1 10  3 17 21.2000000  0  8G08G24G18G23G16G10G15G32
 130816949.593 6 101935367.456 6  24893650.982                    24893671.412  
      2931.090        2283.934          37.000          36.000  
 129637000.79725 101015935.649 6  24669100.911                    24669122.407  
       376.742         293.395          31.000          38.000  
 114187340.902 7  88977213.358 7  21729130.050                    21729144.834  
     -1722.898       -1342.719          43.000          42.000  
 110866101.616 7  86389227.949 7  21097118.392                    21097133.193  
     -1732.332       -1349.922          44.000          45.000  
 129004578.396 5 100523231.960 3  24548777.078    24548800.548                  
     -2189.152       -1705.773          35.000          20.000  
 109091438.176 8  85006383.403 7  20759411.566                    20759427.955  
       178.305         138.805          48.000          45.000  
 127889894.478 6  99654539.590 6  24336640.101                    24336657.944  
     -3273.613       -2551.172          39.000          38.000  
 117399571.828 7  91480272.134 6  22340395.888                    22340414.930  
      2933.160        2285.590          47.000          39.000  
 24  1 10  3 17 21.3000000  0  8G08G24G18G23G16G10G15G32
 130816656.496 6 101935139.098 6  24893595.208                    24893615.645  
      2931.043        2283.648          37.000          36.000  
 129636963.01725 101015906.231 6  24669093.721                    24669115.223  
       377.414         293.848          30.000          37.000  
 114187513.273 7  88977347.635 7  21729162.851                    21729177.626  
     -1723.340       -1342.836          43.000          42.000  
 110866274.944 7  86389362.971 7  21097151.375                    21097166.167  
     -1732.836       -1350.301          44.000          45.000  
 129004797.343 5 100523402.561 3  24548818.742    24548842.211                  
     -2189.395       -1706.148          35.000          20.000  
 109091420.369 8  85006369.535 7  20759408.178                    20759424.568  
       178.109         138.629          48.000          45.000  
 127890221.912 6  99654794.707 6  24336702.410                    24336720.247  
     -3274.020       -2551.277          39.000          38.000  
 117399278.530 7  91480043.602 6  22340340.075                    22340359.121  
      2932.934        2285.309          47.000          39.000  
 24  1 10  3 17 21.4000000  0  8G08G24G18G23G16G10G15G32
 130816363.418 6 101934910.744 6  24893539.194                    24893559.738  
      2930.859        2283.391          37.000          37.000  
 129636925.45425 101015876.955 6  24669086.941                    24669107.402  
       376.328         293.215          30.000          37.000  
 114187685.599 7  88977481.927 7  21729195.581                    21729210.133  
     -1723.273       -1342.984          43.000          42.000  
 110866448.163 7  86389497.994 7  21097184.283                    21097199.500  
     -1732.324       -1350.082          44.000          45.000  
 129005016.283 5 100523573.155 3  24548860.483    24548883.872                  
     -2189.273       -1705.805          35.000          20.000  
 109091402.581 8  85006355.664 7  20759404.738                    20759420.955  
       178.117         138.738          48.000          45.000  
 127890549.334 6  99655049.838 6  24336764.935                    24336782.255  
     -3274.062       -2551.492          39.000          38.000  
 117398985.261 7  91479815.081 6  22340284.588                    22340302.977  
      2932.953        2285.543          47.000          39.000  
 24  1 10  3 17 21.5000000  0  8G08G24G18G23G16G10G15G32
 130816070.341 6 101934682.364 6  24893483.424                    24893503.965  
      2930.824        2283.719          37.000          36.000  
 129636887.82025 101015847.585 6  24669079.779                    24669100.229  
       376.438         293.488          30.000          37.000  
 114187857.952 7  88977616.192 7  21729228.379                    21729242.921  
     -1723.543       -1342.781          43.000          42.000  
 110866621.462 7  86389632.999 7  21097217.261                    21097232.470  
     -1732.922       -1350.188          44.000          45.000  
 129005235.255 5 100523743.781 3  24548902.152    24548925.540                  
     -2189.496       -1706.148          35.000          20.000  
 109091384.807 8  85006341.825 7  20759401.356                    20759417.575  
       177.883         138.523          48.000          45.000  
 127890876.794 6  99655304.991 6  24336827.248                    24336844.566  
     -3274.395       -2551.410          39.000          38.000  
 117398691.984 7  91479586.564 6  22340228.779                    22340247.171  
      2932.785        2284.961          47.000          39.000  
 24  1 10  3 17 21.6000000  0  8G08G24G18G23G16G10G15G32
 130815777.315 6 101934454.008 6  24893427.577                    24893448.355  
      2930.512        2283.621          37.000          37.000  
 129636850.29625 101015818.341 6  24669072.717                    24669093.283  
       375.695         292.613          30.000          37.000  
 114188030.342 7  88977750.580 7  21729261.199                    21729276.178  
     -1723.531       -1343.551          43.000          43.000  
 110866794.784 7  86389768.069 7  21097249.962                    21097265.065  
     -1733.047       -1350.906          44.000          45.000  
 129005454.191 5 100523914.379 3  24548943.689    24548967.225                  
     -2189.406       -1706.004          35.000          21.000  
 109091367.045 8  85006327.964 7  20759398.281                    20759414.315  
       177.750         138.488          48.000          45.000  
 127891204.322 6  99655560.143 6  24336889.786                    24336906.979  
     -3274.812       -2551.805          38.000          38.000  
 117398398.746 7  91479358.072 6  22340173.087                    22340191.707  
      2932.621        2285.055          47.000          39.000  
 24  1 10  3 17 21.7000000  0  8G08G24G18G23G16G10G15G32
 130815484.281 6 101934225.685 6  24893371.814                    24893392.596  
      2930.477        2283.469          37.000          37.000  
 129636812.65124 101015789.048 6  24669065.553                    24669086.129  
       376.250         293.156          29.000          37.000  
 114188202.750 7  88977884.946 7  21729294.007                    21729308.991  
     -1723.941       -1343.535          43.000          43.000  
 110866968.091 7  86389903.108 7  21097282.941                    21097298.043  
     -1733.258       -1350.770          44.000          45.000  
 129005673.186 6 100524085.027 3  24548985.362    24549008.899                  
     -2189.742       -1706.457          36.000          21.000  
 109091349.291 8  85006314.150 7  20759394.902                    20759410.941  
       177.570         138.160          48.000          45.000  
 127891531.832 6  99655815.358 6  24336952.109                    24336969.305  
     -3274.980       -2552.066          38.000          38.000  
 117398105.501 7  91479129.565 6  22340117.285                    22340135.903  
      2932.414        2285.297          47.000          39.000  
 24  1 10  3 17 21.8000000  0  8G08G24G18G23G16G10G15G32
 130815191.229 6 101933997.333 6  24893315.619                    24893336.861  
      2930.613        2283.297          37.000          36.000  
 129636775.11924 101015759.769 6  24669058.356                    24669079.323  
       375.723         292.457          28.000          38.000  
 114188375.147 7  88978019.246 7  21729326.915                    21729342.015  
     -1723.934       -1343.188          43.000          43.000  
 110867141.431 7  86390038.176 7  21097316.325                    21097331.184  
     -1733.051       -1350.332          44.000          45.000  
 129005892.127 6 100524255.625 3  24549026.908    24549050.608                  
     -2189.402       -1705.855          36.000          21.000  
 109091331.528 8  85006300.303 7  20759391.670                    20759407.404  
       177.746         138.434          48.000          45.000  
 127891859.288 6  99656070.500 6  24337014.359                    24337031.769  
     -3274.703       -2551.453          38.000          38.000  
 117397812.246 7  91478901.061 6  22340061.191                    22340080.593  
      2932.605        2284.875          47.000          39.000  
 24  1 10  3 17 21.9000000  0  8G08G24G18G23G16G10G15G32
 130814898.186 6 101933768.986 6  24893259.854                    24893281.097  
      2930.305        2283.703          37.000          36.000  
 129636737.51824 101015730.518 6  24669051.201                    24669072.179  
       375.832         292.777          29.000          38.000  
 114188547.543 7  88978153.580 7  21729359.721                    21729374.821  
     -1723.910       -1343.223          43.000          43.000  
 110867314.788 7  86390173.282 7  21097349.313                    21097364.178  
     -1733.297       -1350.848          44.000          45.000  
 129006111.054 6 100524426.221 3  24549068.569    24549092.269                  
     -2189.414       -1706.027          36.000          21.000  
 109091313.772 8  85006286.469 7  20759388.291                    20759404.025  
       177.543         138.328          48.000          45.000  
 127892186.793 6  99656325.741 6  24337076.681                    24337094.102  
     -3274.961       -2552.305          38.000          38.000  
 117397518.995 7  91478672.561 6  22340005.387                    22340024.790  
      2932.523        2285.039          47.000          39.000  
 24  1 10  3 17 22.0000000  0  8G08G24G18G23G16G10G15G32
 130814605.188 6 101933540.684 6  24893203.982                    24893225.140  
      2930.277        2282.965          37.000          36.000  
 129636700.04825 101015701.273 6  24669044.422                    24669065.428  
       375.211         292.434          30.000          38.000  
 114188720.011 7  88978287.951 7  21729392.165                    21729407.448  
     -1724.246       -1343.930          43.000          42.000  
 110867488.137 7  86390308.358 7  21097382.355                    21097397.282  
     -1733.426       -1350.926          44.000          45.000  
 129006330.016 6 100524596.841 3  24549109.884    24549133.975                  
     -2189.555       -1706.223          36.000          22.000  
 109091296.016 8  85006272.627 7  20759384.858                    20759400.879  
       177.531         138.332          48.000          45.000  
 127892514.320 6  99656580.974 6  24337139.203                    24337156.338  
     -3275.172       -2552.102          38.000          37.000  
 117397225.726 7  91478444.005 6  22339949.369                    22339968.819  
      2932.641        2285.258          47.000          39.000  
 24  1 10  3 17 22.1000000  0  8G08G24G18G23G16G10G15G32
 130814312.176 6 101933312.343 6  24893148.223                    24893169.376  
      2930.195        2283.219          36.000          36.000  
 129636662.60025 101015672.074 6  24669037.296                    24669058.297  
       374.754         291.910          31.000          38.000  
 114188892.396 7  88978422.318 7  21729424.969                    21729440.262  
     -1724.020       -1343.160          43.000          42.000  
 110867661.508 7  86390443.435 7  21097415.347                    21097430.270  
     -1733.578       -1350.707          44.000          45.000  
 129006548.930 6 100524767.427 3  24549151.542    24549175.634                  
     -2189.367       -1706.020          36.000          21.000  
 109091278.252 8  85006258.792 7  20759381.478                    20759397.501  
       177.586         138.289          48.000          45.000  
 127892841.849 6  99656836.113 6  24337201.530                    24337218.646  
     -3275.270       -2551.520          38.000          37.000  
 117396932.454 7  91478215.512 6  22339893.561                    22339913.018  
      2932.750        2284.922          47.000          39.000  
 24  1 10  3 17 22.2000000  0  8G08G24G18G23G16G10G15G32
 130814019.184 6 101933084.047 6  24893092.641                    24893113.702  
      2930.117        2283.148          37.000          36.000  
 129636625.03025 101015642.830 6  24669030.428                    24669050.976  
       375.387         292.539          32.000          37.000  
 114189064.791 7  88978556.625 7  21729458.040                    21729472.843  
     -1724.113       -1343.426          44.000          42.000  
 110867834.821 7  86390578.480 7  21097448.202                    21097463.226  
     -1733.410       -1350.719          44.000          45.000  
 129006767.878 6 100524938.041 3  24549193.511    24549217.339                  
     -2189.215       -1705.758          37.000          22.000  
 109091260.489 8  85006244.960 7  20759378.262                    20759394.162  
       177.715         138.559          48.000          45.000  
 127893169.440 6  99657091.356 6  24337264.025                    24337280.213  
     -3275.598       -2552.543          39.000          36.000  
 117396639.133 7  91477986.954 6  22339837.900                    22339856.694  
      2932.992        2285.621          47.000          39.000  
 24  1 10  3 17 22.3000000  0  8G08G24G18G23G16G10G15G32
 130813726.195 6 101932855.759 6  24893036.887                    24893057.952  
      2929.965        2283.152          37.000          36.000  
 129636587.52525 101015613.592 6  24669023.291                    24669043.836  
       375.129         292.422          32.000          37.000  
 114189237.202 7  88978691.010 7  21729490.849                    21729505.661  
     -1723.934       -1343.703          44.000          42.000  
 110868008.151 7  86390713.572 7  21097481.186                    21097496.217  
     -1733.348       -1350.895          44.000          45.000  
 129006986.817 6 100525108.642 3  24549235.174    24549259.002                  
     -2189.312       -1705.922          37.000          22.000  
 109091242.689 8  85006231.074 7  20759374.874                    20759390.771  
       177.824         138.621          48.000          45.000  
 127893497.008 6  99657346.632 6  24337326.359                    24337342.554  
     -3275.613       -2552.531          39.000          36.000  
 117396345.795 7  91477758.351 6  22339782.080                    22339800.867  
      2933.242        2285.910          47.000          39.000  
 24  1 10  3 17 22.4000000  0  8G08G24G18G23G16G10G15G32
 130813433.205 6 101932627.423 6  24892981.625                    24893002.362  
      2930.016        2283.090          36.000          36.000  
 129636550.07525 101015584.355 6  24669016.165                    24669036.102  
       374.973         291.965          31.000          37.000  
 114189409.593 7  88978825.300 7  21729523.724                    21729538.386  
     -1724.137       -1343.129          44.000          43.000  
 110868181.529 7  86390848.660 7  21097514.178                    21097529.238  
     -1733.469       -1350.598          44.000          45.000  
 129007205.656 6 100525279.163 3  24549276.857    24549300.707                  
     -2188.750       -1705.191          37.000          22.000  
 109091224.898 8  85006217.224 7  20759371.278                    20759387.560  
       177.875         138.582          48.000          45.000  
 127893824.597 6  99657601.869 6  24337388.970                    24337404.816  
     -3275.742       -2552.422          38.000          37.000  
 117396052.437 7  91477529.792 6  22339726.459                    22339745.207  
      2933.500        2285.742          47.000          39.000  
 24  1 10  3 17 22.5000000  0  8G08G24G18G23G16G10G15G32
 130813140.189 6 101932399.161 6  24892925.866                    24892946.618  
      2930.000        2282.723          37.000          36.000  
 129636512.53025 101015555.153 6  24669009.020                    24669028.971  
       375.262         292.332          31.000          37.000  
 114189581.974 7  88978959.637 7  21729556.527                    21729571.192  
     -1723.574       -1342.984          44.000          43.000  
 110868354.846 7  86390983.702 7  21097547.160                    21097562.216  
     -1733.312       -1350.547          44.000          45.000  
 129007424.509 6 100525449.696 3  24549318.503    24549342.353                  
     -2188.703       -1705.359          37.000          22.000  
 109091207.072 8  85006203.324 7  20759367.886                    20759384.166  
       178.168         138.973          48.000          45.000  
 127894152.124 6  99657857.104 6  24337451.296                    24337467.146  
     -3275.422       -2552.551          38.000          37.000  
 117395759.028 7  91477301.141 6  22339670.625                    22339689.368  
      2933.805        2286.191          47.000          39.000  
 24  1 10  3 17 22.6000000  0  8G08G24G18G23G16G10G15G32
 130812847.278 6 101932170.883 6  24892870.080                    24892890.651  
      2929.578        2282.859          37.000          36.000  
 129636474.96624 101015525.951 6  24669001.762                    24669021.558  
       375.344         292.047          29.000          37.000  
 114189754.332 7  88979093.950 7  21729589.092                    21729604.438  
     -1723.875       -1343.391          44.000          43.000  
 110868528.169 7  86391118.759 7  21097580.134                    21097595.331  
     -1733.281       -1350.547          44.000          45.000  
 129007643.395 6 100525620.247 3  24549360.023    24549384.027                  
     -2188.855       -1705.637          36.000          22.000  
 109091189.256 8  85006189.454 7  20759364.238                    20759380.528  
       178.199         138.891          48.000          45.000  
 127894479.660 6  99658112.370 6  24337513.257                    24337529.610  
     -3275.527       -2552.684          36.000          38.000  
 117395465.625 7  91477072.516 6  22339614.745                    22339633.340  
      2934.016        2286.277          47.000          39.000  
 24  1 10  3 17 22.7000000  0  8G08G24G18G23G16G10G15G32
 130812554.340 6 101931942.596 6  24892814.335                    24892834.901  
      2929.445        2282.676          37.000          36.000  
 129636437.56525 101015496.795 6  24668994.645                    24669014.438  
       374.707         291.676          30.000          37.000  
 114189926.655 7  88979228.244 7  21729621.883                    21729637.234  
     -1723.367       -1342.695          44.000          43.000  
 110868701.453 7  86391253.800 7  21097613.109                    21097628.310  
     -1733.148       -1350.453          44.000          45.000  
 129007862.281 6 100525790.813 3  24549401.676    24549425.681                  
     -2188.777       -1705.516          36.000          21.000  
 109091171.376 8  85006175.511 7  20759360.835                    20759377.123  
       178.426         139.207          48.000          45.000  
 127894807.233 6  99658367.721 6  24337575.592                    24337591.969  
     -3275.652       -2553.105          36.000          38.000  
 117395172.128 7  91476843.836 6  22339558.895                    22339577.494  
      2934.348        2286.602          47.000          39.000  
 24  1 10  3 17 22.8000000  0  8G08G24G18G23G16G10G15G32
 130812261.397 6 101931714.345 6  24892758.473                    24892779.199  
      2929.406        2282.656          37.000          36.000  
 129636400.04825 101015467.498 6  24668987.186                    24669007.643  
       374.934         292.637          31.000          37.000  
 114190098.984 7  88979362.497 7  21729654.770                    21729670.340  
     -1723.406       -1342.805          44.000          43.000  
 110868874.740 7  86391388.801 7  21097645.905                    21097661.364  
     -1732.996       -1350.180          44.000          45.000  
 129008081.116 6 100525961.337 3  24549443.576    24549467.363                  
     -2188.621       -1705.422          36.000          21.000  
 109091153.514 8  85006161.588 7  20759357.608                    20759373.684  
       178.668         139.422          48.000          45.000  
 127895134.883 6  99658623.003 6  24337637.411                    24337655.328  
     -3276.129       -2552.727          38.000          39.000  
 117394878.682 7  91476615.160 6  22339503.101                    22339521.704  
      2934.535        2286.980          47.000          39.000  
 24  1 10  3 17 22.9000000  0  8G08G24G18G23G16G10G15G32
 130811968.460 6 101931486.034 6  24892702.729                    24892723.443  
      2929.492        2282.883          37.000          36.000  
 129636362.71225 101015438.305 6  24668980.081                    24669000.513  
       374.258         291.691          31.000          37.000  
 114190271.330 7  88979496.768 7  21729687.567                    21729703.131  
     -1723.449       -1342.828          44.000          43.000  
 110869048.076 7  86391523.902 7  21097678.889                    21097694.357  
     -1732.973       -1350.492          44.000          45.000  
 129008299.970 6 100526131.870 3  24549485.223    24549509.009                  
     -2188.461       -1705.160          36.000          21.000  
 109091135.666 8  85006147.677 7  20759354.212                    20759370.287  
       178.465         138.988          48.000          45.000  
 127895462.580 6  99658878.264 6  24337699.770                    24337717.665  
     -3276.539       -2552.844          39.000          39.000  
 117394585.225 7  91476386.490 6  22339447.258                    22339465.860  
      2934.543        2286.578          47.000          39.000  
 24  1 10  3 17 23.0000000  0  8G08G24G18G23G16G10G15G32
 130811675.541 6 101931257.844 6  24892646.574                    24892667.561  
      2929.238        2282.094          37.000          36.000  
 129636325.07825 101015409.159 6  24668972.271                    24668993.075  
       375.422         291.625          30.000          37.000  
 114190443.705 7  88979631.145 7  21729720.283                    21729735.877  
     -1723.387       -1343.238          44.000          43.000  
 110869221.392 7  86391658.928 7  21097711.901                    21097726.973  
     -1733.242       -1350.418          44.000          45.000  
 129008518.819 6 100526302.396 3  24549527.111    24549550.692                  
     -2188.520       -1705.309          36.000          22.000  
 109091117.846 8  85006133.806 7  20759350.766                    20759366.649  
       178.352         138.754          48.000          45.000  
 127895790.176 6  99659133.593 6  24337762.593                    24337780.503  
     -3276.297       -2553.125          40.000          39.000  
 117394291.810 7  91476157.853 6  22339391.321                    22339409.970  
      2934.285        2286.387          47.000          39.000  
 24  1 10  3 17 23.1000000  0  8G08G24G18G23G16G10G15G32
 130811382.660 6 101931029.617 6  24892590.841                    24892611.826  
      2929.121        2282.230          37.000          36.000  
 129636287.66024 101015380.032 6  24668965.151                    24668985.962  
       374.383         291.367          29.000          38.000  
 114190616.113 7  88979765.454 7  21729753.091                    21729768.676  
     -1723.988       -1343.562          43.000          43.000  
 110869394.793 7  86391794.048 7  21097744.899                    21097759.970  
     -1733.637       -1351.223          44.000          45.000  
 129008737.782 6 100526473.017 3  24549568.778    24549592.360                  
     -2189.102       -1706.023          36.000          21.000  
 109091100.077 8  85006119.950 7  20759347.384                    20759363.266  
       177.930         138.387          48.000          45.000  
 127896117.863 6  99659388.864 6  24337824.950                    24337842.843  
     -3276.500       -2553.000          39.000          39.000  
 117393998.452 7  91475929.285 6  22339335.497                    22339354.151  
      2933.891        2285.938          47.000          39.000  
 24  1 10  3 17 23.2000000  0  8G08G24G18G23G16G10G15G32
 130811089.775 6 101930801.393 6  24892535.005                    24892556.200  
      2928.836        2281.906          38.000          36.000  
 129636250.32625 101015350.843 6  24668957.968                    24668979.623  
       373.887         291.816          30.000          38.000  
 114190788.556 7  88979899.831 7  21729785.749                    21729801.078  
     -1724.328       -1343.703          44.000          43.000  
 110869568.184 7  86391929.157 7  21097778.089                    21097792.934  
     -1733.863       -1351.297          44.000          45.000  
 129008956.729 6 100526643.625 3  24549610.504    24549633.993                  
     -2189.332       -1706.188          36.000          21.000  
 109091082.357 8  85006106.153 7  20759344.263                    20759359.834  
       177.496         138.074          48.000          45.000  
 127896445.569 6  99659644.194 6  24337887.646                    24337905.369  
     -3276.797       -2552.918          39.000          39.000  
 117393705.088 7  91475700.659 6  22339279.703                    22339298.311  
      2933.539        2285.754          47.000          39.000  
 24  1 10  3 17 23.3000000  0  8G08G24G18G23G16G10G15G32
 130810796.920 6 101930573.202 6  24892479.277                    24892500.474  
      2928.754        2282.113          38.000          36.000  
 129636212.89434 101015321.659 6  24668950.837                    24668972.496  
       374.578         291.844          29.000          38.000  
 114190961.028 7  88980034.218 7  21729818.570                    21729833.897  
     -1724.520       -1343.941          44.000          42.000  
 110869741.621 7  86392064.304 7  21097811.093                    21097825.938  
     -1734.074       -1351.316          44.000          45.000  
 129009175.747 6 100526814.290 3  24549652.182    24549675.671                  
     -2189.719       -1706.484          37.000          21.000  
 109091064.642 8  85006092.344 7  20759340.891                    20759356.461  
       177.262         138.035          48.000          45.000  
 127896773.163 6  99659899.514 6  24337949.986                    24337967.721  
     -3276.496       -2553.250          37.000          38.000  
 117393411.783 7  91475472.128 6  22339223.889                    22339242.501  
      2933.344        2285.504          47.000          39.000  
 24  1 10  3 17 23.4000000  0  8G08G24G18G23G16G10G15G32
 130810504.039 6 101930344.968 6  24892423.700                    24892445.026  
      2928.816        2282.266          37.000          36.000  
 129636175.40824 101015292.507 6  24668943.805                    24668965.486  
       374.527         291.684          29.000          38.000  
 114191133.495 7  88980168.617 7  21729851.405                    21729866.703  
     -1724.527       -1343.871          43.000          42.000  
 110869915.028 7  86392199.411 7  21097844.068                    21097859.097  
     -1734.062       -1351.215          44.000          45.000  
 129009394.666 6 100526984.873 3  24549693.833    24549717.282                  
     -2189.363       -1705.902          36.000          21.000  
 109091046.919 8  85006078.525 7  20759337.581                    20759353.032  
       177.285         138.102          48.000          45.000  
 127897100.761 6  99660154.812 6  24338012.107                    24338029.387  
     -3276.270       -2552.949          36.000          38.000  
 117393118.472 7  91475243.536 6  22339168.246                    22339187.098  
      2933.254        2285.691          47.000          39.000  
 24  1 10  3 17 23.5000000  0  8G08G24G18G23G16G10G15G32
 130810211.181 6 101930116.769 6  24892367.970                    24892389.297  
      2928.719        2281.891          37.000          36.000  
 129636137.95024 101015263.340 6  24668936.677                    24668958.363  
       374.492         291.766          29.000          38.000  
 114191305.952 7  88980302.985 7  21729884.222                    21729899.517  
     -1724.422       -1343.606          43.000          42.000  
 110870088.405 7  86392334.516 7  21097877.061                    21097892.091  
     -1733.879       -1351.094          44.000          45.000  
 129009613.610 6 100527155.480 3  24549735.497    24549758.946                  
     -2189.496       -1706.121          36.000          21.000  
 109091029.209 8  85006064.731 7  20759334.211                    20759349.663  
       177.270         138.121          48.000          45.000  
 127897428.341 5  99660410.106 6  24338074.443                    24338091.733  
     -3275.957       -2553.090          35.000          38.000  
 117392825.185 7  91475015.025 6  22339112.435                    22339131.294  
      2933.082        2285.340          47.000          39.000  
 24  1 10  3 17 23.6000000  0  8G08G24G18G23G16G10G15G32
 130809918.284 6 101929888.568 6  24892312.445                    24892333.771  
      2928.852        2281.895          37.000          36.000  
 129636100.58725 101015234.190 6  24668930.255                    24668950.995  
       374.051         291.539          31.000          38.000  
 114191478.387 7  88980437.357 7  21729917.036                    21729932.824  
     -1724.508       -1344.106          43.000          43.000  
 110870261.817 7  86392469.682 7  21097910.083                    21097925.272  
     -1734.027       -1351.418          44.000          45.000  
 129009832.619 6 100527326.132 3  24549777.243    24549800.559                  
     -2189.859       -1706.535          36.000          21.000  
 109091011.528 8  85006050.951 7  20759330.667                    20759346.493  
       176.918         137.688          48.000          45.000  
 127897756.027 6  99660665.453 6  24338136.464                    24338153.802  
     -3276.496       -2553.211          36.000          38.000  
 117392531.904 7  91474786.517 6  22339056.571                    22339075.240  
      2932.852        2285.121          47.000          38.000  
 24  1 10  3 17 23.7000000  0  8G08G24G18G23G16G10G15G32
 130809625.452 6 101929660.364 6  24892256.721                    24892278.042  
      2928.570        2282.031          36.000          37.000  
 129636063.17725 101015205.046 6  24668923.136                    24668943.877  
       373.902         291.176          33.000          38.000  
 114191650.926 7  88980571.828 7  21729949.868                    21729965.663  
     -1724.973       -1344.293          43.000          43.000  
 110870435.310 7  86392604.836 7  21097943.098                    21097958.278  
     -1734.406       -1351.578          44.000          45.000  
 129010051.670 6 100527496.821 3  24549818.927    24549842.243                  
     -2190.051       -1706.645          36.000          21.000  
 109090993.882 8  85006037.196 7  20759327.309                    20759343.134  
       176.668         137.438          48.000          45.000  
 127898083.728 6  99660920.697 6  24338198.823                    24338216.135  
     -3276.738       -2552.578          37.000          38.000  
 117392238.684 7  91474558.016 6  22339000.773                    22339019.438  
      2932.500        2284.875          47.000          39.000  
 24  1 10  3 17 23.8000000  0  8G08G24G18G23G16G10G15G32
 130809332.637 6 101929432.170 6  24892200.984                    24892222.275  
      2928.543        2281.922          36.000          37.000  
 129636025.88625 101015175.951 6  24668916.735                    24668936.631  
       373.379         291.270          34.000          38.000  
 114191823.466 7  88980706.231 7  21729982.592                    21729998.033  
     -1725.184       -1344.223          43.000          42.000  
 110870608.776 7  86392739.997 7  21097976.240                    21097991.184  
     -1734.703       -1351.953          44.000          45.000  
 129010270.724 6 100527667.521 3  24549860.588    24549883.953                  
     -2190.402       -1707.070          36.000          21.000  
 109090976.287 8  85006023.495 7  20759323.711                    20759340.062  
       176.258         137.137          48.000          45.000  
 127898411.397 6  99661176.040 6  24338260.723                    24338278.391  
     -3276.746       -2553.273          39.000          38.000  
 117391945.498 7  91474329.539 6  22338944.825                    22338963.665  
      2932.172        2284.672          47.000          39.000  
 24  1 10  3 17 23.9000000  0  8G08G24G18G23G16G10G15G32
 130809039.785 6 101929203.991 6  24892145.257                    24892166.552  
      2928.418        2281.891          36.000          37.000  
 129635988.53425 101015146.831 6  24668909.627                    24668929.520  
       373.660         291.176          34.000          38.000  
 114191996.007 7  88980840.697 7  21730015.426                    21730030.871  
     -1725.402       -1344.824          43.000          42.000  
 110870782.323 7  86392875.243 7  21098009.265                    21098024.212  
     -1735.121       -1352.262          44.000          45.000  
 129010489.784 6 100527838.214 3  24549902.274    24549925.638                  
     -2190.426       -1706.836          36.000          20.000  
 109090958.725 8  85006009.805 7  20759320.369                    20759336.719  
       175.844         136.762          48.000          45.000  
 127898739.084 6  99661431.404 6  24338323.080                    24338340.754  
     -3276.895       -2553.305          40.000          38.000  
 117391652.334 7  91474101.120 6  22338889.038                    22338907.882  
      2931.758        2284.371          47.000          39.000  
 24  1 10  3 17 24.0000000  0  8G08G24G18G23G16G10G15G32
 130808746.983 6 101928975.842 6  24892089.327                    24892110.898  
      2928.184        2281.742          36.000          37.000  
 129635951.07725 101015117.646 6  24668902.788                    24668922.721  
       374.117         291.754          33.000          38.000  
 114192168.582 7  88980975.254 7  21730048.711                    21730063.418  
     -1725.367       -1344.785          43.000          42.000  
 110870955.855 7  86393010.446 7  21098042.513                    21098057.105  
     -1735.223       -1352.117          44.000          45.000  
 129010708.815 6 100528008.881 3  24549944.001    24549967.309                  
     -2190.445       -1706.848          36.000          20.000  
 109090941.169 8  85005996.130 7  20759317.294                    20759332.926  
       175.746         136.750          48.000          45.000  
 127899066.780 6  99661686.708 6  24338385.939                    24338402.695  
     -3276.828       -2553.008          40.000          38.000  
 117391359.180 7  91473872.681 6  22338833.112                    22338852.205  
      2931.629        2284.379          47.000          39.000  
 24  1 10  3 17 24.1000000  0  8G08G24G18G23G16G10G15G32
 130808454.122 6 101928747.640 6  24892033.598                    24892055.168  
      2928.457        2281.957          37.000          37.000  
 129635913.63225 101015088.552 6  24668895.663                    24668915.616  
       374.172         291.211          32.000          37.000  
 114192341.172 7  88981109.630 7  21730081.554                    21730096.234  
     -1725.883       -1344.473          44.000          42.000  
 110871129.370 7  86393145.650 7  21098075.532                    21098090.124  
     -1735.176       -1352.039          45.000          45.000  
 129010927.936 6 100528179.621 3  24549985.699    24550009.005                  
     -2190.770       -1707.203          36.000          20.000  
 109090923.629 8  85005982.463 7  20759313.956                    20759329.588  
       175.613         136.891          48.000          45.000  
 127899394.415 6  99661942.051 6  24338448.285                    24338465.053  
     -3276.520       -2553.559          40.000          38.000  
 117391066.054 7  91473644.286 6  22338777.332                    22338796.428  
      2931.477        2284.008          47.000          39.000  
 24  1 10  3 17 24.2000000  0  8G08G24G18G23G16G10G15G32
 130808161.286 6 101928519.465 6  24891977.732                    24891999.055  
      2928.387        2281.574          37.000          37.000  
 129635876.35325 101015059.407 6  24668888.186                    24668907.990  
       373.594         291.352          32.000          37.000  
 114192513.771 7  88981244.143 7  21730114.524                    21730129.506  
     -1725.875       -1345.180          44.000          42.000  
 110871302.915 7  86393280.884 7  21098108.557                    21098123.196  
     -1735.336       -1352.344          45.000          45.000  
 129011147.004 6 100528350.328 3  24550027.597    24550050.639                  
     -2190.672       -1706.945          36.000          20.000  
 109090906.097 8  85005968.808 7  20759310.565                    20759326.574  
       175.414         136.492          48.000          45.000  
 127899722.110 6  99662197.406 6  24338510.980                    24338527.132  
     -3276.910       -2553.543          39.000          38.000  
 117390772.941 7  91473415.907 6  22338721.531                    22338740.390  
      2931.281        2283.941          47.000          39.000  
 24  1 10  3 17 24.3000000  0  8G08G24G18G23G16G10G15G32
 130807868.484 6 101928291.293 6  24891922.014                    24891943.333  
      2928.281        2281.648          37.000          37.000  
 129635839.01225 101015030.322 6  24668881.080                    24668900.888  
       373.297         290.715          32.000          37.000  
 114192686.415 7  88981378.690 7  21730147.376                    21730162.364  
     -1726.273       -1345.312          44.000          42.000  
 110871476.477 7  86393416.157 7  21098141.585                    21098156.231  
     -1735.516       -1352.648          45.000          45.000  
 129011366.122 6 100528521.068 3  24550069.294    24550092.335                  
     -2191.020       -1707.453          37.000          21.000  
 109090888.600 8  85005955.178 7  20759307.236                    20759323.245  
       175.180         136.375          48.000          45.000  
 127900049.788 6  99662452.749 6  24338573.335                    24338589.489  
     -3276.707       -2553.281          39.000          38.000  
 117390479.859 7  91473187.517 6  22338665.759                    22338684.615  
      2930.953        2283.871          47.000          39.000  
 24  1 10  3 17 24.4000000  0  8G08G24G18G23G16G10G15G32
 130807575.702 6 101928063.142 6  24891866.604                    24891887.132  
      2928.016        2281.914          37.000          37.000  
 129635801.69825 101015001.292 6  24668873.488                    24668893.540  
       373.344         290.574          32.000          37.000  
 114192859.051 7  88981513.184 7  21730180.330                    21730195.286  
     -1726.352       -1345.199          44.000          43.000  
 110871650.059 7  86393551.380 7  21098175.280                    21098189.269  
     -1735.766       -1352.434          45.000          45.000  
 129011585.186 6 100528691.766 3  24550110.339    24550134.006                  
     -2190.891       -1707.234          37.000          21.000  
 109090871.098 8  85005941.529 7  20759303.913                    20759320.029  
       175.145         136.418          48.000          45.000  
 127900377.493 6  99662708.081 6  24338635.437                    24338652.156  
     -3276.977       -2553.523          38.000          38.000  
 117390186.781 7  91472959.127 6  22338610.106                    22338628.621  
      2930.859        2283.602          47.000          39.000  
 24  1 10  3 17 24.5000000  0  8G08G24G18G23G16G10G15G32
 130807282.874 6 101927834.979 6  24891810.881                    24891831.412  
      2928.156        2281.461          37.000          36.000  
 129635764.33225 101014972.175 6  24668866.377                    24668886.430  
       373.559         290.773          32.000          37.000  
 114193031.689 7  88981647.724 7  21730213.182                    21730228.143  
     -1726.195       -1345.363          43.000          43.000  
 110871823.642 7  86393686.670 7  21098208.312                    21098222.309  
     -1735.688       -1352.598          45.000          45.000  
 129011804.343 6 100528862.540 3  24550152.044    24550175.711                  
     -2191.211       -1707.645          37.000          21.000  
 109090853.604 8  85005927.895 7  20759300.584                    20759316.700  
       175.023         136.316          48.000          45.000  
 127900705.194 6  99662963.445 6  24338697.796                    24338714.519  
     -3276.910       -2553.371          38.000          39.000  
 117389893.721 7  91472730.771 6  22338554.338                    22338572.854  
      2930.781        2283.699          47.000          39.000  
 24  1 10  3 17 24.6000000  0  8G08G24G18G23G16G10G15G32
 130806990.071 6 101927606.799 6  24891755.186                    24891775.634  
      2928.055        2281.586          37.000          36.000  
 129635727.11525 101014943.159 6  24668859.115                    24668879.312  
       372.727         290.449          31.000          37.000  
 114193204.388 7  88981782.289 7  21730245.701                    21730261.192  
     -1726.730       -1345.715          43.000          42.000  
 110871997.219 7  86393821.931 7  21098241.397                    21098255.794  
     -1735.750       -1352.731          45.000          45.000  
 129012023.421 6 100529033.250 3  24550193.483    24550217.376                  
     -2191.027       -1707.359          36.000          21.000  
 109090836.107 8  85005914.274 7  20759297.575                    20759313.522  
       175.012         136.379          48.000          45.000  
 127901032.937 6  99663218.803 6  24338759.781                    24338777.427  
     -3277.102       -2553.867          38.000          39.000  
 117389600.639 7  91472502.391 6  22338498.668                    22338517.183  
      2930.840        2283.574          47.000          39.000  
 24  1 10  3 17 24.7000000  0  8G08G24G18G23G16G10G15G32
 130806697.293 6 101927378.705 6  24891699.472                    24891719.931  
      2927.941        2281.336          37.000          36.000  
 129635689.83724 101014914.069 6  24668852.021                    24668872.208  
       372.605         290.715          29.000          37.000  
 114193377.072 7  88981916.854 7  21730278.562                    21730294.054  
     -1726.738       -1345.367          43.000          42.000  
 110872170.845 7  86393957.202 7  21098274.437                    21098288.828  
     -1736.035       -1352.723          45.000          45.000  
 129012242.524 6 100529203.975 3  24550235.177    24550259.069                  
     -2191.109       -1707.441          36.000          21.000  
 109090818.627 8  85005900.643 7  20759294.248                    20759310.193  
       174.957         136.125          48.000          45.000  
 127901360.686 6  99663474.228 6  24338822.150                    24338839.804  
     -3277.383       -2553.945          37.000          38.000  
 117389307.599 7  91472274.079 6  22338442.904                    22338461.427  
      2930.664        2283.523          47.000          39.000  
 24  1 10  3 17 24.8000000  0  8G08G24G18G23G16G10G15G32
 130806404.541 6 101927150.562 6  24891643.403                    24891664.427  
      2927.719        2281.375          37.000          36.000  
 129635652.67724 101014885.066 6  24668844.552                    24668864.930  
       372.430         290.148          29.000          37.000  
 114193549.781 7  88982051.433 7  21730311.021                    21730326.951  
     -1727.000       -1346.078          43.000          42.000  
 110872344.502 7  86394092.527 7  21098306.952                    21098321.345  
     -1736.352       -1353.258          45.000          45.000  
 129012461.630 6 100529374.704 3  24550277.012    24550300.747                  
     -2191.074       -1707.293          36.000          21.000  
 109090801.205 8  85005887.060 7  20759290.480                    20759307.103  
       174.438         135.852          48.000          45.000  
 127901688.479 6  99663729.632 6  24338884.542                    24338901.879  
     -3277.527       -2554.406          37.000          38.000  
 117389014.561 7  91472045.737 6  22338387.133                    22338405.499  
      2930.340        2283.172          47.000          39.000  
 24  1 10  3 17 24.9000000  0  8G08G24G18G23G16G10G15G32
 130806111.791 6 101926922.457 6  24891587.695                    24891608.721  
      2927.641        2280.965          37.000          36.000  
 129635614.900 4 101014856.075 6  24668837.363                    24668857.850  
       372.492         290.117          27.000          37.000  
 114193722.589 7  88982186.115 7  21730343.905                    21730359.842  
     -1727.527       -1346.578          44.000          42.000  
 110872518.238 7  86394227.909 7  21098340.013                    21098354.407  
     -1736.832       -1353.723          45.000          45.000  
 129012680.723 6 100529545.421 3  24550318.704    24550342.438                  
     -2190.980       -1707.211          36.000          21.000  
 109090783.823 8  85005873.528 7  20759287.172                    20759303.798  
       174.180         135.410          48.000          45.000  
 127902016.330 6  99663985.097 6  24338946.930                    24338964.267  
     -3278.137       -2554.527          37.000          38.000  
 117388721.581 7  91471817.409 6  22338331.381                    22338349.739  
      2930.141        2283.355          47.000          39.000  
 24  1 10  3 17 25.0000000  0  8G08G24G18G23G16G10G15G32
 130805819.081 6 101926694.367 6  24891531.822                    24891553.457  
      2927.043        2280.898          37.000          36.000  
 129635577.766 4 101014827.140 6  24668830.265                    24668851.253  
       371.312         289.328          27.000          37.000  
 114193895.427 7  88982320.786 7  21730377.085                    21730391.902  
     -1728.531       -1346.902          44.000          42.000  
 110872691.979 7  86394363.274 7  21098372.871                    21098386.917  
     -1737.605       -1353.875          44.000          45.000  
 129012899.916 6 100529716.218 3  24550360.407    24550384.109                  
     -2191.770       -1707.867          37.000          21.000  
 109090766.488 8  85005860.008 7  20759283.889                    20759300.262  
       173.211         134.957          48.000          45.000  
 127902344.146 6  99664240.511 6  24339008.874                    24339026.790  
     -3278.324       -2554.359          37.000          38.000  
 117388428.647 7  91471589.150 6  22338275.598                    22338293.645  
      2929.367        2282.602          47.000          39.000  
