     2.11           OBSERVATION DATA    M (MIXED)           RINEX VERSION / TYPE
GPP.DLL V3.2.21                         18 - MAR - 24 07:42 PGM / RUN BY / DATE 
                                                            MARKER NAME         
                                                            MARKER NUMBER       
                                                            OBSERVER / AGENCY   
6028C00128          APX-15v3 AV         5.50                REC # / TYPE / VERS 
                    E                                       ANT # / TYPE        
 -4667994.1417  2554562.1640 -3504599.5354                  APPROX POSITION XYZ 
        0.0000       -0.0000       -0.0000                  ANTENNA: DELTA H/E/N
     1     1                                                WAVELENGTH FACT L1/2
     8    L1    L2    C1    C2    D1    D2    S1    S2      # / TYPES OF OBSERV 
     0.100                                                  INTERVAL            
  2024     1    10     3    12   48.8000000     GPS         TIME OF FIRST OBS   
  2024     1    10     3    12   59.9000000     GPS         TIME OF LAST OBS    
    18                                                      LEAP SECONDS        
     4                                                      # OF SATELLITES     
   G10    95    95    95    95    95    95    95    95      PRN / # OF OBS      
   G18    94    94    94    94    94    94    94    94      PRN / # OF OBS      
   G23    95    95    95    95    95    95    95    95      PRN / # OF OBS      
   G32    94    94    94    94    94    94    94    94      PRN / # OF OBS      
                                                            END OF HEADER       
 24  1 10  3 12 48.8000000  0  2G23G10
     32068.51917     11066.08517  22813381.819    22813396.576       -1424.410  
     -1109.895          43.000          45.000  
    -12796.74517     -4072.68817  22575877.985    22575894.033         527.785  
       411.074          47.000          43.000  
 24  1 10  3 12 49.0000000  0  4G18G23G32G10
     28873.70917     10614.65417  23447502.937    23447517.949       -1368.344  
     -1066.297          47.000          47.000  
     32353.482 7     11288.118 7  22813436.069    22813450.588       -1424.801  
     -1110.410          43.000          45.000  
    -67736.11717    -25810.94417  24300827.480    24300847.665        3307.719  
      2577.383          44.000          44.000  
    -12902.221 7     -4154.875 7  22575857.648    22575874.298         527.484  
       410.719          47.000          43.000  
 24  1 10  3 12 49.2000000  0  4G18G23G32G10
     29147.372 7     10827.895 7  23447554.693    23447570.150       -1368.332  
     -1066.168          46.000          47.000  
     32638.428 7     11510.152 7  22813490.035    22813504.725       -1424.613  
     -1110.016          43.000          45.000  
    -68397.629 7    -26326.412 7  24300701.739    24300721.860        3307.562  
      2577.262          44.000          44.000  
    -13007.676 7     -4237.047 7  22575837.550    22575854.231         527.332  
       411.023          47.000          43.000  
 24  1 10  3 12 49.4000000  0  4G18G23G32G10
     29421.111 7     11041.207 7  23447606.722    23447622.055       -1368.684  
     -1066.648          46.000          47.000  
     32923.461 7     11732.253 7  22813544.259    22813559.183       -1425.164  
     -1110.641          43.000          45.000  
    -69059.075 7    -26841.796 7  24300575.667    24300595.920        3307.238  
      2576.816          44.000          44.000  
    -13113.085 7     -4319.186 7  22575817.546    22575833.882         526.984  
       410.422          47.000          43.000  
 24  1 10  3 12 49.6000000  0  4G18G23G32G10
     29694.896 7     11254.538 7  23447658.634    23447674.262       -1368.902  
     -1066.887          46.000          47.000  
     33208.521 7     11954.362 7  22813598.457    22813612.791       -1425.371  
     -1110.840          43.000          45.000  
    -69720.463 7    -27357.183 7  24300449.903    24300469.948        3307.020  
      2576.785          44.000          44.000  
    -13218.434 7     -4401.272 7  22575797.420    22575813.696         526.746  
       410.457          47.000          43.000  
 24  1 10  3 12 50.2000000  0  4G18G23G32G10
 113766583.63917  88649351.09817  21649061.839    21649077.498       -1369.406  
     -1067.172          46.000          47.000  
 110434610.42317  86053001.54217  21015007.840    21015022.513       -1425.820  
     -1110.957          43.000          45.000  
 118245196.71817  92139199.39617  22501313.649    22501334.088        3306.418  
      2576.414          44.000          44.000  
 109183773.55917  85078333.16117  20776982.116    20776998.282         526.199  
       410.051          46.000          42.000  
 24  1 10  3 12 50.4000000  0  4G18G23G32G10
 113766857.563 7  88649564.546 7  21649114.043    21649129.414       -1369.547  
     -1067.074          46.000          47.000  
 110434895.584 7  86053223.757 7  21015062.261    21015076.725       -1425.906  
     -1111.102          43.000          45.000  
 118244535.433 7  92138684.133 7  22501188.147    22501208.303        3306.434  
      2576.531          44.000          44.000  
 109183668.328 7  85078251.163 7  20776961.967    20776978.265         526.219  
       409.914          45.000          42.000  
 24  1 10  3 12 50.6000000  0  4G18G23G32G10
 113767131.506 7  88649778.011 7  21649166.275    21649181.138       -1369.660  
     -1067.324          46.000          47.000  
 110435180.788 7  86053445.992 7  21015116.455    21015131.279       -1425.883  
     -1111.188          43.000          45.000  
 118243874.194 7  92138168.879 7  22501062.333    22501082.238        3306.270  
      2576.336          44.000          44.000  
 109183563.150 7  85078169.185 7  20776942.155    20776958.300         526.004  
       409.926          45.000          42.000  
 24  1 10  3 12 50.8000000  0  4G18G23G32G10
 113767405.480 7  88649991.488 7  21649218.379    21649233.224       -1369.871  
     -1067.676          46.000          47.000  
 110435466.019 7  86053668.252 7  21015170.311    21015185.448       -1426.145  
     -1111.262          43.000          45.000  
 118243213.011 7  92137653.678 7  22500936.365    22500956.679        3306.008  
      2576.008          44.000          44.000  
 109183457.997 7  85078087.265 7  20776922.036    20776938.411         525.754  
       409.551          45.000          42.000  
 24  1 10  3 12 51.0000000  0  4G18G23G32G10
 113767679.495 7  88650204.991 7  21649270.546    21649285.848       -1369.996  
     -1067.547          46.000          47.000  
 110435751.275 7  86053890.537 7  21015225.039    21015239.763       -1426.320  
     -1111.328          43.000          45.000  
 118242551.850 7  92137138.475 7  22500810.379    22500830.962        3305.855  
      2575.977          44.000          44.000  
 109183352.874 7  85078005.358 7  20776902.071    20776918.823         525.680  
       409.641          46.000          42.000  
 24  1 10  3 12 51.2000000  0  4G18G23G32G10
 113767953.542 7  88650418.555 7  21649322.664    21649338.089       -1370.207  
     -1067.797          46.000          47.000  
 110436036.566 7  86054112.847 7  21015279.132    21015293.866       -1426.375  
     -1111.477          43.000          45.000  
 118241890.709 7  92136623.306 7  22500684.818    22500705.387        3305.719  
      2575.688          43.000          44.000  
 109183247.809 7  85077923.481 7  20776881.976    20776899.156         525.402  
       409.445          46.000          43.000  
 24  1 10  3 12 51.4000000  0  4G18G23G32G10
 113768227.629 7  88650632.124 8  21649374.829    21649390.377       -1370.418  
     -1068.004          46.000          48.000  
 110436321.884 7  86054335.167 7  21015333.677    21015348.042       -1426.555  
     -1111.660          43.000          45.000  
 118241229.635 7  92136108.163 7  22500559.317    22500579.592        3305.457  
      2575.730          43.000          44.000  
 109183142.758 7  85077841.628 7  20776862.548    20776879.073         525.211  
       409.098          46.000          43.000  
 24  1 10  3 12 51.6000000  0  4G18G23G32G10
 113768501.733 7  88650845.692 8  21649426.715    21649442.447       -1370.477  
     -1067.836          46.000          48.000  
 110436607.188 7  86054557.476 7  21015388.304    21015402.660       -1426.543  
     -1111.637          43.000          45.000  
 118240568.560 7  92135593.044 7  22500433.417    22500453.529        3305.418  
      2575.609          43.000          44.000  
 109183037.726 7  85077759.784 7  20776842.889    20776859.078         525.141  
       409.242          46.000          43.000  
 24  1 10  3 12 51.8000000  0  4G18G23G32G10
 113768775.847 7  88651059.309 7  21649478.940    21649494.864       -1370.535  
     -1068.078          46.000          47.000  
 110436892.553 7  86054779.828 7  21015442.435    21015457.140       -1426.727  
     -1111.648          43.000          45.000  
 118239907.502 7  92135077.931 7  22500307.356    22500328.014        3305.281  
      2575.402          43.000          44.000  
 109182932.713 7  85077677.942 7  20776822.585    20776838.974         525.109  
       409.121          46.000          43.000  
 24  1 10  3 12 51.9000000  0  4G18G23G32G10
 113768912.891 7  88651166.092 8  21649505.019    21649520.942       -1370.520  
     -1067.754          46.000          48.000  
 110437035.216 7  86054891.001 7  21015469.583    21015484.290       -1426.691  
     -1111.812          43.000          45.000  
 118239576.955 7  92134820.376 7  22500244.455    22500265.117        3305.398  
      2575.660          43.000          44.000  
 109182880.213 7  85077637.047 7  20776812.595    20776828.987         525.109  
       409.105          46.000          43.000  
 24  1 10  3 12 52.0000000  0  4G18G23G32G10
 113769049.963 7  88651272.910 8  21649531.071    21649547.231       -1370.606  
     -1068.211          46.000          48.000  
 110437177.884 7  86055002.164 7  21015496.896    21015510.976       -1426.719  
     -1111.770          43.000          45.000  
 118239246.436 7  92134562.819 7  22500181.575    22500202.140        3305.254  
      2575.320          43.000          44.000  
 109182827.735 7  85077596.146 7  20776802.491    20776818.686         524.953  
       408.949          46.000          43.000  
 24  1 10  3 12 52.1000000  0  4G18G23G32G10
 113769187.085 7  88651379.754 8  21649557.165    21649573.323       -1370.906  
     -1068.383          46.000          48.000  
 110437320.621 7  86055113.400 7  21015524.058    21015538.141       -1426.984  
     -1112.188          43.000          45.000  
 118238915.953 7  92134305.302 7  22500118.686    22500139.252        3304.969  
      2575.023          43.000          44.000  
 109182775.262 7  85077555.259 7  20776792.506    20776808.701         524.699  
       408.785          46.000          43.000  
 24  1 10  3 12 52.2000000  0  4G18G23G32G10
 113769324.185 7  88651486.572 8  21649583.176    21649599.097       -1371.070  
     -1068.434          46.000          48.000  
 110437463.352 7  86055224.605 7  21015551.071    21015565.181       -1427.164  
     -1112.086          43.000          46.000  
 118238585.479 7  92134047.795 7  22500055.939    22500076.093        3304.859  
      2575.188          43.000          44.000  
 109182722.819 7  85077514.396 7  20776782.105    20776798.589         524.582  
       408.559          46.000          43.000  
 24  1 10  3 12 52.3000000  0  4G18G23G32G10
 113769461.287 7  88651593.425 8  21649609.266    21649625.191       -1371.000  
     -1068.387          46.000          48.000  
 110437606.056 7  86055335.811 7  21015578.226    21015592.339       -1427.156  
     -1112.059          43.000          46.000  
 118238254.996 7  92133790.277 7  22499993.051    22500013.204        3304.848  
      2575.195          43.000          44.000  
 109182670.381 7  85077473.542 7  20776772.126    20776788.612         524.508  
       408.695          46.000          43.000  
 24  1 10  3 12 52.4000000  0  4G18G23G32G10
 113769598.436 7  88651700.284 8  21649635.403    21649651.350       -1371.184  
     -1068.590          46.000          48.000  
 110437748.786 7  86055447.024 7  21015605.160    21015619.693       -1427.203  
     -1112.223          43.000          46.000  
 118237924.538 7  92133532.772 7  22499930.135    22499950.077        3304.699  
      2574.879          43.000          44.000  
 109182617.942 7  85077432.675 7  20776762.030    20776778.413         524.422  
       408.531          46.000          43.000  
 24  1 10  3 12 52.5000000  0  4G18G23G32G10
 113769735.541 7  88651807.119 8  21649661.494    21649677.440       -1371.254  
     -1068.594          46.000          48.000  
 110437891.527 7  86055558.242 7  21015632.323    21015646.854       -1427.398  
     -1112.156          43.000          46.000  
 118237594.069 7  92133275.265 7  22499867.249    22499887.191        3304.695  
      2575.066          43.000          44.000  
 109182565.524 7  85077391.820 7  20776752.055    20776768.436         524.309  
       408.625          46.000          43.000  
 24  1 10  3 12 52.6000000  0  4G18G23G32G10
 113769872.712 7  88651914.012 8  21649687.940    21649703.334       -1371.336  
     -1068.551          46.000          48.000  
 110438034.272 7  86055669.494 7  21015659.596    21015674.320       -1427.324  
     -1112.367          43.000          46.000  
 118237263.639 7  92133017.791 7  22499804.675    22499824.758        3304.535  
      2574.824          43.000          44.000  
 109182513.107 7  85077350.981 7  20776742.393    20776758.634         524.258  
       408.406          46.000          43.000  
 24  1 10  3 12 52.7000000  0  4G18G23G32G10
 113770009.871 7  88652020.882 8  21649714.041    21649729.432       -1371.551  
     -1068.789          46.000          48.000  
 110438177.072 7  86055780.752 7  21015686.770    21015701.490       -1427.484  
     -1112.520          43.000          46.000  
 118236933.209 7  92132760.311 7  22499741.796    22499761.879        3304.352  
      2574.629          43.000          44.000  
 109182460.727 7  85077310.164 7  20776732.426    20776748.666         523.973  
       408.223          46.000          43.000  
 24  1 10  3 12 52.8000000  0  4G18G23G32G10
 113770147.053 7  88652127.781 8  21649740.255    21649755.390       -1371.668  
     -1068.863          46.000          48.000  
 110438319.828 7  86055891.981 7  21015714.177    21015728.505       -1427.867  
     -1112.621          43.000          46.000  
 118236602.814 7  92132502.870 7  22499678.955    22499699.134        3304.145  
      2574.574          43.000          44.000  
 109182408.330 7  85077269.357 7  20776722.291    20776739.068         523.938  
       408.000          45.000          43.000  
 24  1 10  3 12 52.9000000  0  4G18G23G32G10
 113770284.261 7  88652234.670 8  21649766.365    21649781.493       -1371.875  
     -1069.059          46.000          48.000  
 110438462.626 7  86056003.265 7  21015741.351    21015755.682       -1427.816  
     -1112.648          43.000          46.000  
 118236272.415 7  92132245.427 7  22499616.083    22499636.264        3304.055  
      2574.344          44.000          44.000  
 109182355.979 7  85077228.546 7  20776712.329    20776729.102         523.754  
       408.168          45.000          43.000  
 24  1 10  3 12 53.0000000  0  4G18G23G32G10
 113770421.440 7  88652341.586 8  21649792.312    21649807.900       -1371.926  
     -1069.125          46.000          48.000  
 110438605.445 7  86056114.541 7  21015768.529    21015782.755       -1427.984  
     -1112.832          43.000          46.000  
 118235942.026 7  92131987.983 7  22499552.915    22499573.355        3303.965  
      2574.375          43.000          44.000  
 109182303.623 7  85077187.740 7  20776702.264    20776719.340         523.641  
       407.805          45.000          43.000  
 24  1 10  3 12 53.1000000  0  4G18G23G32G10
 113770558.638 7  88652448.502 8  21649818.420    21649834.010       -1371.938  
     -1069.160          46.000          48.000  
 110438748.269 7  86056225.836 7  21015795.707    21015809.934       -1428.027  
     -1112.746          43.000          46.000  
 118235611.645 7  92131730.524 7  22499490.045    22499510.481        3303.867  
      2574.461          44.000          44.000  
 109182251.255 7  85077146.939 7  20776692.299    20776709.375         523.566  
       407.840          45.000          43.000  
 24  1 10  3 12 53.2000000  0  4G18G23G32G10
 113770695.870 7  88652555.428 8  21649844.636    21649860.068       -1372.094  
     -1069.199          46.000          48.000  
 110438891.047 7  86056337.111 7  21015822.799    21015836.921       -1428.027  
     -1112.856          43.000          45.000  
 118235281.286 7  92131473.123 7  22499427.047    22499447.480        3303.797  
      2574.371          43.000          44.000  
 109182198.919 7  85077106.159 7  20776682.418    20776699.057         523.445  
       407.941          46.000          43.000  
 24  1 10  3 12 53.3000000  0  4G18G23G32G10
 113770833.075 7  88652662.349 8  21649870.746    21649886.179       -1372.055  
     -1069.176          46.000          48.000  
 110439033.859 7  86056448.378 7  21015849.975    21015864.094       -1428.219  
     -1112.824          43.000          45.000  
 118234950.922 7  92131215.682 7  22499364.181    22499384.610        3303.613  
      2574.199          44.000          44.000  
 109182146.590 7  85077065.385 7  20776672.460    20776689.100         523.445  
       407.848          46.000          43.000  
 24  1 10  3 12 53.4000000  0  4G18G23G32G10
 113770970.329 7  88652769.295 8  21649896.950    21649912.140       -1372.324  
     -1069.500          46.000          48.000  
 110439176.673 7  86056559.653 7  21015877.175    21015891.354       -1428.164  
     -1113.023          43.000          46.000  
 118234620.564 7  92130958.258 7  22499301.105    22499321.776        3303.617  
      2574.156          44.000          44.000  
 109182094.269 7  85077024.625 7  20776662.324    20776679.123         523.281  
       407.562          46.000          43.000  
 24  1 10  3 12 53.5000000  0  4G18G23G32G10
 113771107.562 7  88652876.238 8  21649923.065    21649938.257       -1372.410  
     -1069.543          46.000          48.000  
 110439319.554 7  86056671.000 7  21015904.364    21015918.546       -1428.395  
     -1113.098          43.000          46.000  
 118234290.230 7  92130700.864 7  22499238.245    22499258.918        3303.402  
      2574.055          44.000          44.000  
 109182041.971 7  85076983.879 7  20776652.372    20776669.172         523.090  
       407.402          46.000          43.000  
 24  1 10  3 12 53.6000000  0  4G18G23G32G10
 113771244.849 7  88652983.204 8  21649949.252    21649964.597       -1372.672  
     -1069.758          46.000          48.000  
 110439462.436 7  86056782.328 7  21015931.765    21015945.921       -1428.645  
     -1113.356          43.000          45.000  
 118233959.930 7  92130443.466 7  22499175.328    22499195.746        3303.180  
      2573.836          44.000          44.000  
 109181989.698 7  85076943.132 7  20776642.596    20776659.096         522.930  
       407.309          46.000          43.000  
 24  1 10  3 12 53.7000000  0  4G18G23G32G10
 113771382.138 7  88653090.172 8  21649975.377    21649990.720       -1372.754  
     -1069.715          46.000          48.000  
 110439605.314 7  86056893.674 7  21015958.953    21015973.113       -1428.723  
     -1113.414          43.000          45.000  
 118233629.624 7  92130186.112 7  22499112.473    22499132.898        3303.125  
      2573.555          44.000          44.000  
 109181937.418 7  85076902.382 7  20776632.648    20776649.145         522.801  
       407.320          45.000          43.000  
 24  1 10  3 12 53.8000000  0  4G18G23G32G10
 113771519.409 7  88653197.143 8  21650001.272    21650016.593       -1372.723  
     -1069.727          46.000          48.000  
 110439748.181 7  86057004.997 7  21015986.047    21016000.065       -1428.738  
     -1113.305          43.000          45.000  
 118233299.330 7  92129928.737 7  22499049.909    22499070.763        3303.039  
      2573.734          44.000          44.000  
 109181885.171 7  85076861.683 7  20776622.948    20776639.315         522.711  
       407.277          45.000          43.000  
 24  1 10  3 12 53.9000000  0  4G18G23G32G10
 113771656.709 7  88653304.141 8  21650027.400    21650042.724       -1372.859  
     -1069.906          46.000          48.000  
 110439891.113 7  86057116.364 7  21016013.246    21016027.262       -1428.812  
     -1113.363          43.000          45.000  
 118232969.039 7  92129671.371 7  22498987.057    22499007.911        3302.996  
      2573.746          44.000          44.000  
 109181832.902 7  85076820.955 7  20776613.001    20776629.369         522.645  
       407.094          45.000          43.000  
 24  1 10  3 12 54.0000000  0  4G18G23G32G10
 113771794.034 7  88653411.133 8  21650053.649    21650068.993       -1373.047  
     -1069.941          46.000          48.000  
 110440033.984 7  86057227.704 7  21016040.222    21016054.522       -1428.953  
     -1113.602          43.000          45.000  
 118232638.763 7  92129414.024 7  22498924.489    22498944.807        3302.859  
      2573.629          44.000          44.000  
 109181780.658 7  85076780.251 7  20776602.974    20776619.452         522.617  
       407.148          45.000          43.000  
 24  1 10  3 12 54.1000000  0  4G18G23G32G10
 113771931.362 7  88653518.139 8  21650079.782    21650095.125       -1373.211  
     -1070.168          46.000          48.000  
 110440176.920 7  86057339.067 7  21016067.422    21016081.718       -1429.148  
     -1113.691          43.000          45.000  
 118232308.500 7  92129156.650 7  22498861.642    22498881.953        3302.629  
      2573.297          44.000          44.000  
 109181728.438 7  85076739.549 7  20776593.037    20776609.512         522.375  
       407.090          46.000          43.000  
 24  1 10  3 12 54.2000000  0  4G18G23G32G10
 113772068.693 7  88653625.157 8  21650106.235    21650121.345       -1373.332  
     -1070.160          47.000          48.000  
 110440319.834 7  86057450.447 7  21016094.477    21016108.973       -1429.086  
     -1113.684          43.000          45.000  
 118231978.263 7  92128899.345 7  22498798.550    22498818.773        3302.566  
      2573.383          44.000          44.000  
 109181676.211 7  85076698.852 7  20776583.137    20776599.698         522.156  
       406.836          46.000          43.000  
 24  1 10  3 12 54.3000000  0  4G18G23G32G10
 113772206.048 7  88653732.186 8  21650132.373    21650147.483       -1373.363  
     -1070.125          47.000          48.000  
 110440462.756 7  86057561.813 7  21016121.674    21016136.170       -1429.324  
     -1113.766          43.000          45.000  
 118231648.007 7  92128641.982 7  22498735.704    22498755.922        3302.508  
      2573.242          44.000          44.000  
 109181624.018 7  85076658.190 7  20776573.205    20776589.768         522.254  
       406.816          46.000          43.000  
 24  1 10  3 12 54.4000000  0  4G18G23G32G10
 113772343.417 7  88653839.234 8  21650158.248    21650173.446       -1373.500  
     -1070.562          47.000          48.000  
 110440605.717 7  86057673.210 7  21016148.847    21016163.452       -1429.410  
     -1113.906          43.000          45.000  
 118231317.807 7  92128384.720 7  22498672.838    22498693.229        3302.305  
      2573.055          44.000          44.000  
 109181571.851 7  85076617.526 7  20776563.458    20776579.744         521.918  
       406.637          46.000          43.000  
 24  1 10  3 12 54.5000000  0  4G18G23G32G10
 113772480.792 7  88653946.278 8  21650184.390    21650199.587       -1373.754  
     -1070.523          46.000          48.000  
 110440748.691 7  86057784.600 7  21016176.054    21016190.655       -1429.578  
     -1114.055          43.000          45.000  
 118230987.590 7  92128127.386 7  22498610.000    22498630.386        3302.164  
      2573.051          44.000          44.000  
 109181519.674 7  85076576.866 7  20776553.529    20776569.814         521.773  
       406.398          46.000          43.000  
 24  1 10  3 12 54.6000000  0  4G18G23G32G10
 113772618.197 7  88654053.334 8  21650210.498    21650225.809       -1373.859  
     -1070.613          47.000          48.000  
 110440891.649 7  86057896.014 7  21016203.657    21016217.738       -1429.723  
     -1114.059          43.000          45.000  
 118230657.398 7  92127870.096 7  22498547.198    22498567.397        3302.016  
      2572.965          44.000          44.000  
 109181467.515 7  85076536.218 7  20776543.767    20776560.184         521.680  
       406.406          46.000          43.000  
 24  1 10  3 12 54.7000000  0  4G18G23G32G10
 113772755.601 7  88654160.398 8  21650236.645    21650251.955       -1374.027  
     -1070.676          47.000          48.000  
 110441034.649 7  86058007.449 7  21016230.869    21016244.952       -1429.734  
     -1114.234          43.000          46.000  
 118230327.207 7  92127612.797 7  22498484.364    22498504.562        3301.941  
      2572.816          44.000          44.000  
 109181415.368 7  85076495.594 7  20776533.844    20776550.264         521.500  
       406.320          47.000          43.000  
 24  1 10  3 12 54.8000000  0  4G18G23G32G10
 113772893.016 7  88654267.487 8  21650262.841    21650277.959       -1374.035  
     -1070.926          47.000          48.000  
 110441177.662 7  86058118.880 7  21016258.044    21016272.321       -1429.945  
     -1114.414          43.000          45.000  
 118229997.069 7  92127355.557 7  22498421.604    22498441.530        3301.645  
      2572.535          44.000          44.000  
 109181363.248 7  85076454.989 7  20776523.895    20776540.230         521.398  
       406.090          47.000          43.000  
 24  1 10  3 12 54.9000000  0  4G18G23G32G10
 113773030.445 7  88654374.580 8  21650288.993    21650304.112       -1374.234  
     -1071.000          47.000          48.000  
 110441320.655 7  86058230.324 7  21016285.255    21016299.536       -1430.008  
     -1114.492          43.000          46.000  
 118229666.908 7  92127098.281 7  22498358.776    22498378.701        3301.621  
      2572.633          44.000          45.000  
 109181311.148 7  85076414.381 7  20776513.981    20776530.313         521.211  
       406.102          46.000          43.000  
 24  1 10  3 12 55.0000000  0  4G18G23G32G10
 113773167.917 7  88654481.710 8  21650315.239    21650330.321       -1374.414  
     -1071.059          47.000          48.000  
 110441463.709 7  86058341.775 7  21016312.516    21016326.840       -1430.301  
     -1114.535          43.000          46.000  
 118229336.777 7  92126841.041 7  22498296.157    22498316.302        3301.391  
      2572.387          44.000          45.000  
 109181259.045 7  85076373.784 7  20776504.058    20776520.321         521.047  
       405.875          46.000          43.000  
 24  1 10  3 12 55.1000000  0  4G18G23G32G10
 113773305.384 7  88654588.814 8  21650341.398    21650356.477       -1374.609  
     -1071.176          47.000          48.000  
 110441606.766 7  86058453.234 7  21016339.739    21016354.059       -1430.449  
     -1114.617          43.000          45.000  
 118229006.667 7  92126583.823 7  22498233.340    22498253.487        3301.289  
      2572.383          44.000          45.000  
 109181206.969 7  85076333.210 7  20776494.148    20776510.412         520.922  
       405.867          46.000          43.000  
 24  1 10  3 12 55.2000000  0  4G18G23G32G10
 113773442.849 7  88654695.931 8  21650367.557    21650382.613       -1374.762  
     -1071.402          47.000          48.000  
 110441749.835 7  86058564.714 7  21016366.910    21016381.495       -1430.555  
     -1114.887          43.000          45.000  
 118228676.570 7  92126326.588 7  22498170.579    22498190.495        3301.023  
      2572.059          44.000          45.000  
 109181154.914 7  85076292.644 7  20776484.219    20776500.436         520.746  
       405.582          46.000          43.000  
 24  1 10  3 12 55.3000000  0  4G18G23G32G10
 113773580.358 7  88654803.067 8  21650393.724    21650408.777       -1374.820  
     -1071.223          47.000          48.000  
 110441892.891 7  86058676.207 7  21016394.132    21016408.723       -1430.586  
     -1114.641          44.000          45.000  
 118228346.467 7  92126069.382 7  22498107.762    22498127.683        3301.078  
      2572.141          44.000          44.000  
 109181102.849 7  85076252.061 7  20776474.311    20776490.525         520.715  
       405.738          46.000          44.000  
 24  1 10  3 12 55.4000000  0  4G18G23G32G10
 113773717.834 7  88654910.206 8  21650419.517    21650434.769       -1374.793  
     -1071.398          47.000          48.000  
 110442035.955 7  86058787.680 7  21016421.223    21016436.133       -1430.562  
     -1114.812          43.000          45.000  
 118228016.367 7  92125812.141 7  22498044.673    22498064.792        3301.047  
      2572.312          44.000          44.000  
 109181050.774 7  85076211.507 7  20776464.238    20776480.863         520.711  
       405.754          46.000          44.000  
 24  1 10  3 12 55.5000000  0  4G18G23G32G10
 113773855.350 7  88655017.354 8  21650445.686    21650460.936       -1374.922  
     -1071.449          47.000          48.000  
 110442179.039 7  86058899.155 7  21016448.451    21016463.356       -1430.781  
     -1114.891          43.000          45.000  
 118227686.291 7  92125554.950 7  22497981.862    22498001.983        3300.895  
      2572.094          44.000          44.000  
 109180998.742 7  85076170.943 7  20776454.336    20776470.957         520.602  
       405.664          46.000          44.000  
 24  1 10  3 12 55.6000000  0  4G18G23G32G10
 113773992.902 7  88655124.530 8  21650471.994    21650487.539       -1375.590  
     -1071.949          47.000          48.000  
 110442322.177 7  86059010.709 7  21016475.283    21016490.364       -1431.129  
     -1115.293          43.000          45.000  
 118227356.265 7  92125297.790 7  22497919.052    22497939.315        3300.195  
      2571.512          44.000          44.000  
 109180946.754 7  85076130.461 7  20776444.436    20776461.180         519.855  
       404.992          46.000          44.000  
 24  1 10  3 12 55.7000000  0  4G18G23G32G10
 113774130.452 7  88655231.727 8  21650498.169    21650513.717       -1375.590  
     -1071.887          47.000          48.000  
 110442465.303 7  86059122.245 7  21016502.520    21016517.603       -1431.285  
     -1115.406          44.000          45.000  
 118227026.221 7  92125040.609 7  22497856.247    22497876.509        3300.254  
      2571.660          44.000          44.000  
 109180894.746 7  85076089.906 7  20776434.539    20776451.276         520.008  
       405.027          46.000          44.000  
 24  1 10  3 12 55.8000000  0  4G18G23G32G10
 113774268.022 7  88655338.912 8  21650524.160    21650539.760       -1375.555  
     -1071.930          47.000          48.000  
 110442608.446 7  86059233.787 7  21016529.743    21016545.014       -1431.309  
     -1115.359          44.000          45.000  
 118226696.223 7  92124783.463 7  22497793.489    22497813.789        3300.203  
      2571.520          44.000          44.000  
 109180842.773 7  85076049.412 7  20776424.508    20776441.223         519.895  
       404.984          46.000          44.000  
 24  1 10  3 12 55.9000000  0  4G18G23G32G10
 113774405.594 7  88655446.119 8  21650550.339    21650565.941       -1375.773  
     -1072.148          47.000          48.000  
 110442751.601 7  86059345.324 7  21016556.985    21016572.253       -1431.461  
     -1115.371          44.000          45.000  
 118226366.207 7  92124526.313 7  22497730.689    22497750.990        3300.117  
      2571.258          44.000          44.000  
 109180790.815 7  85076008.930 7  20776414.621    20776431.337         519.707  
       404.875          46.000          44.000  
 24  1 10  3 12 56.0000000  0  4G18G23G32G10
 113774543.217 7  88655553.350 8  21650576.458    21650592.206       -1375.820  
     -1072.121          47.000          48.000  
 110442894.755 7  86059456.874 7  21016584.577    21016599.533       -1431.586  
     -1115.496          44.000          45.000  
 118226036.234 7  92124269.214 7  22497667.913    22497687.774        3299.988  
      2571.336          44.000          44.000  
 109180738.863 7  85075968.455 7  20776404.797    20776421.390         519.680  
       404.770          46.000          44.000  
 24  1 10  3 12 56.1000000  0  4G18G23G32G10
 113774680.793 7  88655660.556 8  21650602.637    21650618.387       -1375.891  
     -1072.207          47.000          48.000  
 110443037.915 7  86059568.439 7  21016611.820    21016626.779       -1431.551  
     -1115.719          44.000          45.000  
 118225706.246 7  92124012.057 7  22497605.119    22497624.974        3299.941  
      2571.211          44.000          44.000  
 109180686.924 7  85075927.985 7  20776394.913    20776411.507         519.570  
       404.770          46.000          44.000  
 24  1 10  3 12 56.2000000  0  4G18G23G32G10
 113774818.408 7  88655767.788 8  21650629.067    21650644.434       -1376.023  
     -1072.266          47.000          48.000  
 110443181.116 7  86059680.011 7  21016639.406    21016653.877       -1431.797  
     -1115.691          44.000          45.000  
 118225376.255 7  92123754.940 7  22497542.417    22497561.652        3299.910  
      2571.195          44.000          44.000  
 109180634.993 7  85075887.527 7  20776384.914    20776401.900         519.441  
       404.629          46.000          44.000  
 24  1 10  3 12 56.3000000  0  4G18G23G32G10
 113774956.046 7  88655875.036 8  21650655.259    21650670.625       -1376.270  
     -1072.359          47.000          48.000  
 110443324.303 7  86059791.594 7  21016666.654    21016681.127       -1431.852  
     -1115.906          43.000          45.000  
 118225046.310 7  92123497.842 7  22497479.631    22497498.866        3299.625  
      2570.973          44.000          44.000  
 109180583.058 7  85075847.043 7  20776375.031    20776392.014         519.270  
       404.707          46.000          43.000  
 24  1 10  3 12 56.4000000  0  4G18G23G32G10
 113775093.670 7  88655982.280 8  21650681.807    21650696.666       -1376.160  
     -1072.426          47.000          48.000  
 110443467.486 7  86059903.140 7  21016693.893    21016708.336       -1431.922  
     -1115.691          43.000          45.000  
 118224716.358 7  92123240.724 7  22497416.866    22497436.466        3299.574  
      2571.082          44.000          44.000  
 109180531.151 7  85075806.612 7  20776365.419    20776382.085         519.227  
       404.379          46.000          43.000  
 24  1 10  3 12 56.5000000  0  4G18G23G32G10
 113775231.304 7  88656089.528 8  21650707.998    21650722.857       -1376.309  
     -1072.363          47.000          48.000  
 110443610.688 7  86060014.774 7  21016721.143    21016735.599       -1431.816  
     -1116.023          44.000          45.000  
 118224386.410 7  92122983.626 7  22497354.079    22497373.680        3299.527  
      2570.984          45.000          44.000  
 109180479.234 7  85075766.157 7  20776355.540    20776372.206         519.227  
       404.477          46.000          43.000  
 24  1 10  3 12 56.6000000  0  4G18G23G32G10
 113775368.939 7  88656196.772 8  21650734.048    21650749.329       -1376.410  
     -1072.672          47.000          48.000  
 110443753.886 7  86060126.330 7  21016748.322    21016762.287       -1432.090  
     -1115.734          44.000          45.000  
 118224056.446 7  92122726.521 7  22497291.445    22497310.939        3299.609  
      2570.902          45.000          44.000  
 109180427.328 7  85075725.684 7  20776345.647    20776361.759         519.016  
       404.582          46.000          43.000  
 24  1 10  3 12 56.7000000  0  4G18G23G32G10
 113775506.612 7  88656304.052 8  21650760.247    21650775.528       -1376.508  
     -1072.727          47.000          48.000  
 110443897.147 7  86060237.948 7  21016775.584    21016789.545       -1432.219  
     -1116.106          44.000          45.000  
 118223726.556 7  92122469.473 7  22497228.669    22497248.166        3299.281  
      2570.820          45.000          44.000  
 109180375.465 7  85075685.276 7  20776335.777    20776351.891         518.930  
       404.188          47.000          43.000  
 24  1 10  3 12 56.8000000  0  4G18G23G32G10
 113775644.288 8  88656411.340 8  21650786.133    21650801.369       -1376.660  
     -1072.848          48.000          48.000  
 110444040.358 7  86060349.537 7  21016802.641    21016816.906       -1432.414  
     -1116.164          44.000          45.000  
 118223396.640 7  92122212.373 7  22497165.670    22497185.325        3299.105  
      2570.602          45.000          44.000  
 109180323.592 7  85075644.871 7  20776325.930    20776342.282         518.727  
       404.184          47.000          43.000  
 24  1 10  3 12 56.9000000  0  4G18G23G32G10
 113775781.977 7  88656518.626 8  21650812.334    21650827.569       -1376.645  
     -1072.875          47.000          48.000  
 110444183.580 7  86060461.160 7  21016829.895    21016844.165       -1432.285  
     -1116.238          44.000          45.000  
 118223066.718 7  92121955.296 7  22497102.888    22497122.544        3299.195  
      2570.742          45.000          44.000  
 109180271.732 7  85075604.442 7  20776316.061    20776332.409         518.691  
       404.234          47.000          43.000  
 24  1 10  3 12 57.0000000  0  4G18G23G32G10
 113775919.672 7  88656625.923 8  21650838.552    21650853.952       -1377.004  
     -1073.145          47.000          48.000  
 110444326.888 7  86060572.832 7  21016857.299    21016871.523       -1432.531  
     -1116.242          44.000          45.000  
 118222736.865 7  92121698.275 7  22497040.236    22497060.019        3298.805  
      2570.477          44.000          44.000  
 109180219.896 7  85075564.072 7  20776306.260    20776322.456         518.516  
       403.855          47.000          43.000  
 24  1 10  3 12 57.1000000  0  4G18G23G32G10
 113776057.391 8  88656733.235 8  21650864.759    21650880.159       -1377.078  
     -1073.121          48.000          48.000  
 110444470.153 7  86060684.427 7  21016884.561    21016898.776       -1432.766  
     -1116.414          44.000          45.000  
 118222406.991 7  92121441.212 7  22496977.463    22496997.241        3298.828  
      2570.371          44.000          44.000  
 109180168.067 7  85075523.683 7  20776296.397    20776312.593         518.371  
       403.746          47.000          43.000  
 24  1 10  3 12 57.2000000  0  4G18G23G32G10
 113776195.099 7  88656840.534 8  21650891.003    21650906.315       -1377.078  
     -1073.043          47.000          48.000  
 110444613.400 7  86060796.081 7  21016911.843    21016926.027       -1432.566  
     -1116.348          44.000          45.000  
 118222077.119 7  92121184.177 7  22496914.558    22496935.002        3298.809  
      2570.566          44.000          45.000  
 109180116.233 7  85075483.294 7  20776286.283    20776302.839         518.379  
       403.902          47.000          43.000  
 24  1 10  3 12 57.3000000  0  4G18G23G32G10
 113776332.833 7  88656947.865 8  21650917.213    21650932.527       -1377.172  
     -1073.227          47.000          48.000  
 110444756.696 7  86060907.730 7  21016939.112    21016953.293       -1432.707  
     -1116.449          44.000          45.000  
 118221747.265 7  92120927.139 7  22496851.789    22496872.231        3298.641  
      2570.316          44.000          45.000  
 109180064.428 7  85075442.922 7  20776276.425    20776292.979         518.250  
       403.824          47.000          43.000  
 24  1 10  3 12 57.4000000  0  4G18G23G32G10
 113776470.599 7  88657055.196 8  21650943.460    21650958.754       -1377.363  
     -1073.266          47.000          48.000  
 110444899.995 7  86061019.379 7  21016965.935    21016980.293       -1432.973  
     -1116.719          44.000          45.000  
 118221417.440 7  92120670.144 7  22496789.236    22496809.618        3298.406  
      2570.012          44.000          45.000  
 109180012.626 7  85075402.560 7  20776266.458    20776283.185         518.035  
       403.555          47.000          43.000  
 24  1 10  3 12 57.5000000  0  4G18G23G32G10
 113776608.329 7  88657162.534 8  21650969.670    21650984.967       -1377.356  
     -1073.356          47.000          48.000  
 110445043.311 7  86061131.085 7  21016993.208    21017007.573       -1432.910  
     -1116.582          44.000          45.000  
 118221087.587 7  92120413.128 7  22496726.467    22496746.852        3298.508  
      2570.180          44.000          45.000  
 109179960.816 7  85075362.197 7  20776256.599    20776273.328         518.078  
       403.629          47.000          43.000  
 24  1 10  3 12 57.6000000  0  4G18G23G32G10
 113776746.089 7  88657269.873 8  21650996.064    21651011.133       -1377.547  
     -1073.457          47.000          48.000  
 110445186.620 7  86061242.738 7  21017020.423    21017035.027       -1433.070  
     -1116.746          44.000          45.000  
 118220757.786 7  92120156.132 7  22496663.583    22496683.857        3298.266  
      2570.020          44.000          44.000  
 109179909.061 7  85075321.848 7  20776246.805    20776263.146         517.836  
       403.332          47.000          43.000  
 24  1 10  3 12 57.7000000  0  4G18G23G32G10
 113776883.846 8  88657377.211 8  21651022.278    21651037.346       -1377.609  
     -1073.543          48.000          48.000  
 110445329.918 7  86061354.382 7  21017047.692    21017062.291       -1433.125  
     -1116.758          44.000          45.000  
 118220427.961 7  92119899.117 7  22496600.819    22496621.091        3298.227  
      2570.082          44.000          44.000  
 109179857.274 7  85075281.498 7  20776236.950    20776253.292         517.859  
       403.586          47.000          43.000  
 24  1 10  3 12 57.7000000  5  0
 24  1 10  3 12 57.7000000  5  0
 24  1 10  3 12 57.8000000  0  4G10G32G18G23
 109179805.530 7  85075241.190 7  20776227.369    20776243.199         517.668  
       403.090          47.000          43.000  
 118220098.167 7  92119642.143 7  22496538.304    22496558.125        3298.129  
      2569.832          44.000          45.000  
 113777021.631 8  88657484.581 8  21651048.412    21651063.645       -1377.695  
     -1073.531          48.000          48.000  
 110445473.265 7  86061466.115 7  21017075.189    21017089.726       -1433.270  
     -1116.906          44.000          46.000  
 24  1 10  3 12 57.9000000  0  4G10G32G18G23
 109179753.781 7  85075200.861 7  20776217.522    20776233.350         517.586  
       403.367          47.000          43.000  
 118219768.362 7  92119385.154 7  22496475.544    22496495.365        3297.992  
      2569.730          44.000          45.000  
 113777159.416 8  88657591.951 8  21651074.632    21651089.866       -1377.711  
     -1073.656          48.000          48.000  
 110445616.593 7  86061577.782 7  21017102.463    21017116.996       -1433.344  
     -1116.832          43.000          45.000  
 24  1 10  3 12 58.0000000  0  4G10G32G18G23
 109179702.042 7  85075160.538 7  20776207.684    20776223.589         517.461  
       403.051          47.000          43.000  
 118219438.587 7  92119128.199 7  22496412.837    22496432.880        3297.840  
      2569.738          44.000          44.000  
 113777297.226 7  88657699.337 8  21651100.669    21651115.966       -1378.008  
     -1073.824          47.000          48.000  
 110445759.950 7  86061689.471 7  21017129.767    21017144.413       -1433.500  
     -1117.090          43.000          46.000  
 24  1 10  3 12 58.1000000  0  4G10G32G18G23
 109179650.342 7  85075120.262 7  20776197.846    20776213.753         517.148  
       402.918          47.000          43.000  
 118219108.853 7  92118871.243 7  22496350.090    22496370.129        3297.594  
      2569.594          44.000          44.000  
 113777435.069 7  88657806.728 8  21651126.899    21651142.192       -1378.273  
     -1074.191          47.000          48.000  
 110445903.342 7  86061801.209 7  21017157.053    21017171.700       -1433.731  
     -1117.223          44.000          46.000  
 24  1 10  3 12 58.2000000  0  4G10G32G18G23
 109179598.645 7  85075079.971 7  20776187.618    20776204.335         516.949  
       402.645          47.000          43.000  
 118218779.112 7  92118614.313 7  22496287.194    22496306.993        3297.426  
      2569.348          44.000          44.000  
 113777572.926 7  88657914.155 8  21651153.031    21651168.294       -1378.449  
     -1074.234          47.000          48.000  
 110446046.764 7  86061912.992 7  21017184.283    21017198.663       -1433.785  
     -1117.555          43.000          46.000  
 24  1 10  3 12 58.3000000  0  4G10G32G18G23
 109179546.963 7  85075039.700 7  20776177.783    20776194.501         516.941  
       402.805          47.000          43.000  
 118218449.376 7  92118357.375 7  22496224.448    22496244.246        3297.402  
      2569.168          44.000          44.000  
 113777710.772 7  88658021.571 8  21651179.262    21651194.526       -1378.410  
     -1074.051          47.000          48.000  
 110446190.163 7  86062024.730 7  21017211.571    21017225.951       -1433.840  
     -1117.414          44.000          46.000  
 24  1 10  3 12 58.4000000  0  4G10G32G18G23
 109179495.307 7  85074999.453 7  20776167.984    20776185.008         516.762  
       402.578          47.000          43.000  
 118218119.703 7  92118100.488 7  22496161.541    22496181.441        3297.098  
      2569.105          44.000          44.000  
 113777848.645 7  88658129.022 8  21651205.686    21651220.946       -1378.606  
     -1074.352          47.000          48.000  
 110446333.567 7  86062136.455 7  21017238.758    21017253.352       -1434.051  
     -1117.566          44.000          46.000  
 24  1 10  3 12 58.5000000  0  4G10G32G18G23
 109179443.635 7  85074959.189 7  20776158.151    20776175.175         516.746  
       402.426          47.000          43.000  
 118217789.986 7  92117843.552 7  22496098.798    22496118.695        3297.086  
      2569.086          44.000          44.000  
 113777986.538 7  88658236.428 8  21651231.926    21651247.176       -1378.801  
     -1074.422          47.000          48.000  
 110446476.993 7  86062248.242 7  21017266.051    21017280.651       -1434.074  
     -1117.484          44.000          46.000  
 24  1 10  3 12 58.6000000  0  4G10G32G18G23
 109179391.989 7  85074918.957 7  20776148.542    20776165.108         516.617  
       402.559          47.000          43.000  
 118217460.327 7  92117586.679 7  22496035.879    22496056.128        3296.855  
      2568.898          44.000          44.000  
 113778124.425 7  88658343.917 8  21651258.361    21651273.816       -1378.840  
     -1074.598          47.000          48.000  
 110446620.425 7  86062359.994 7  21017293.486    21017308.310       -1434.270  
     -1117.766          44.000          46.000  
 24  1 10  3 12 58.7000000  0  4G10G32G18G23
 109179340.343 7  85074878.712 7  20776138.715    20776155.279         516.473  
       402.418          47.000          43.000  
 118217130.636 7  92117329.749 7  22495973.141    22495993.383        3296.754  
      2569.016          44.000          44.000  
 113778262.329 7  88658451.353 8  21651284.603    21651300.053       -1378.945  
     -1074.531          47.000          48.000  
 110446763.850 7  86062471.741 7  21017320.779    21017335.600       -1434.422  
     -1117.731          43.000          45.000  
 24  1 10  3 12 58.8000000  0  4G10G32G18G23
 109179288.705 7  85074838.466 7  20776129.294    20776145.209         516.473  
       402.328          46.000          43.000  
 118216800.970 7  92117072.875 7  22495910.423    22495930.597        3296.848  
      2569.145          44.000          44.000  
 113778400.220 7  88658558.790 8  21651310.640    21651326.502       -1378.934  
     -1074.348          47.000          48.000  
 110446907.280 7  86062583.496 7  21017348.300    21017362.454       -1434.164  
     -1117.441          44.000          45.000  
 24  1 10  3 12 58.9000000  0  4G10G32G18G23
 109179237.090 7  85074798.271 7  20776119.472    20776135.393         516.301  
       402.414          46.000          43.000  
 118216471.283 7  92116815.976 7  22495847.685    22495867.860        3296.820  
      2568.938          44.000          43.000  
 113778538.143 7  88658666.293 8  21651336.885    21651352.755       -1379.016  
     -1074.703          47.000          48.000  
 110447050.744 7  86062695.277 7  21017375.600    21017389.752       -1434.570  
     -1117.871          44.000          45.000  
 24  1 10  3 12 59.0000000  0  4G10G32G18G23
 109179185.460 7  85074758.008 7  20776109.694    20776125.732         516.320  
       402.242          46.000          42.000  
 118216141.591 7  92116559.082 7  22495785.096    22495805.108        3296.824  
      2568.895          44.000          43.000  
 113778676.048 7  88658773.725 7  21651362.964    21651378.319       -1379.098  
     -1074.523          47.000          47.000  
 110447194.202 7  86062807.096 7  21017402.946    21017416.958       -1434.418  
     -1117.887          45.000          44.000  
 24  1 10  3 12 59.1000000  0  4G10G32G18G23
 109179133.850 7  85074717.809 7  20776099.873    20776115.915         516.160  
       402.168          45.000          42.000  
 118215811.938 7  92116302.226 7  22495722.365    22495742.381        3296.734  
      2568.535          44.000          43.000  
 113778813.977 7  88658881.211 7  21651389.211    21651404.568       -1379.098  
     -1074.758          47.000          47.000  
 110447337.657 7  86062918.867 7  21017430.245    21017444.253       -1434.547  
     -1117.922          45.000          44.000  
 24  1 10  3 12 59.2000000  0  4G10G32G18G23
 109179082.255 7  85074677.630 7  20776089.703    20776105.861         516.047  
       401.730          44.000          42.000  
 118215482.297 7  92116045.387 7  22495659.870    22495679.846        3296.539  
      2568.414          44.000          43.000  
 113778951.905 7  88658988.686 7  21651415.512    21651430.760       -1379.254  
     -1074.918          47.000          47.000  
 110447481.133 7  86063030.636 7  21017457.250    21017471.712       -1434.719  
     -1117.766          45.000          44.000  
 24  1 10  3 12 59.3000000  0  4G10G32G18G23
 109179030.697 7  85074637.460 7  20776079.892    20776096.051         515.918  
       401.820          44.000          42.000  
 118215152.704 7  92115788.554 7  22495597.151    22495617.125        3296.172  
      2568.414          45.000          43.000  
 113779089.850 7  88659096.174 7  21651441.762    21651457.010       -1379.488  
     -1074.824          47.000          47.000  
 110447624.622 7  86063142.464 7  21017484.555    21017499.022       -1434.691  
     -1118.117          44.000          44.000  
 24  1 10  3 12 59.4000000  0  4G10G32G18G23
 109178979.144 7  85074597.242 7  20776069.762    20776086.346         515.473  
       401.727          43.000          42.000  
 118214823.050 7  92115531.650 7  22495534.326    22495554.261        3296.305  
      2568.746          45.000          43.000  
 113779227.816 7  88659203.661 7  21651467.844    21651483.181       -1379.559  
     -1075.027          47.000          47.000  
 110447768.121 7  86063254.298 7  21017511.706    21017526.458       -1434.883  
     -1118.418          45.000          45.000  
 24  1 10  3 12 59.5000000  0  4G10G32G18G23
 109178927.597 7  85074557.095 7  20776059.953    20776076.542         515.605  
       401.645          42.000          42.000  
 118214493.461 7  92115274.812 7  22495471.607    22495491.539        3296.258  
      2568.641          45.000          43.000  
 113779365.782 8  88659311.194 7  21651494.099    21651509.441       -1379.613  
     -1075.277          48.000          47.000  
 110447911.649 7  86063366.129 7  21017539.018    21017553.768       -1435.141  
     -1118.152          45.000          45.000  
 24  1 10  3 12 59.6000000  0  4G10G32G18G23
 109178876.084 7  85074516.912 6  20776049.978    20776066.760         515.402  
       401.695          42.000          41.000  
 118214163.885 7  92115018.008 7  22495408.587    22495428.574        3295.840  
      2567.812          46.000          43.000  
 113779503.782 8  88659418.725 7  21651520.469    21651536.147       -1379.660  
     -1075.066          48.000          47.000  
 110448055.153 7  86063477.918 7  21017566.545    21017580.967       -1435.172  
     -1118.059          45.000          44.000  
 24  1 10  3 12 59.7000000  0  4G10G32G18G23
 109178824.531 6  85074476.802 6  20776040.168    20776056.965         515.301  
       401.250          41.000          41.000  
 118213834.293 7  92114761.200 7  22495345.867    22495365.859        3295.852  
      2568.156          46.000          43.000  
 113779641.779 8  88659526.244 7  21651546.728    21651562.404       -1379.969  
     -1075.266          48.000          47.000  
 110448198.688 7  86063589.750 7  21017593.859    21017608.277       -1435.176  
     -1118.414          44.000          44.000  
 24  1 10  3 12 59.8000000  0  4G10G32G18G23
 109178773.012 6  85074436.655 6  20776030.435    20776046.832         515.371  
       401.555          41.000          40.000  
 118213504.734 7  92114504.377 7  22495283.561    22495303.195        3295.777  
      2568.352          45.000          43.000  
 113779779.826 8  88659633.796 7  21651573.412    21651588.420       -1380.188  
     -1075.430          48.000          47.000  
 110448342.250 7  86063701.629 7  21017621.225    21017635.474       -1435.402  
     -1118.539          45.000          45.000  
 24  1 10  3 12 59.9000000  0  4G10G32G18G23
 109178721.509 6  85074396.555 6  20776020.634    20776037.040         515.234  
       401.098          41.000          40.000  
 118213175.177 7  92114247.564 7  22495220.848    22495240.479        3295.672  
      2567.723          45.000          43.000  
 113779917.830 8  88659741.326 7  21651599.673    21651614.680       -1380.184  
     -1075.637          48.000          47.000  
 110448485.816 7  86063813.497 7  21017648.544    21017662.793       -1435.562  
     -1118.773          45.000          45.000  
