     2.11           OBSERVATION DATA    M (MIXED)           RINEX VERSION / TYPE
GPP.DLL V3.2.21                         18 - MAR - 24 07:42 PGM / RUN BY / DATE 
                                                            MARKER NAME         
                                                            MARKER NUMBER       
                                                            OBSERVER / AGENCY   
6028C00128          APX-15v3 AV         5.50                REC # / TYPE / VERS 
                    E                                       ANT # / TYPE        
 -4667835.3847  2554607.5248 -3504874.1080                  APPROX POSITION XYZ 
        0.0000       -0.0000       -0.0000                  ANTENNA: DELTA H/E/N
     1     1                                                WAVELENGTH FACT L1/2
     8    L1    L2    C1    C2    D1    D2    S1    S2      # / TYPES OF OBSERV 
     0.100                                                  INTERVAL            
  2024     1    10     3    18    0.0000000     GPS         TIME OF FIRST OBS   
  2024     1    10     3    18   59.9000000     GPS         TIME OF LAST OBS    
    18                                                      LEAP SECONDS        
     7                                                      # OF SATELLITES     
   G08   600   600   600   600   600   600   600   600      PRN / # OF OBS      
   G10   600   600   600   600   600   600   600   600      PRN / # OF OBS      
   G15   600   600   600   600   600   600   600   600      PRN / # OF OBS      
   G18   600   600   600   600   600   600   600   600      PRN / # OF OBS      
   G23   600   600   600   600   600   600   600   600      PRN / # OF OBS      
   G24   560   560   560   560   560   560   560   560      PRN / # OF OBS      
   G32   600   600   600   600   600   600   600   600      PRN / # OF OBS      
                                                            END OF HEADER       
 24  1 10  3 18  0.0000000  0  7G08G24G18G23G10G32G15
 130703815.188 6 101847210.893 6  24872121.947    24872142.882        2900.703  
      2260.578          37.000          37.000  
 129623094.84425 101005101.168 6  24666453.055    24666475.798         342.648  
       266.105          33.000          38.000  
 114254846.624 7  89029815.112 7  21741975.180    21741991.376       -1755.465  
     -1367.660          42.000          43.000  
 110933876.936 7  86442039.832 7  21110016.638    21110030.496       -1759.914  
     -1371.223          44.000          45.000  
 109085157.062 8  85001489.059 7  20758216.607    20758232.511         145.609  
       113.531          48.000          45.000  
 117286384.301 7  91392074.254 6  22318857.283    22318875.889        2900.930  
      2260.703          47.000          39.000  
 128017464.328 6  99753944.405 6  24360916.290    24360933.358       -3299.945  
     -2571.164          39.000          37.000  
 24  1 10  3 18  0.1000000  0  7G08G24G18G23G10G32G15
 130703525.052 6 101846984.813 6  24872066.736    24872087.671        2901.082  
      2260.590          37.000          37.000  
 129623060.79335 101005074.489 6  24666446.552    24666469.282         341.727  
       266.828          33.000          39.000  
 114255022.068 7  89029951.880 7  21742008.566    21742024.776       -1754.824  
     -1367.414          43.000          43.000  
 110934052.884 7  86442176.931 7  21110050.119    21110063.977       -1759.688  
     -1371.031          44.000          45.000  
 109085142.443 8  85001477.655 7  20758213.825    20758229.726         145.961  
       113.875          48.000          45.000  
 117286094.152 7  91391848.211 6  22318802.070    22318820.687        2901.324  
      2260.602          47.000          39.000  
 128017794.295 6  99754201.535 6  24360979.080    24360996.152       -3299.680  
     -2571.441          39.000          37.000  
 24  1 10  3 18  0.2000000  0  7G08G24G18G23G10G32G15
 130703234.997 6 101846758.812 6  24872011.369    24872032.558        2900.863  
      2260.062          38.000          37.000  
 129623026.54225 101005047.844 6  24666440.198    24666462.760         341.949  
       266.379          33.000          39.000  
 114255197.570 7  89030088.590 7  21742042.174    21742058.397       -1754.914  
     -1367.231          43.000          43.000  
 110934228.800 7  86442314.032 7  21110083.455    21110097.263       -1759.328  
     -1370.918          45.000          45.000  
 109085127.835 8  85001466.302 7  20758211.061    20758226.836         146.129  
       113.867          48.000          45.000  
 117285804.021 7  91391622.110 6  22318747.063    22318765.314        2901.285  
      2261.016          47.000          39.000  
 128018124.234 6  99754458.693 6  24361042.225    24361058.960       -3299.684  
     -2571.363          38.000          38.000  
 24  1 10  3 18  0.3000000  0  7G08G24G18G23G10G32G15
 130702944.915 6 101846532.756 6  24871956.168    24871977.352        2900.801  
      2260.430          37.000          37.000  
 129622992.36725 101005021.192 6  24666433.695    24666456.251         341.945  
       266.605          32.000          38.000  
 114255373.041 7  89030225.348 7  21742075.565    21742091.794       -1754.684  
     -1367.465          43.000          43.000  
 110934404.766 7  86442451.143 7  21110116.940    21110130.747       -1759.484  
     -1371.031          44.000          45.000  
 109085113.233 8  85001454.894 7  20758208.282    20758224.050         145.984  
       113.820          48.000          45.000  
 117285513.879 7  91391396.014 6  22318691.851    22318710.099        2901.375  
      2260.598          47.000          39.000  
 128018454.295 6  99754715.819 6  24361105.033    24361121.753       -3300.012  
     -2571.531          39.000          38.000  
 24  1 10  3 18  0.4000000  0  7G08G24G18G23G10G32G15
 130702654.812 6 101846306.720 6  24871901.323    24871922.347        2900.918  
      2260.484          37.000          37.000  
 129622958.22335 101004994.568 6  24666427.315    24666449.804         342.070  
       266.430          31.000          38.000  
 114255548.534 7  89030362.119 7  21742109.765    21742125.125       -1754.820  
     -1367.504          43.000          43.000  
 110934580.711 7  86442588.253 7  21110150.124    21110164.114       -1759.445  
     -1370.973          44.000          45.000  
 109085098.625 8  85001443.517 7  20758205.346    20758221.725         146.176  
       113.844          48.000          45.000  
 117285223.740 7  91391169.930 6  22318636.483    22318654.981        2901.320  
      2260.852          47.000          39.000  
 128018784.266 6  99754972.928 6  24361168.106    24361184.979       -3299.934  
     -2571.207          39.000          38.000  
 24  1 10  3 18  0.5000000  0  7G08G24G18G23G10G32G15
 130702364.827 6 101846080.740 6  24871846.140    24871867.161        2900.336  
      2259.719          37.000          37.000  
 129622923.98025 101004967.954 6  24666420.799    24666443.304         341.875  
       265.910          31.000          38.000  
 114255724.036 7  89030498.813 7  21742143.162    21742158.507       -1755.066  
     -1367.520          44.000          43.000  
 110934756.693 7  86442725.367 7  21110183.612    21110197.598       -1759.727  
     -1371.254          44.000          45.000  
 109085084.049 8  85001432.155 7  20758202.572    20758218.950         145.855  
       113.633          48.000          45.000  
 117284933.641 7  91390943.891 6  22318581.279    22318599.780        2901.082  
      2260.836          47.000          39.000  
 128019114.342 6  99755230.109 6  24361230.917    24361247.785       -3300.254  
     -2571.898          39.000          38.000  
 24  1 10  3 18  0.6000000  0  7G08G24G18G23G10G32G15
 130702074.758 6 101845854.747 6  24871790.965    24871811.471        2900.520  
      2260.074          37.000          37.000  
 129622889.87125 101004941.343 6  24666414.519    24666436.743         341.664  
       266.180          31.000          38.000  
 114255899.559 7  89030635.654 7  21742176.813    21742191.159       -1755.156  
     -1367.762          43.000          43.000  
 110934932.688 7  86442862.516 7  21110216.627    21110231.302       -1759.789  
     -1371.473          44.000          45.000  
 109085069.474 8  85001420.793 7  20758200.072    20758216.184         145.789  
       113.535          48.000          45.000  
 117284643.542 7  91390717.833 6  22318525.676    22318544.395        2901.125  
      2260.410          47.000          39.000  
 128019444.333 6  99755487.262 6  24361293.916    24361310.561       -3300.238  
     -2571.297          40.000          38.000  
 24  1 10  3 18  0.7000000  0  7G08G24G18G23G10G32G15
 130701784.726 6 101845628.698 6  24871735.774    24871756.268        2900.422  
      2260.438          37.000          37.000  
 129622855.71925 101004914.704 6  24666408.020    24666430.238         341.387  
       266.273          30.000          38.000  
 114256075.079 7  89030772.390 7  21742210.213    21742224.552       -1755.133  
     -1367.656          43.000          43.000  
 110935108.693 7  86442999.670 7  21110250.119    21110264.797       -1759.844  
     -1371.348          44.000          45.000  
 109085054.926 8  85001409.450 7  20758197.304    20758213.413         145.605  
       113.238          48.000          45.000  
 117284353.451 7  91390491.807 6  22318470.474    22318489.197        2900.914  
      2260.238          47.000          39.000  
 128019774.397 6  99755744.417 6  24361356.725    24361373.361       -3300.309  
     -2571.676          40.000          38.000  
 24  1 10  3 18  0.8000000  0  7G08G24G18G23G10G32G15
 130701494.679 6 101845402.736 6  24871680.525    24871700.976        2900.504  
      2259.746          37.000          37.000  
 129622821.58125 101004888.135 6  24666401.860    24666424.210         341.598  
       265.945          30.000          38.000  
 114256250.629 7  89030909.157 7  21742242.994    21742257.795       -1755.441  
     -1367.844          43.000          43.000  
 110935284.707 7  86443136.788 7  21110283.621    21110298.189       -1760.195  
     -1371.441          44.000          45.000  
 109085040.386 8  85001398.149 7  20758194.318    20758210.833         145.539  
       113.238          48.000          45.000  
 117284063.370 7  91390265.760 6  22318415.281    22318434.056        2900.809  
      2260.367          47.000          39.000  
 128020104.365 6  99756001.599 6  24361419.414    24361436.378       -3300.074  
     -2571.750          39.000          38.000  
 24  1 10  3 18  0.9000000  0  7G08G24G18G23G10G32G15
 130701204.695 6 101845176.779 6  24871625.343    24871645.795        2900.113  
      2259.586          37.000          37.000  
 129622787.541 5 101004861.499 6  24666395.382    24666417.705         340.953  
       266.145          30.000          39.000  
 114256426.197 7  89031045.977 7  21742276.404    21742291.208       -1755.516  
     -1367.984          43.000          43.000  
 110935460.706 7  86443273.971 7  21110317.113    21110331.690       -1760.078  
     -1371.598          44.000          45.000  
 109085025.883 8  85001386.825 7  20758191.558    20758208.068         145.203  
       113.102          48.000          45.000  
 117283773.338 7  91390039.756 6  22318360.090    22318378.864        2900.574  
      2259.906          47.000          39.000  
 128020434.426 6  99756258.779 6  24361482.223    24361499.184       -3300.375  
     -2571.758          39.000          38.000  
 24  1 10  3 18  1.0000000  0  7G08G24G18G23G10G32G15
 130700914.729 6 101844950.773 6  24871569.891    24871590.391        2899.887  
      2259.934          37.000          37.000  
 129622753.297 4 101004834.992 6  24666388.842    24666411.623         341.812  
       265.605          29.000          39.000  
 114256601.744 7  89031182.747 7  21742309.739    21742324.835       -1755.453  
     -1367.895          43.000          44.000  
 110935636.729 7  86443411.071 7  21110351.148    21110365.367       -1760.172  
     -1371.516          44.000          45.000  
 109085011.353 8  85001375.500 7  20758188.840    20758205.068         145.250  
       113.125          48.000          45.000  
 117283483.272 7  91389813.715 6  22318304.947    22318324.115        2900.570  
      2260.242          47.000          39.000  
 128020764.422 6  99756515.920 6  24361544.558    24361562.020       -3300.199  
     -2571.234          39.000          38.000  
 24  1 10  3 18  1.1000000  0  7G08G24G18G23G10G32G15
 130700624.675 6 101844724.804 6  24871514.695    24871535.207        2900.133  
      2259.645          37.000          37.000  
 129622719.093 4 101004808.336 6  24666382.333    24666405.113         341.980  
       266.055          29.000          39.000  
 114256777.305 7  89031319.564 7  21742343.147    21742358.248       -1755.555  
     -1368.234          44.000          44.000  
 110935812.745 7  86443548.268 7  21110384.643    21110398.872       -1760.117  
     -1371.606          44.000          45.000  
 109084996.869 8  85001364.240 7  20758186.084    20758202.318         145.082  
       112.832          48.000          45.000  
 117283193.219 7  91389587.729 6  22318249.751    22318268.927        2900.570  
      2259.793          47.000          39.000  
 128021094.470 6  99756773.104 6  24361607.364    24361624.827       -3300.324  
     -2572.059          39.000          38.000  
 24  1 10  3 18  1.2000000  0  7G08G24G18G23G10G32G15
 130700334.751 6 101844498.853 6  24871459.353    24871480.457        2899.699  
      2259.484          37.000          37.000  
 129622685.037 4 101004781.707 6  24666375.861    24666399.009         341.133  
       266.172          29.000          39.000  
 114256952.831 7  89031456.378 7  21742377.228    21742392.346       -1755.301  
     -1367.922          44.000          44.000  
 110935988.768 7  86443685.420 7  21110417.748    21110432.178       -1760.316  
     -1371.824          44.000          45.000  
 109084982.369 8  85001352.917 7  20758183.520    20758199.264         144.980  
       113.020          48.000          45.000  
 117282903.184 7  91389361.714 6  22318194.411    22318213.810        2900.395  
      2259.852          47.000          39.000  
 128021424.521 6  99757030.267 6  24361669.983    24361687.324       -3300.395  
     -2571.340          39.000          38.000  
 24  1 10  3 18  1.3000000  0  7G08G24G18G23G10G32G15
 130700044.799 6 101844272.923 6  24871404.177    24871425.283        2899.613  
      2259.461          37.000          37.000  
 129622650.851 4 101004755.147 6  24666369.355    24666392.522         341.633  
       265.773          29.000          39.000  
 114257128.392 7  89031593.147 7  21742410.636    21742425.747       -1755.594  
     -1367.867          44.000          44.000  
 110936164.827 7  86443822.657 7  21110451.251    21110465.693       -1760.230  
     -1371.754          44.000          45.000  
 109084967.909 8  85001341.665 7  20758180.769    20758196.516         144.867  
       112.602          48.000          46.000  
 117282613.162 7  91389135.729 6  22318139.222    22318158.622        2900.328  
      2260.195          47.000          39.000  
 128021754.546 6  99757287.423 6  24361732.785    24361750.124       -3300.281  
     -2571.758          38.000          38.000  
 24  1 10  3 18  1.4000000  0  7G08G24G18G23G10G32G15
 130699754.847 6 101844047.016 6  24871348.751    24871370.223        2899.684  
      2259.141          37.000          37.000  
 129622616.845 5 101004728.559 6  24666362.626    24666385.849         340.703  
       265.777          31.000          39.000  
 114257303.967 7  89031729.973 7  21742443.977    21742458.927       -1755.547  
     -1367.977          44.000          44.000  
 110936340.861 7  86443959.772 7  21110484.734    21110498.928       -1760.531  
     -1371.641          44.000          45.000  
 109084953.435 8  85001330.388 7  20758177.928    20758194.051         144.684  
       112.707          48.000          45.000  
 117282323.148 7  91388909.743 6  22318084.081    22318103.153        2900.297  
      2259.840          47.000          39.000  
 128022084.594 6  99757544.617 6  24361795.481    24361813.051       -3300.488  
     -2571.602          38.000          38.000  
 24  1 10  3 18  1.5000000  0  7G08G24G18G23G10G32G15
 130699464.857 6 101843821.062 6  24871293.568    24871315.043        2899.629  
      2259.398          37.000          37.000  
 129622582.601 5 101004701.947 6  24666356.110    24666379.351         341.656  
       266.066          31.000          39.000  
 114257479.535 7  89031866.741 7  21742477.386    21742492.327       -1755.609  
     -1367.770          44.000          44.000  
 110936516.837 7  86444096.897 7  21110518.221    21110532.415       -1760.008  
     -1371.484          44.000          45.000  
 109084938.945 8  85001319.082 7  20758175.171    20758191.290         144.918  
       113.055          48.000          45.000  
 117282033.089 7  91388683.719 6  22318028.884    22318047.955        2900.453  
      2260.336          47.000          39.000  
 128022414.636 6  99757801.771 6  24361858.286    24361875.850       -3300.371  
     -2571.766          38.000          38.000  
 24  1 10  3 18  1.6000000  0  7G08G24G18G23G10G32G15
 130699174.952 6 101843595.096 6  24871238.330    24871259.735        2899.426  
      2259.578          37.000          37.000  
 129622548.483 5 101004675.341 6  24666349.992    24666372.955         341.496  
       266.082          31.000          38.000  
 114257655.012 7  89032003.503 7  21742510.857    21742525.710       -1755.266  
     -1367.660          44.000          43.000  
 110936692.856 7  86444234.077 7  21110551.904    21110565.877       -1760.047  
     -1371.402          44.000          45.000  
 109084924.400 8  85001307.745 7  20758172.372    20758188.428         145.203  
       113.324          48.000          45.000  
 117281742.996 7  91388457.680 6  22317973.939    22317992.684        2900.719  
      2260.262          47.000          39.000  
 128022744.652 6  99758058.918 6  24361921.086    24361938.898       -3300.273  
     -2571.199          38.000          38.000  
 24  1 10  3 18  1.7000000  0  7G08G24G18G23G10G32G15
 130698884.908 6 101843369.144 6  24871183.137    24871204.555        2900.020  
      2259.484          37.000          37.000  
 129622514.354 5 101004648.782 6  24666343.498    24666366.469         341.340  
       265.816          32.000          38.000  
 114257830.579 7  89032140.299 7  21742544.266    21742559.117       -1755.227  
     -1367.441          44.000          44.000  
 110936868.835 7  86444371.209 7  21110585.391    21110599.366       -1759.875  
     -1371.395          44.000          45.000  
 109084909.880 8  85001296.465 7  20758169.609    20758185.673         145.297  
       113.133          48.000          46.000  
 117281452.920 7  91388231.639 6  22317918.740    22317937.483        2900.840  
      2260.320          47.000          39.000  
 128023074.710 6  99758316.093 6  24361983.894    24362001.703       -3300.465  
     -2571.730          38.000          39.000  
 24  1 10  3 18  1.8000000  0  7G08G24G18G23G10G32G15
 130698594.962 6 101843143.168 6  24871128.134    24871149.346        2899.660  
      2259.750          37.000          37.000  
 129622480.249 5 101004622.148 6  24666337.570    24666359.316         341.145  
       266.504          32.000          38.000  
 114258006.101 7  89032277.045 7  21742577.674    21742592.629       -1755.344  
     -1368.055          44.000          43.000  
 110937044.850 7  86444508.373 7  21110618.917    21110633.449       -1760.074  
     -1371.562          44.000          45.000  
 109084895.377 8  85001285.143 7  20758166.849    20758183.057         145.078  
       113.016          48.000          46.000  
 117281162.863 7  91388005.625 6  22317863.630    22317881.967        2900.617  
      2260.164          47.000          39.000  
 128023404.767 6  99758573.259 6  24362046.569    24362064.334       -3300.430  
     -2571.609          38.000          39.000  
 24  1 10  3 18  1.9000000  0  7G08G24G18G23G10G32G15
 130698304.975 6 101842917.240 6  24871072.951    24871094.172        2899.703  
      2259.328          37.000          37.000  
 129622446.111 5 101004595.597 6  24666331.074    24666352.832         341.137  
       265.422          32.000          38.000  
 114258181.708 7  89032413.945 7  21742611.091    21742626.061       -1755.633  
     -1368.434          44.000          43.000  
 110937220.897 7  86444645.524 7  21110652.418    21110666.942       -1760.203  
     -1371.555          44.000          45.000  
 109084880.893 8  85001273.865 7  20758164.093    20758180.302         144.941  
       112.828          48.000          46.000  
 117280872.829 7  91387779.610 6  22317808.438    22317826.772        2900.414  
      2259.867          47.000          39.000  
 128023734.840 6  99758830.450 6  24362109.380    24362127.142       -3300.703  
     -2571.898          38.000          39.000  
 24  1 10  3 18  2.0000000  0  7G08G24G18G23G10G32G15
 130698015.054 6 101842691.309 6  24871017.906    24871039.036        2899.434  
      2259.297          37.000          37.000  
 129622412.148 5 101004569.077 6  24666324.775    24666346.551         340.598  
       265.117          33.000          38.000  
 114258357.287 7  89032550.746 7  21742644.448    21742658.954       -1755.910  
     -1368.320          44.000          43.000  
 110937396.959 7  86444782.705 7  21110685.796    21110700.693       -1760.520  
     -1371.824          44.000          45.000  
 109084866.424 8  85001262.577 7  20758161.207    20758177.428         144.695  
       112.855          48.000          46.000  
 117280582.808 7  91387553.635 6  22317752.991    22317771.571        2900.223  
      2259.902          47.000          39.000  
 128024064.880 6  99759087.679 6  24362172.489    24362190.265       -3300.566  
     -2572.246          38.000          39.000  
 24  1 10  3 18  2.1000000  0  7G08G24G18G23G10G32G15
 130697725.091 6 101842465.372 6  24870962.728    24870983.860        2899.586  
      2259.539          37.000          37.000  
 129622378.036 5 101004542.575 6  24666318.284    24666340.079         340.734  
       264.871          32.000          37.000  
 114258532.889 7  89032687.549 7  21742677.864    21742692.362       -1755.906  
     -1368.293          43.000          43.000  
 110937573.022 7  86444919.935 7  21110719.300    21110734.206       -1760.496  
     -1372.066          45.000          45.000  
 109084851.951 8  85001251.290 7  20758158.453    20758174.672         144.703  
       112.703          48.000          46.000  
 117280292.814 7  91387327.671 6  22317697.807    22317716.389        2900.148  
      2259.840          47.000          39.000  
 128024395.011 6  99759344.872 6  24362235.311    24362253.074       -3300.879  
     -2571.965          38.000          39.000  
 24  1 10  3 18  2.2000000  0  7G08G24G18G23G10G32G15
 130697435.138 6 101842239.433 6  24870907.567    24870928.809        2899.555  
      2259.293          37.000          37.000  
 129622344.025 5 101004515.995 6  24666311.781    24666333.713         340.371  
       265.492          32.000          37.000  
 114258708.528 7  89032824.424 7  21742711.615    21742725.234       -1756.258  
     -1368.848          43.000          43.000  
 110937749.087 7  86445057.131 7  21110752.851    21110767.406       -1760.625  
     -1372.043          44.000          45.000  
 109084837.503 8  85001240.073 7  20758155.555    20758172.136         144.691  
       112.520          48.000          46.000  
 117280002.816 7  91387101.729 6  22317642.716    22317661.125        2900.094  
      2259.324          47.000          39.000  
 128024725.091 6  99759602.108 6  24362297.928    24362315.839       -3300.914  
     -2572.422          37.000          38.000  
 24  1 10  3 18  2.3000000  0  7G08G24G18G23G10G32G15
 130697145.228 6 101842013.486 6  24870852.399    24870873.630        2899.348  
      2259.445          37.000          37.000  
 129622310.074 5 101004489.516 6  24666305.320    24666327.246         339.770  
       264.949          31.000          37.000  
 114258884.186 7  89032961.337 7  21742745.042    21742758.670       -1756.504  
     -1369.023          43.000          43.000  
 110937925.201 7  86445194.352 7  21110786.364    21110800.917       -1761.000  
     -1372.125          44.000          45.000  
 109084823.055 8  85001228.778 7  20758152.805    20758169.377         144.500  
       112.543          48.000          46.000  
 117279712.840 7  91386875.734 6  22317587.536    22317605.935        2899.832  
      2259.730          47.000          39.000  
 128025055.294 6  99759859.350 6  24362360.763    24362378.660       -3301.430  
     -2572.422          37.000          39.000  
 24  1 10  3 18  2.4000000  0  7G08G24G18G23G10G32G15
 130696855.222 6 101841787.584 6  24870797.236    24870818.314        2899.609  
      2259.273          37.000          37.000  
 129622276.11335 101004463.036 6  24666298.639    24666320.147         340.309  
       264.934          31.000          37.000  
 114259059.885 7  89033098.253 7  21742777.711    21742792.426       -1756.660  
     -1368.934          43.000          43.000  
 110938101.319 7  86445331.546 7  21110819.402    21110834.577       -1761.027  
     -1372.156          44.000          45.000  
 109084808.629 8  85001217.557 7  20758149.935    20758166.520         144.340  
       112.496          48.000          46.000  
 117279422.888 7  91386649.807 6  22317532.453    22317550.628        2899.703  
      2259.387          47.000          39.000  
 128025385.460 6  99760116.641 6  24362423.412    24362441.657       -3301.543  
     -2572.828          38.000          39.000  
 24  1 10  3 18  2.5000000  0  7G08G24G18G23G10G32G15
 130696565.267 6 101841561.627 6  24870742.060    24870763.133        2899.629  
      2259.434          37.000          37.000  
 129622242.07025 101004436.557 6  24666292.161    24666313.680         339.805  
       264.766          30.000          37.000  
 114259235.586 7  89033235.119 7  21742811.145    21742825.850       -1756.926  
     -1368.707          42.000          43.000  
 110938277.412 7  86445468.787 7  21110852.911    21110868.093       -1761.000  
     -1372.602          45.000          45.000  
 109084794.200 8  85001206.292 7  20758147.190    20758163.769         144.371  
       112.453          48.000          46.000  
 117279132.939 7  91386423.864 6  22317477.278    22317495.451        2899.609  
      2259.430          47.000          39.000  
 128025715.520 6  99760373.905 6  24362486.220    24362504.484       -3301.074  
     -2572.715          38.000          38.000  
 24  1 10  3 18  2.6000000  0  7G08G24G18G23G10G32G15
 130696275.318 6 101841335.683 6  24870687.111    24870707.963        2899.590  
      2259.289          37.000          37.000  
 129622208.13435 101004410.076 6  24666285.125    24666306.893         340.152  
       264.602          30.000          37.000  
 114259411.251 7  89033371.973 7  21742844.073    21742860.053       -1756.906  
     -1369.039          42.000          43.000  
 110938453.559 7  86445606.065 7  21110886.517    21110901.641       -1761.121  
     -1372.238          44.000          45.000  
 109084779.766 8  85001195.056 7  20758144.701    20758160.908         144.348  
       112.438          48.000          46.000  
 117278842.977 7  91386197.918 6  22317421.670    22317439.812        2899.637  
      2259.277          47.000          39.000  
 128026045.644 6  99760631.099 6  24362549.447    24362567.153       -3301.164  
     -2572.121          39.000          38.000  
 24  1 10  3 18  2.7000000  0  7G08G24G18G23G10G32G15
 130695985.394 6 101841109.721 6  24870631.940    24870652.781        2899.492  
      2259.449          37.000          37.000  
 129622174.11125 101004383.661 6  24666278.650    24666300.442         339.660  
       264.449          30.000          37.000  
 114259586.977 7  89033508.947 7  21742877.513    21742893.503       -1756.863  
     -1369.281          43.000          43.000  
 110938629.644 7  86445743.245 7  21110920.025    21110935.142       -1761.027  
     -1372.191          44.000          45.000  
 109084765.299 8  85001183.781 7  20758141.948    20758158.154         144.504  
       112.652          48.000          46.000  
 117278553.022 7  91385971.997 6  22317366.493    22317384.639        2899.684  
      2259.602          47.000          39.000  
 128026375.803 6  99760888.366 6  24362612.274    24362629.980       -3301.371  
     -2572.793          39.000          38.000  
 24  1 10  3 18  2.8000000  0  7G08G24G18G23G10G32G15
 130695695.363 6 101840883.792 6  24870577.007    24870597.302        2899.812  
      2259.309          37.000          37.000  
 129622140.32425 101004357.206 6  24666271.908    24666293.927         339.121  
       264.312          31.000          37.000  
 114259762.686 7  89033645.870 7  21742911.293    21742926.402       -1756.984  
     -1369.234          43.000          43.000  
 110938805.788 7  86445880.502 7  21110953.786    21110968.146       -1761.098  
     -1372.242          44.000          45.000  
 109084750.863 8  85001172.555 7  20758139.388    20758155.147         144.582  
       112.688          48.000          46.000  
 117278263.044 7  91385746.025 6  22317311.500    22317330.252        2899.555  
      2258.961          47.000          39.000  
 128026705.988 6  99761145.665 6  24362675.419    24362692.268       -3301.730  
     -2572.695          40.000          37.000  
 24  1 10  3 18  2.8000000  5  0
 24  1 10  3 18  2.8000000  5  0
 24  1 10  3 18  2.9000000  0  7G08G24G18G23G10G32G15
 130695405.438 6 101840657.867 6  24870521.836    24870542.129        2899.559  
      2259.195          37.000          37.000  
 129622106.35825 101004330.764 6  24666265.445    24666287.469         339.375  
       264.406          30.000          37.000  
 114259938.425 7  89033782.749 7  21742944.735    21742959.829       -1757.375  
     -1369.031          44.000          43.000  
 110938981.863 7  86446017.701 7  21110987.292    21111001.651       -1761.148  
     -1372.180          44.000          45.000  
 109084736.410 8  85001161.270 7  20758136.638    20758152.391         144.414  
       112.566          48.000          46.000  
 117277973.089 7  91385520.102 6  22317256.323    22317275.079        2899.602  
      2259.566          47.000          39.000  
 128027036.158 6  99761402.946 6  24362738.248    24362755.099       -3301.578  
     -2572.785          40.000          37.000  
 24  1 10  3 18  3.0000000  0  7G08G24G18G23G10G32G15
 130695115.519 6 101840431.908 6  24870467.064    24870487.393        2899.316  
      2259.449          37.000          37.000  
 129622072.43325 101004304.384 6  24666258.958    24666281.277         339.090  
       263.984          30.000          37.000  
 114260114.132 7  89033919.689 7  21742979.132    21742992.701       -1757.133  
     -1369.520          44.000          43.000  
 110939157.961 7  86446154.933 7  21111020.927    21111034.837       -1760.941  
     -1372.258          45.000          45.000  
 109084721.950 8  85001150.005 7  20758134.081    20758149.609         144.531  
       112.668          48.000          46.000  
 117277683.134 7  91385294.181 6  22317201.459    22317219.868        2899.625  
      2259.430          47.000          39.000  
 128027366.340 6  99761660.208 6  24362800.916    24362817.456       -3301.785  
     -2572.867          39.000          37.000  
 24  1 10  3 18  3.1000000  0  7G08G24G18G23G10G32G15
 130694825.536 6 101840205.991 6  24870411.883    24870432.222        2899.559  
      2259.098          37.000          37.000  
 129622038.61025 101004277.936 6  24666252.522    24666274.818         338.793  
       264.672          30.000          37.000  
 114260289.858 7  89034056.657 7  21743012.572    21743026.150       -1757.188  
     -1369.371          44.000          44.000  
 110939334.082 7  86446292.190 7  21111054.442    21111068.356       -1761.133  
     -1372.344          45.000          45.000  
 109084707.510 8  85001138.763 7  20758131.334    20758146.864         144.547  
       112.465          48.000          45.000  
 117277393.183 7  91385068.245 6  22317146.283    22317164.692        2899.551  
      2259.355          47.000          39.000  
 128027696.578 6  99761917.506 6  24362863.758    24362880.291       -3302.023  
     -2572.906          39.000          37.000  
 24  1 10  3 18  3.2000000  0  7G08G24G18G23G10G32G15
 130694535.604 6 101839980.096 6  24870356.437    24870377.181        2899.473  
      2259.254          37.000          37.000  
 129622004.71134 101004251.580 6  24666246.055    24666268.077         339.309  
       263.605          28.000          37.000  
 114260465.652 7  89034193.618 7  21743046.157    21743060.355       -1757.414  
     -1369.449          44.000          44.000  
 110939510.276 7  86446429.453 7  21111088.260    21111102.010       -1761.562  
     -1372.598          44.000          45.000  
 109084693.092 8  85001127.520 7  20758128.637    20758144.430         144.215  
       112.293          48.000          45.000  
 117277103.258 7  91384842.270 6  22317090.902    22317109.483        2899.289  
      2259.348          47.000          39.000  
 128028026.763 6  99762174.846 6  24362926.262    24362943.245       -3301.980  
     -2573.340          39.000          37.000  
 24  1 10  3 18  3.3000000  0  7G08G24G18G23G10G32G15
 130694245.673 6 101839754.152 6  24870301.265    24870322.003        2899.414  
      2258.879          38.000          37.000  
 129621970.77824 101004225.220 6  24666239.598    24666261.640         338.949  
       263.625          27.000          37.000  
 114260641.420 7  89034330.553 7  21743079.604    21743093.796       -1757.828  
     -1369.738          44.000          43.000  
 110939686.459 7  86446566.721 7  21111121.786    21111135.532       -1761.809  
     -1372.863          44.000          45.000  
 109084678.707 8  85001116.308 7  20758125.899    20758141.692         144.059  
       112.109          48.000          46.000  
 117276813.361 7  91384616.422 6  22317035.736    22317054.329        2899.203  
      2258.863          47.000          39.000  
 128028357.005 6  99762432.181 6  24362989.105    24363006.089       -3302.309  
     -2573.320          39.000          38.000  
 24  1 10  3 18  3.4000000  0  7G08G24G18G23G10G32G15
 130693955.768 6 101839528.273 6  24870245.785    24870266.474        2899.305  
      2259.266          38.000          37.000  
 129621936.90924 101004198.795 6  24666233.192    24666255.359         339.012  
       264.125          28.000          37.000  
 114260817.211 7  89034467.517 7  21743112.939    21743127.643       -1757.930  
     -1369.754          44.000          43.000  
 110939862.585 7  86446703.987 7  21111154.989    21111169.531       -1761.520  
     -1372.895          44.000          45.000  
 109084664.292 8  85001105.074 7  20758122.883    20758138.941         143.984  
       112.176          48.000          45.000  
 117276523.422 7  91384390.501 6  22316980.352    22316998.985        2899.207  
      2258.945          47.000          39.000  
 128028687.232 6  99762689.499 6  24363052.351    24363069.077       -3302.211  
     -2573.316          39.000          38.000  
 24  1 10  3 18  3.5000000  0  7G08G24G18G23G10G32G15
 130693665.871 6 101839302.299 6  24870190.620    24870211.288        2899.125  
      2259.418          38.000          37.000  
 129621903.06224 101004172.385 6  24666226.751    24666248.909         338.605  
       264.031          29.000          37.000  
 114260992.919 7  89034604.473 7  21743146.375    21743161.089       -1757.449  
     -1369.461          44.000          43.000  
 110940038.731 7  86446841.255 7  21111188.509    21111203.053       -1761.395  
     -1372.391          44.000          45.000  
 109084649.842 8  85001093.811 7  20758120.133    20758136.191         144.367  
       112.641          48.000          45.000  
 117276233.478 7  91384164.532 6  22316925.177    22316943.800        2899.438  
      2259.812          47.000          39.000  
 128029017.466 6  99762946.804 6  24363115.193    24363131.914       -3302.289  
     -2573.125          40.000          38.000  
 24  1 10  3 18  3.6000000  0  7G08G24G18G23G10G32G15
 130693375.900 6 101839076.424 6  24870135.448    24870155.909        2899.293  
      2258.926          37.000          37.000  
 129621869.15124 101004145.994 6  24666220.603    24666242.089         338.961  
       263.547          29.000          37.000  
 114261168.686 7  89034741.453 7  21743179.424    21743194.502       -1757.363  
     -1369.371          43.000          43.000  
 110940214.868 7  86446978.490 7  21111221.901    21111236.708       -1761.348  
     -1372.461          44.000          45.000  
 109084635.423 8  85001082.590 7  20758117.553    20758133.380         144.312  
       112.375          48.000          45.000  
 117275943.530 7  91383938.646 6  22316870.111    22316888.879        2899.430  
      2259.383          47.000          39.000  
 128029347.656 6  99763204.127 6  24363178.401    24363195.012       -3302.047  
     -2573.203          40.000          38.000  
 24  1 10  3 18  3.7000000  0  7G08G24G18G23G10G32G15
 130693086.027 6 101838850.540 6  24870080.287    24870100.746        2899.074  
      2258.918          38.000          37.000  
 129621835.43224 101004119.690 6  24666214.186    24666235.665         337.887  
       263.543          29.000          37.000  
 114261344.456 7  89034878.419 7  21743212.872    21743227.950       -1757.562  
     -1369.688          43.000          43.000  
 110940391.034 7  86447115.746 7  21111255.425    21111270.227       -1761.598  
     -1372.629          45.000          45.000  
 109084621.009 8  85001071.340 7  20758114.810    20758130.633         144.176  
       112.305          48.000          45.000  
 117275653.629 7  91383712.725 6  22316814.945    22316833.707        2899.289  
      2258.828          47.000          39.000  
 128029677.919 6  99763461.437 6  24363241.248    24363257.850       -3302.504  
     -2572.957          39.000          38.000  
 24  1 10  3 18  3.8000000  0  7G08G24G18G23G10G32G15
 130692796.153 6 101838624.657 6  24870024.993    24870045.708        2898.859  
      2258.727          37.000          37.000  
 129621801.54234 101004093.333 6  24666207.573    24666229.338         338.492  
       263.375          29.000          37.000  
 114261520.260 7  89035015.353 7  21743246.076    21743260.734       -1758.129  
     -1370.012          43.000          43.000  
 110940567.256 7  86447253.082 7  21111289.521    21111304.008       -1761.750  
     -1372.957          45.000          45.000  
 109084606.646 8  85001060.161 7  20758111.913    20758128.020         143.918  
       111.977          48.000          45.000  
 117275363.741 7  91383486.835 6  22316759.781    22316778.683        2899.023  
      2259.008          47.000          39.000  
 128030008.232 6  99763718.808 6  24363304.479    24363321.203       -3302.730  
     -2573.785          39.000          38.000  
 24  1 10  3 18  3.9000000  0  7G08G24G18G23G10G32G15
 130692506.319 6 101838398.800 6  24869969.839    24869990.551        2898.625  
      2258.664          37.000          37.000  
 129621767.77024 101004066.994 6  24666201.146    24666222.906         338.254  
       263.383          29.000          38.000  
 114261696.070 7  89035152.388 7  21743279.532    21743294.200       -1757.914  
     -1370.168          43.000          43.000  
 110940743.444 7  86447390.351 7  21111323.049    21111337.531       -1762.055  
     -1373.172          45.000          45.000  
 109084592.277 8  85001048.954 7  20758109.179    20758125.283         143.691  
       111.801          48.000          45.000  
 117275073.844 7  91383260.961 6  22316704.615    22316723.522        2898.863  
      2258.656          47.000          39.000  
 128030338.521 6  99763976.176 6  24363367.331    24363384.055       -3302.828  
     -2573.773          39.000          38.000  
 24  1 10  3 18  4.0000000  0  7G08G24G18G23G10G32G15
 130692216.506 6 101838172.989 6  24869914.838    24869935.187        2898.449  
      2257.988          37.000          37.000  
 129621733.92424 101004040.691 6  24666195.206    24666217.154         338.316  
       263.410          29.000          38.000  
 114261871.927 7  89035289.420 7  21743312.660    21743327.305       -1758.238  
     -1370.016          43.000          43.000  
 110940919.635 7  86447527.660 7  21111356.639    21111370.930       -1761.980  
     -1373.094          45.000          45.000  
 109084577.916 8  85001037.759 7  20758106.415    20758122.463         143.668  
       111.922          48.000          45.000  
 117274783.971 7  91383035.066 6  22316649.509    22316668.520        2898.809  
      2258.719          47.000          39.000  
 128030668.770 6  99764233.525 6  24363430.230    24363446.371       -3302.688  
     -2573.504          38.000          38.000  
 24  1 10  3 18  4.1000000  0  7G08G24G18G23G10G32G15
 130691926.609 6 101837947.084 6  24869859.673    24869880.019        2898.547  
      2259.125          37.000          36.000  
 129621700.14624 101004014.370 6  24666188.778    24666210.726         338.070  
       263.297          29.000          38.000  
 114262047.716 7  89035426.348 7  21743346.112    21743360.744       -1758.211  
     -1369.766          44.000          43.000  
 110941095.876 7  86447664.969 7  21111390.177    21111404.462       -1762.152  
     -1372.906          45.000          45.000  
 109084563.569 8  85001026.598 7  20758103.685    20758119.738         143.602  
       111.805          48.000          45.000  
 117274494.113 7  91382809.216 6  22316594.351    22316613.365        2898.730  
      2258.797          47.000          39.000  
 128030999.015 6  99764490.893 6  24363493.074    24363509.222       -3302.543  
     -2573.633          38.000          38.000  
 24  1 10  3 18  4.2000000  0  7G08G24G18G23G10G32G15
 130691636.757 6 101837721.243 6  24869804.617    24869824.655        2898.629  
      2258.539          37.000          36.000  
 129621666.37224 101003988.005 6  24666182.328    24666205.014         337.871  
       263.293          29.000          39.000  
 114262223.557 7  89035563.430 7  21743379.628    21743394.229       -1758.023  
     -1370.363          43.000          43.000  
 110941272.067 7  86447802.259 7  21111423.798    21111437.865       -1762.062  
     -1373.078          45.000          45.000  
 109084549.219 8  85001015.425 7  20758100.829    20758116.642         143.488  
       111.762          48.000          45.000  
 117274204.252 7  91382583.337 6  22316539.005    22316558.274        2898.625  
      2258.320          47.000          39.000  
 128031329.285 6  99764748.260 6  24363555.305    24363571.855       -3302.555  
     -2573.562          37.000          38.000  
 24  1 10  3 18  4.3000000  0  7G08G24G18G23G10G32G15
 130691346.902 6 101837495.426 6  24869749.460    24869769.508        2898.578  
      2258.395          37.000          36.000  
 129621632.58225 101003961.689 6  24666175.898    24666198.588         337.863  
       263.227          30.000          39.000  
 114262399.424 7  89035700.482 7  21743413.094    21743427.698       -1758.305  
     -1370.207          43.000          43.000  
 110941448.305 7  86447939.617 7  21111457.335    21111471.409       -1762.062  
     -1373.160          44.000          45.000  
 109084534.896 8  85001004.240 7  20758098.103    20758113.910         143.348  
       111.785          48.000          45.000  
 117273914.413 7  91382357.479 6  22316483.850    22316503.117        2898.477  
      2258.633          47.000          39.000  
 128031659.611 6  99765005.614 6  24363618.164    24363634.704       -3302.902  
     -2573.324          38.000          38.000  
 24  1 10  3 18  4.4000000  0  7G08G24G18G23G10G32G15
 130691057.087 6 101837269.553 6  24869693.685    24869714.152        2898.449  
      2258.523          37.000          37.000  
 129621598.80525 101003935.365 6  24666169.532    24666192.511         337.637  
       263.316          30.000          38.000  
 114262575.273 7  89035837.396 7  21743447.151    21743461.165       -1758.793  
     -1370.066          44.000          43.000  
 110941624.526 7  86448076.935 7  21111490.455    21111505.162       -1762.215  
     -1373.141          44.000          45.000  
 109084520.578 8  85000993.078 7  20758095.465    20758111.036         143.297  
       111.414          48.000          45.000  
 117273624.605 7  91382131.686 6  22316428.678    22316447.765        2898.273  
      2258.121          47.000          39.000  
 128031989.874 6  99765262.968 6  24363680.370    24363697.755       -3302.805  
     -2573.660          38.000          38.000  
 24  1 10  3 18  4.5000000  0  7G08G24G18G23G10G32G15
 130690767.258 6 101837043.658 6  24869638.532    24869658.987        2898.340  
      2258.805          37.000          37.000  
 129621565.14225 101003909.025 6  24666163.127    24666186.078         337.426  
       263.309          30.000          38.000  
 114262751.093 7  89035974.501 7  21743480.609    21743494.648       -1758.312  
     -1370.609          44.000          43.000  
 110941800.753 7  86448214.224 7  21111523.990    21111538.689       -1762.266  
     -1373.156          44.000          45.000  
 109084506.277 8  85000981.967 7  20758092.743    20758108.323         143.176  
       111.535          48.000          45.000  
 117273334.812 7  91381905.883 6  22316373.532    22316392.622        2898.121  
      2258.410          47.000          39.000  
 128032320.129 6  99765520.300 6  24363743.215    24363760.599       -3302.574  
     -2573.324          37.000          38.000  
 24  1 10  3 18  4.6000000  0  7G08G24G18G23G10G32G15
 130690477.397 6 101836817.812 6  24869583.256    24869604.247        2898.527  
      2258.816          37.000          37.000  
 129621531.43225 101003882.709 6  24666156.884    24666179.230         337.227  
       263.430          31.000          38.000  
 114262926.992 7  89036111.565 7  21743514.573    21743528.073       -1758.602  
     -1370.387          44.000          43.000  
 110941976.988 7  86448351.554 7  21111556.737    21111572.196       -1762.344  
     -1373.125          44.000          45.000  
 109084491.970 8  85000970.800 7  20758089.661    20758105.650         143.086  
       111.422          48.000          45.000  
 117273045.022 7  91381680.034 6  22316318.168    22316337.748        2897.953  
      2258.168          47.000          39.000  
 128032650.328 6  99765777.675 6  24363805.128    24363823.390       -3302.305  
     -2573.598          36.000          38.000  
 24  1 10  3 18  4.7000000  0  7G08G24G18G23G10G32G15
 130690187.511 6 101836591.941 6  24869528.093    24869549.087        2898.516  
      2258.582          37.000          37.000  
 129621497.53525 101003856.448 6  24666150.433    24666172.816         337.879  
       262.598          30.000          38.000  
 114263102.951 7  89036248.644 7  21743548.057    21743561.550       -1759.074  
     -1370.754          44.000          43.000  
 110942153.199 7  86448488.890 7  21111590.269    21111605.735       -1762.203  
     -1373.539          44.000          45.000  
 109084477.686 8  85000959.666 7  20758086.943    20758102.931         142.965  
       111.309          48.000          45.000  
 117272755.278 7  91381454.265 6  22316263.032    22316282.613        2897.668  
      2257.664          47.000          39.000  
 128032980.673 6  99766035.023 6  24363867.991    24363886.237       -3302.980  
     -2573.508          36.000          39.000  
 24  1 10  3 18  4.8000000  0  7G08G24G18G23G10G32G15
 130689897.646 6 101836366.117 6  24869472.824    24869493.938        2898.719  
      2258.594          37.000          37.000  
 129621463.92325 101003830.185 6  24666143.990    24666165.606         337.062  
       262.734          30.000          38.000  
 114263278.785 7  89036385.667 7  21743581.470    21743595.317       -1758.828  
     -1370.621          44.000          43.000  
 110942329.493 7  86448626.265 7  21111624.075    21111639.072       -1762.547  
     -1373.293          44.000          45.000  
 109084463.399 8  85000948.540 7  20758084.435    20758100.691         142.887  
       111.227          48.000          45.000  
 117272465.534 7  91381228.516 6  22316208.208    22316227.413        2897.570  
      2257.805          47.000          39.000  
 128033310.971 6  99766292.363 6  24363930.188    24363949.457       -3302.801  
     -2573.570          36.000          39.000  
 24  1 10  3 18  4.9000000  0  7G08G24G18G23G10G32G15
 130689607.841 6 101836140.254 6  24869417.676    24869438.780        2898.316  
      2258.410          37.000          37.000  
 129621430.18524 101003803.921 6  24666137.570    24666159.192         337.383  
       262.777          28.000          39.000  
 114263454.770 7  89036522.782 7  21743614.959    21743628.802       -1759.383  
     -1371.039          44.000          43.000  
 110942505.757 7  86448763.586 7  21111657.617    21111672.607       -1762.590  
     -1373.586          44.000          45.000  
 109084449.140 8  85000937.428 7  20758081.722    20758097.977         142.699  
       111.133          48.000          45.000  
 117272175.832 7  91381002.773 6  22316153.080    22316172.284        2897.246  
      2257.211          47.000          39.000  
 128033641.285 6  99766549.764 6  24363993.045    24364012.317       -3303.098  
     -2573.984          36.000          39.000  
 24  1 10  3 18  5.0000000  0  7G08G24G18G23G10G32G15
 130689318.020 6 101835914.410 6  24869362.775    24869383.096        2898.340  
      2258.543          37.000          37.000  
 129621396.47024 101003777.620 6  24666131.131    24666152.949         337.480  
       262.789          28.000          38.000  
 114263630.670 7  89036659.864 7  21743648.369    21743662.825       -1759.090  
     -1370.641          44.000          43.000  
 110942682.028 7  86448900.921 7  21111691.121    21111706.013       -1762.785  
     -1373.328          44.000          45.000  
 109084434.850 8  85000926.304 7  20758079.307    20758094.909         142.797  
       111.355          48.000          45.000  
 117271886.104 7  91380777.005 6  22316098.243    22316117.180        2897.254  
      2257.723          47.000          39.000  
 128033971.592 6  99766807.147 6  24364056.135    24364075.813       -3303.012  
     -2573.664          36.000          38.000  
 24  1 10  3 18  5.1000000  0  7G08G24G18G23G10G32G15
 130689028.104 6 101835688.510 6  24869307.605    24869327.928        2898.711  
      2258.730          37.000          37.000  
 129621362.63134 101003751.366 6  24666124.707    24666146.537         337.457  
       262.512          27.000          38.000  
 114263806.590 7  89036796.933 7  21743681.846    21743696.299       -1759.047  
     -1370.754          43.000          43.000  
 110942858.257 7  86449038.269 7  21111724.656    21111739.555       -1762.336  
     -1373.391          44.000          45.000  
 109084420.546 8  85000915.139 7  20758076.586    20758092.182         142.953  
       111.383          48.000          45.000  
 117271596.371 7  91380551.227 6  22316043.109    22316062.043        2897.367  
      2257.758          47.000          39.000  
 128034301.885 6  99767064.488 6  24364118.987    24364138.658       -3302.977  
     -2573.539          38.000          38.000  
 24  1 10  3 18  5.2000000  0  7G08G24G18G23G10G32G15
 130688738.283 6 101835462.680 6  24869252.439    24869273.052        2898.531  
      2258.543          37.000          37.000  
 129621328.95324 101003725.077 6  24666117.767    24666140.156         337.391  
       262.574          28.000          38.000  
 114263982.479 7  89036933.984 7  21743714.644    21743729.549       -1759.184  
     -1370.672          43.000          43.000  
 110943034.497 7  86449175.595 7  21111758.521    21111772.818       -1762.422  
     -1373.336          44.000          45.000  
 109084406.253 8  85000904.017 7  20758073.709    20758089.552         142.988  
       111.281          48.000          45.000  
 117271306.632 7  91380325.479 6  22315988.122    22316006.593        2897.352  
      2257.371          47.000          39.000  
 128034632.163 6  99767321.896 6  24364182.415    24364201.418       -3302.859  
     -2573.996          38.000          38.000  
 24  1 10  3 18  5.3000000  0  7G08G24G18G23G10G32G15
 130688448.444 6 101835236.835 6  24869197.284    24869217.898        2898.453  
      2258.453          37.000          37.000  
 129621295.33224 101003698.883 6  24666111.369    24666133.759         336.656  
       262.176          29.000          38.000  
 114264158.441 7  89037071.128 7  21743748.129    21743763.041       -1759.316  
     -1371.219          43.000          43.000  
 110943210.781 7  86449312.960 7  21111792.067    21111806.364       -1762.609  
     -1373.426          44.000          45.000  
 109084391.978 8  85000892.893 7  20758070.993    20758086.835         142.848  
       111.262          48.000          45.000  
 117271016.902 7  91380099.720 6  22315932.988    22315951.460        2897.348  
      2257.859          47.000          39.000  
 128034962.489 6  99767579.280 6  24364245.274    24364264.274       -3303.035  
     -2573.766          39.000          38.000  
 24  1 10  3 18  5.4000000  0  7G08G24G18G23G10G32G15
 130688158.646 6 101835010.985 6  24869141.684    24869162.532        2898.258  
      2258.629          37.000          37.000  
 129621261.68724 101003672.609 6  24666105.053    24666127.484         336.961  
       262.648          28.000          38.000  
 114264334.365 7  89037208.218 7  21743781.106    21743796.864       -1759.270  
     -1371.035          43.000          43.000  
 110943387.033 7  86449450.318 7  21111825.951    21111840.095       -1762.684  
     -1373.691          44.000          45.000  
 109084377.678 8  85000881.738 7  20758068.115    20758084.267         142.914  
       111.309          48.000          45.000  
 117270727.159 7  91379873.915 6  22315877.672    22315896.527        2897.410  
      2257.871          47.000          39.000  
 128035292.831 6  99767836.688 6  24364308.355    24364326.933       -3303.164  
     -2574.008          38.000          38.000  
 24  1 10  3 18  5.5000000  0  7G08G24G18G23G10G32G15
 130687868.778 6 101834785.120 6  24869086.524    24869107.374        2898.402  
      2258.562          37.000          37.000  
 129621227.92225 101003646.376 6  24666098.628    24666121.077         336.984  
       262.223          30.000          38.000  
 114264510.334 7  89037345.298 7  21743814.592    21743830.340       -1759.516  
     -1370.910          43.000          43.000  
 110943563.296 7  86449587.655 7  21111859.492    21111873.635       -1762.566  
     -1373.270          44.000          45.000  
 109084363.386 8  85000870.615 7  20758065.396    20758081.551         142.938  
       111.363          48.000          45.000  
 117270437.404 7  91379648.169 6  22315822.533    22315841.398        2897.504  
      2257.699          47.000          39.000  
 128035623.106 6  99768094.090 6  24364371.204    24364389.793       -3303.109  
     -2573.930          37.000          38.000  
 24  1 10  3 18  5.6000000  0  7G08G24G18G23G10G32G15
 130687578.952 6 101834559.345 6  24869031.802    24869051.823        2898.344  
      2258.047          37.000          37.000  
 129621194.39825 101003620.159 6  24666092.405    24666114.550         336.141  
       262.105          30.000          38.000  
 114264686.278 7  89037482.372 7  21743848.495    21743863.432       -1759.574  
     -1371.098          44.000          43.000  
 110943739.590 7  86449725.007 7  21111892.837    21111907.263       -1762.828  
     -1373.594          44.000          45.000  
 109084349.132 8  85000859.483 7  20758062.722    20758078.864         142.766  
       111.199          48.000          45.000  
 117270147.671 7  91379422.391 6  22315767.352    22315786.385        2897.418  
      2257.762          47.000          39.000  
 128035953.496 6  99768351.513 6  24364434.091    24364452.447       -3303.547  
     -2574.164          36.000          38.000  
 24  1 10  3 18  5.7000000  0  7G08G24G18G23G10G32G15
 130687289.132 6 101834333.476 6  24868976.651    24868996.664        2898.293  
      2258.559          37.000          37.000  
 129621160.66325 101003593.963 6  24666085.985    24666108.152         336.918  
       262.078          30.000          38.000  
 114264862.243 7  89037619.545 7  21743881.980    21743896.931       -1759.441  
     -1371.231          44.000          43.000  
 110943915.880 7  86449862.389 7  21111926.384    21111940.813       -1762.887  
     -1373.738          44.000          45.000  
 109084334.846 8  85000848.378 7  20758060.004    20758076.152         142.816  
       111.195          48.000          45.000  
 117269857.903 7  91379196.575 6  22315712.211    22315731.239        2897.570  
      2257.711          47.000          39.000  
 128036283.852 6  99768608.985 6  24364496.956    24364515.325       -3303.570  
     -2574.410          36.000          38.000  
 24  1 10  3 18  5.8000000  0  7G08G24G18G23G10G32G15
 130686999.330 6 101834107.717 6  24868921.629    24868941.593        2898.125  
      2257.641          38.000          37.000  
 129621127.08025 101003567.706 6  24666080.204    24666101.584         336.195  
       262.215          31.000          38.000  
 114265038.188 7  89037756.651 7  21743915.484    21743930.547       -1759.531  
     -1371.129          44.000          43.000  
 110944092.211 7  86449999.810 7  21111959.806    21111974.271       -1763.023  
     -1373.973          43.000          45.000  
 109084320.615 8  85000837.270 7  20758057.014    20758073.400         142.527  
       111.004          48.000          45.000  
 117269568.175 7  91378970.848 6  22315656.953    22315675.965        2897.418  
      2257.617          47.000          39.000  
 128036614.271 6  99768866.381 6  24364559.895    24364578.480       -3303.938  
     -2574.117          37.000          38.000  
 24  1 10  3 18  5.9000000  0  7G08G24G18G23G10G32G15
 130686709.587 6 101833881.857 6  24868866.492    24868886.436        2897.652  
      2258.281          37.000          37.000  
 129621093.47925 101003541.582 6  24666073.810    24666095.204         335.980  
       261.543          31.000          38.000  
 114265214.246 7  89037893.822 7  21743948.987    21743964.045       -1759.977  
     -1371.723          44.000          43.000  
 110944268.594 7  86450137.252 7  21111993.370    21112007.836       -1763.562  
     -1374.453          44.000          45.000  
 109084306.438 8  85000826.252 7  20758054.317    20758070.709         142.082  
       110.258          48.000          45.000  
 117269278.483 7  91378745.099 6  22315601.826    22315620.835        2897.062  
      2257.504          47.000          39.000  
 128036944.658 6  99769123.837 6  24364622.765    24364641.354       -3303.855  
     -2574.512          37.000          39.000  
 24  1 10  3 18  6.0000000  0  7G08G24G18G23G10G32G15
 130686419.913 6 101833656.111 6  24868811.143    24868831.807        2897.301  
      2257.629          38.000          37.000  
 129621059.82635 101003515.395 6  24666067.570    24666088.832         336.738  
       262.043          31.000          38.000  
 114265390.302 7  89038031.008 7  21743982.435    21743997.477       -1760.355  
     -1371.742          44.000          43.000  
 110944444.980 7  86450274.664 7  21112026.654    21112041.300       -1763.938  
     -1374.426          44.000          45.000  
 109084292.294 8  85000815.199 7  20758051.805    20758068.065         141.656  
       110.344          48.000          45.000  
 117268988.820 7  91378519.390 6  22315546.658    22315566.027        2896.863  
      2257.082          47.000          39.000  
 128037275.159 6  99769381.321 6  24364685.595    24364704.273       -3304.582  
     -2574.812          37.000          39.000  
 24  1 10  3 18  6.1000000  0  7G08G24G18G23G10G32G15
 130686130.152 6 101833430.386 6  24868756.003    24868776.682        2897.320  
      2257.238          37.000          37.000  
 129621026.25025 101003489.233 6  24666061.180    24666082.444         335.711  
       261.441          31.000          38.000  
 114265566.395 7  89038168.198 7  21744015.944    21744030.980       -1760.805  
     -1372.090          44.000          43.000  
 110944621.409 7  86450412.133 7  21112060.227    21112074.871       -1764.156  
     -1374.922          44.000          45.000  
 109084278.188 8  85000804.216 7  20758049.121    20758065.383         141.301  
       109.875          48.000          45.000  
 117268699.170 7  91378293.668 6  22315491.540    22315510.904        2896.547  
      2257.098          47.000          39.000  
 128037605.629 6  99769638.832 6  24364748.481    24364767.160       -3304.422  
     -2574.926          38.000          39.000  
 24  1 10  3 18  6.2000000  0  7G08G24G18G23G10G32G15
 130685840.479 6 101833204.628 6  24868700.606    24868722.339        2897.121  
      2257.465          37.000          37.000  
 129620992.80934 101003463.118 6  24666054.786    24666075.957         335.512  
       261.383          29.000          38.000  
 114265742.486 7  89038305.415 7  21744049.508    21744064.646       -1760.875  
     -1372.305          44.000          43.000  
 110944797.856 7  86450549.656 7  21112094.117    21112108.831       -1764.227  
     -1374.883          44.000          45.000  
 109084264.078 8  85000793.223 7  20758046.631    20758062.550         141.156  
       109.902          48.000          45.000  
 117268409.527 7  91378067.971 6  22315436.391    22315455.755        2896.469  
      2256.875          47.000          39.000  
 128037936.027 6  99769896.332 6  24364811.573    24364830.856       -3304.336  
     -2575.105          39.000          39.000  
 24  1 10  3 18  6.3000000  0  7G08G24G18G23G10G32G15
 130685550.736 6 101832978.873 6  24868645.470    24868667.207        2897.215  
      2257.578          37.000          37.000  
 129620959.21034 101003436.930 6  24666048.408    24666069.561         335.344  
       261.828          28.000          39.000  
 114265918.539 7  89038442.628 7  21744083.010    21744098.155       -1760.484  
     -1371.816          44.000          43.000  
 110944974.305 7  86450687.144 7  21112127.694    21112142.407       -1764.383  
     -1374.938          44.000          45.000  
 109084249.973 8  85000782.243 7  20758043.947    20758059.868         141.230  
       109.949          48.000          45.000  
 117268119.874 7  91377842.316 6  22315381.272    22315400.648        2896.668  
      2257.031          47.000          39.000  
 128038266.471 6  99770153.769 6  24364874.454    24364893.725       -3304.316  
     -2574.527          40.000          39.000  
 24  1 10  3 18  6.4000000  0  7G08G24G18G23G10G32G15
 130685261.100 6 101832753.171 6  24868590.229    24868612.190        2896.926  
      2257.055          37.000          37.000  
 129620925.58224 101003410.787 6  24666042.063    24666063.075         335.730  
       261.516          27.000          39.000  
 114266094.594 7  89038579.774 7  21744116.582    21744131.476       -1760.750  
     -1372.020          43.000          43.000  
 110945150.715 7  86450824.599 7  21112161.459    21112176.006       -1764.227  
     -1374.648          44.000          45.000  
 109084235.838 8  85000771.212 7  20758041.366    20758057.424         141.242  
       110.113          48.000          45.000  
 117267830.201 7  91377616.567 6  22315326.227    22315344.963        2896.625  
      2257.297          47.000          39.000  
 128038596.919 6  99770411.340 6  24364938.086    24364956.228       -3304.379  
     -2575.355          41.000          39.000  
 24  1 10  3 18  6.5000000  0  7G08G24G18G23G10G32G15
 130684971.367 6 101832527.440 6  24868535.095    24868557.064        2897.055  
      2257.328          37.000          37.000  
 129620892.14324 101003384.581 6  24666035.700    24666056.675         335.160  
       262.074          28.000          39.000  
 114266270.659 7  89038716.978 7  21744150.086    21744164.982       -1760.457  
     -1371.559          43.000          43.000  
 110945327.123 7  86450962.069 7  21112195.028    21112209.577       -1763.945  
     -1374.367          44.000          45.000  
 109084221.689 8  85000760.183 7  20758038.674    20758054.731         141.469  
       110.398          48.000          45.000  
 117267540.517 7  91377390.848 6  22315271.102    22315289.840        2896.863  
      2257.406          47.000          39.000  
 128038927.342 6  99770668.790 6  24365000.964    24365019.100       -3304.297  
     -2574.691          41.000          39.000  
 24  1 10  3 18  6.6000000  0  7G08G24G18G23G10G32G15
 130684681.713 6 101832301.707 6  24868479.851    24868501.969        2896.930  
      2257.270          37.000          36.000  
 129620858.49234 101003358.416 6  24666029.234    24666050.411         336.227  
       261.527          28.000          39.000  
 114266446.672 7  89038854.159 7  21744182.799    21744198.749       -1760.379  
     -1371.695          42.000          43.000  
 110945503.495 7  86451099.486 7  21112228.427    21112242.988       -1763.891  
     -1374.410          44.000          45.000  
 109084207.522 8  85000749.174 7  20758036.111    20758052.035         141.582  
       110.305          48.000          45.000  
 117267250.817 7  91377165.102 6  22315216.068    22315234.468        2896.934  
      2257.543          47.000          39.000  
 128039257.788 6  99770926.306 6  24365064.643    24365081.933       -3304.480  
     -2575.203          41.000          39.000  
 24  1 10  3 18  6.7000000  0  7G08G24G18G23G10G32G15
 130684391.994 6 101832075.979 6  24868424.719    24868446.844        2896.871  
      2257.285          37.000          36.000  
 129620824.79434 101003332.297 6  24666022.829    24666044.032         336.180  
       261.266          28.000          39.000  
 114266622.691 7  89038991.289 7  21744216.295    21744232.238       -1760.211  
     -1371.523          43.000          44.000  
 110945679.896 7  86451236.940 7  21112261.995    21112276.555       -1763.891  
     -1374.520          44.000          45.000  
 109084193.383 8  85000738.121 7  20758033.420    20758049.335         141.449  
       110.344          48.000          45.000  
 117266961.112 7  91376939.346 6  22315160.939    22315179.336        2896.977  
      2257.320          47.000          39.000  
 128039588.280 6  99771183.784 6  24365127.533    24365144.812       -3304.734  
     -2574.844          41.000          39.000  
 24  1 10  3 18  6.8000000  0  7G08G24G18G23G10G32G15
 130684102.355 6 101831850.278 6  24868369.696    24868391.718        2896.777  
      2257.238          37.000          36.000  
 129620791.31525 101003306.112 6  24666016.302    24666037.911         335.461  
       261.820          30.000          39.000  
 114266798.710 7  89039128.469 7  21744249.579    21744266.004       -1760.211  
     -1371.688          43.000          44.000  
 110945856.233 7  86451374.361 7  21112295.347    21112309.857       -1763.691  
     -1374.301          44.000          45.000  
 109084179.199 8  85000727.089 7  20758030.448    20758046.641         141.738  
       110.324          48.000          45.000  
 117266671.387 7  91376713.628 6  22315105.736    22315124.425        2897.121  
      2257.465          47.000          39.000  
 128039918.718 6  99771441.215 6  24365191.148    24365207.445       -3304.676  
     -2574.734          40.000          39.000  
 24  1 10  3 18  6.9000000  0  7G08G24G18G23G10G32G15
 130683812.663 6 101831624.536 6  24868314.570    24868336.589        2896.793  
      2257.320          36.000          36.000  
 129620757.736 5 101003279.916 6  24666009.912    24666031.514         335.824  
       261.730          31.000          39.000  
 114266974.739 7  89039265.599 7  21744283.076    21744299.492       -1760.266  
     -1371.496          43.000          44.000  
 110946032.637 7  86451511.811 7  21112328.916    21112343.424       -1763.863  
     -1374.520          44.000          45.000  
 109084165.028 8  85000716.043 7  20758027.751    20758043.944         141.613  
       110.379          48.000          45.000  
 117266381.689 7  91376487.821 6  22315050.608    22315069.280        2897.098  
      2257.883          47.000          39.000  
 128040249.197 6  99771698.781 6  24365254.036    24365270.345       -3304.551  
     -2575.195          39.000          39.000  
 24  1 10  3 18  7.0000000  0  7G08G24G18G23G10G32G15
 130683523.016 6 101831398.866 6  24868259.288    24868281.377        2896.695  
      2256.672          36.000          37.000  
 129620724.193 5 101003253.826 6  24666003.513    24666025.353         335.523  
       261.152          32.000          39.000  
 114267150.771 7  89039402.783 7  21744317.293    21744332.971       -1760.320  
     -1371.777          44.000          43.000  
 110946208.998 7  86451649.246 7  21112362.726    21112377.229       -1763.688  
     -1374.316          44.000          45.000  
 109084150.872 8  85000705.013 7  20758025.135    20758041.024         141.664  
       110.402          48.000          45.000  
 117266091.971 7  91376262.120 6  22314995.226    22315014.107        2897.066  
      2257.074          47.000          39.000  
 128040579.586 6  99771956.287 6  24365316.633    24365333.067       -3304.113  
     -2575.078          38.000          39.000  
 24  1 10  3 18  7.1000000  0  7G08G24G18G23G10G32G15
 130683233.363 6 101831173.164 6  24868204.169    24868226.258        2896.586  
      2257.039          37.000          37.000  
 129620690.645 5 101003227.677 6  24665997.129    24666018.967         335.461  
       261.391          32.000          39.000  
 114267326.797 7  89039539.958 7  21744350.789    21744366.470       -1760.352  
     -1371.754          44.000          43.000  
 110946385.408 7  86451786.728 7  21112396.296    21112410.803       -1763.836  
     -1374.586          44.000          45.000  
 109084136.732 8  85000693.989 7  20758022.445    20758038.331         141.555  
       110.234          48.000          45.000  
 117265802.298 7  91376036.375 6  22314940.104    22314958.978        2896.973  
      2257.520          47.000          39.000  
 128040909.979 6  99772213.772 6  24365379.505    24365395.947       -3304.164  
     -2574.984          38.000          39.000  
 24  1 10  3 18  7.2000000  0  7G08G24G18G23G10G32G15
 130682943.757 6 101830947.438 6  24868149.027    24868171.024        2896.320  
      2257.180          37.000          37.000  
 129620657.160 5 101003201.562 6  24665990.968    24666012.285         335.180  
       261.418          32.000          39.000  
 114267502.865 7  89039677.162 7  21744384.716    21744399.751       -1760.285  
     -1371.684          44.000          43.000  
 110946561.805 7  86451924.143 7  21112429.996    21112444.252       -1764.098  
     -1374.391          44.000          45.000  
 109084122.586 8  85000682.972 7  20758019.815    20758035.531         141.461  
       110.227          48.000          45.000  
 117265512.620 7  91375810.639 6  22314884.995    22314903.960        2896.855  
      2257.062          47.000          39.000  
 128041240.498 6  99772471.312 6  24365441.799    24365458.458       -3304.688  
     -2575.184          38.000          39.000  
 24  1 10  3 18  7.3000000  0  7G08G24G18G23G10G32G15
 130682654.113 6 101830721.796 6  24868093.910    24868115.920        2896.547  
      2256.527          36.000          37.000  
 129620623.614 5 101003175.467 6  24665984.585    24666005.912         335.254  
       261.141          32.000          39.000  
 114267678.943 7  89039814.326 7  21744418.222    21744433.247       -1760.711  
     -1371.816          44.000          43.000  
 110946738.207 7  86452061.605 7  21112463.564    21112477.822       -1764.090  
     -1374.754          45.000          45.000  
 109084108.462 8  85000671.966 7  20758017.128    20758032.843         141.305  
       110.094          48.000          45.000  
 117265222.956 7  91375584.940 6  22314829.874    22314848.842        2896.711  
      2256.973          47.000          39.000  
 128041570.993 6  99772728.813 6  24365504.690    24365521.343       -3304.801  
     -2574.715          38.000          39.000  
 24  1 10  3 18  7.4000000  0  7G08G24G18G23G10G32G15
 130682364.487 6 101830496.073 6  24868039.225    24868060.679        2896.312  
      2257.027          36.000          37.000  
 129620590.101 5 101003149.327 6  24665978.004    24665998.849         335.141  
       261.391          32.000          39.000  
 114267854.973 7  89039951.526 7  21744451.556    21744466.409       -1760.480  
     -1372.047          44.000          43.000  
 110946914.632 7  86452199.099 7  21112497.473    21112511.391       -1764.145  
     -1374.719          44.000          45.000  
 109084094.342 8  85000660.953 7  20758014.269    20758030.350         141.262  
       109.980          48.000          45.000  
 117264933.298 7  91375359.226 6  22314775.059    22314793.783        2896.566  
      2256.980          47.000          39.000  
 128041901.508 6  99772986.347 6  24365567.280    24365584.555       -3305.023  
     -2575.578          38.000          40.000  
 24  1 10  3 18  7.5000000  0  7G08G24G18G23G10G32G15
 130682074.865 6 101830270.425 6  24867984.112    24868005.574        2896.289  
      2256.672          36.000          37.000  
 129620556.584 5 101003123.188 6  24665971.626    24665992.466         335.223  
       261.059          32.000          39.000  
 114268031.031 7  89040088.727 7  21744485.058    21744499.915       -1760.422  
     -1371.789          43.000          43.000  
 110947091.063 7  86452336.555 7  21112531.046    21112544.960       -1764.254  
     -1374.621          44.000          45.000  
 109084080.238 8  85000649.980 7  20758011.585    20758027.670         141.129  
       109.777          48.000          45.000  
 117264643.670 7  91375133.560 6  22314719.944    22314738.673        2896.449  
      2256.754          47.000          39.000  
 128042232.000 6  99773243.865 6  24365630.171    24365647.444       -3304.910  
     -2575.230          38.000          39.000  
 24  1 10  3 18  7.6000000  0  7G08G24G18G23G10G32G15
 130681785.242 6 101830044.736 6  24867929.757    24867950.849        2896.230  
      2256.660          36.000          37.000  
 129620523.053 5 101003097.104 6  24665965.191    24665986.142         335.219  
       260.953          32.000          39.000  
 114268207.100 7  89040225.891 7  21744517.884    21744533.045       -1760.812  
     -1371.910          43.000          43.000  
 110947267.473 7  86452474.032 7  21112564.530    21112578.330       -1764.156  
     -1374.809          45.000          45.000  
 109084066.111 8  85000638.961 7  20758008.819    20758025.041         141.094  
       109.988          48.000          45.000  
 117264354.011 7  91374907.881 6  22314664.465    22314683.708        2896.445  
      2256.773          47.000          39.000  
 128042562.449 6  99773501.361 6  24365692.741    24365710.351       -3304.754  
     -2574.809          39.000          39.000  
 24  1 10  3 18  7.7000000  0  7G08G24G18G23G10G32G15
 130681495.637 6 101829819.115 6  24867874.646    24867895.750        2896.184  
      2256.535          36.000          37.000  
 129620489.512 5 101003070.983 6  24665958.808    24665979.764         335.250  
       261.035          31.000          39.000  
 114268383.179 7  89040363.101 7  21744551.390    21744566.553       -1760.523  
     -1371.820          43.000          43.000  
 110947443.862 7  86452611.458 7  21112598.096    21112611.891       -1763.957  
     -1374.219          44.000          45.000  
 109084051.996 8  85000627.965 7  20758006.132    20758022.356         141.344  
       110.242          48.000          45.000  
 117264064.385 7  91374682.146 6  22314609.351    22314628.582        2896.434  
      2257.297          47.000          39.000  
 128042892.960 6  99773758.898 6  24365755.635    24365773.244       -3304.895  
     -2575.332          39.000          39.000  
 24  1 10  3 18  7.8000000  0  7G08G24G18G23G10G32G15
 130681206.039 6 101829593.432 6  24867819.077    24867840.471        2896.047  
      2256.738          36.000          37.000  
 129620455.968 5 101003044.837 6  24665952.386    24665973.699         335.215  
       261.531          31.000          39.000  
 114268559.195 7  89040500.256 7  21744585.369    21744600.532       -1760.418  
     -1371.652          44.000          44.000  
 110947620.248 7  86452748.875 7  21112631.661    21112645.684       -1763.914  
     -1374.242          44.000          45.000  
 109084037.872 8  85000616.959 7  20758003.171    20758019.496         141.238  
       110.086          48.000          45.000  
 117263774.741 7  91374456.449 6  22314553.975    22314573.136        2896.469  
      2256.824          47.000          39.000  
 128043223.420 6  99774016.404 6  24365818.215    24365835.676       -3304.723  
     -2575.020          40.000          39.000  
 24  1 10  3 18  7.9000000  0  7G08G24G18G23G10G32G15
 130680916.453 6 101829367.768 6  24867763.971    24867785.362        2895.926  
      2256.652          36.000          36.000  
 129620422.464 5 101003018.729 6  24665946.010    24665967.323         335.316  
       261.137          32.000          39.000  
 114268735.230 7  89040637.442 7  21744618.868    21744634.034       -1760.309  
     -1371.977          43.000          43.000  
 110947796.643 7  86452886.359 7  21112665.228    21112679.259       -1763.871  
     -1374.574          44.000          45.000  
 109084023.793 8  85000605.988 7  20758000.492    20758016.817         141.031  
       109.855          48.000          45.000  
 117263485.134 7  91374230.809 6  22314498.865    22314518.032        2896.184  
      2256.449          47.000          39.000  
 128043553.914 6  99774273.899 6  24365881.106    24365898.559       -3304.844  
     -2575.164          40.000          39.000  
 24  1 10  3 18  8.0000000  0  7G08G24G18G23G10G32G15
 130680626.942 6 101829142.168 6  24867709.019    24867729.893        2895.473  
      2256.039          36.000          36.000  
 129620388.945 5 101002992.612 6  24665939.538    24665960.617         335.051  
       261.328          33.000          39.000  
 114268911.299 7  89040774.644 7  21744652.193    21744667.267       -1760.672  
     -1372.000          43.000          43.000  
 110947973.092 7  86453023.855 7  21112698.430    21112713.133       -1764.230  
     -1374.856          44.000          45.000  
 109084009.719 8  85000595.029 7  20757997.931    20758014.031         140.758  
       109.340          48.000          45.000  
 117263195.576 7  91374005.187 6  22314443.897    22314463.191        2895.875  
      2256.672          47.000          39.000  
 128043884.381 6  99774531.420 6  24365944.038    24365961.534       -3304.766  
     -2574.930          39.000          39.000  
 24  1 10  3 18  8.1000000  0  7G08G24G18G23G10G32G15
 130680337.380 6 101828916.548 6  24867653.917    24867674.795        2895.590  
      2256.293          36.000          36.000  
 129620355.513 5 101002966.527 6  24665933.176    24665954.247         334.965  
       260.758          33.000          38.000  
 114269087.404 7  89040911.813 7  21744685.704    21744700.765       -1760.836  
     -1372.020          43.000          43.000  
 110948149.505 7  86453161.320 7  21112732.000    21112746.704       -1764.227  
     -1374.781          44.000          45.000  
 109083995.688 8  85000584.084 7  20757995.261    20758011.359         140.484  
       109.484          48.000          45.000  
 117262906.016 7  91373779.522 6  22314388.795    22314408.081        2895.652  
      2256.262          47.000          38.000  
 128044214.855 6  99774788.938 6  24366006.925    24366024.423       -3304.797  
     -2575.090          39.000          39.000  
 24  1 10  3 18  8.2000000  0  7G08G24G18G23G10G32G15
 130680047.826 6 101828690.896 6  24867598.786    24867619.555        2895.508  
      2256.438          36.000          36.000  
 129620321.986 5 101002940.391 6  24665927.031    24665948.168         335.133  
       261.262          33.000          38.000  
 114269263.507 7  89041049.092 7  21744719.356    21744734.251       -1760.918  
     -1372.469          43.000          43.000  
 110948325.943 7  86453298.794 7  21112765.263    21112780.456       -1764.324  
     -1374.934          45.000          45.000  
 109083981.653 8  85000573.153 7  20757992.700    20758008.619         140.516  
       109.402          48.000          45.000  
 117262616.461 7  91373553.921 6  22314333.632    22314353.183        2895.523  
      2256.051          47.000          38.000  
 128044545.346 6  99775046.429 6  24366069.816    24366086.992       -3304.938  
     -2575.086          38.000          39.000  
 24  1 10  3 18  8.3000000  0  7G08G24G18G23G10G32G15
 130679758.335 6 101828465.343 6  24867543.697    24867564.473        2895.195  
      2255.484          36.000          36.000  
 129620288.478 5 101002914.296 6  24665920.654    24665941.796         335.031  
       260.977          32.000          38.000  
 114269439.640 7  89041186.320 7  21744752.873    21744767.763       -1761.262  
     -1372.445          44.000          43.000  
 110948502.421 7  86453436.322 7  21112798.845    21112814.042       -1764.680  
     -1375.125          45.000          45.000  
 109083967.683 8  85000562.280 7  20757990.041    20758005.963         139.980  
       108.875          48.000          45.000  
 117262326.992 7  91373328.355 6  22314278.548    22314298.097        2895.062  
      2255.695          47.000          38.000  
 128044875.823 6  99775303.973 6  24366132.703    24366149.887       -3304.801  
     -2575.457          38.000          39.000  
 24  1 10  3 18  8.4000000  0  7G08G24G18G23G10G32G15
 130679468.827 6 101828239.721 6  24867488.559    24867509.295        2895.102  
      2256.348          36.000          36.000  
 129620255.021 5 101002888.213 6  24665914.303    24665934.856         334.215  
       260.883          32.000          38.000  
 114269615.814 7  89041323.614 7  21744786.445    21744801.417       -1761.867  
     -1372.953          43.000          43.000  
 110948678.956 7  86453573.873 7  21112833.173    21112847.071       -1765.418  
     -1375.613          44.000          45.000  
 109083953.755 8  85000551.420 7  20757987.555    20758003.671         139.203  
       108.398          48.000          45.000  
 117262037.540 7  91373102.812 6  22314223.741    22314242.916        2894.457  
      2255.371          47.000          39.000  
 128045206.343 6  99775561.500 6  24366195.162    24366212.583       -3305.039  
     -2575.137          38.000          39.000  
 24  1 10  3 18  8.5000000  0  7G08G24G18G23G10G32G15
 130679179.271 6 101828014.096 6  24867433.458    24867454.196        2895.383  
      2256.043          36.000          36.000  
 129620221.564 5 101002862.160 6  24665907.937    24665928.493         335.609  
       260.789          32.000          38.000  
 114269791.996 7  89041460.912 7  21744819.971    21744834.946       -1761.750  
     -1372.746          43.000          43.000  
 110948855.472 7  86453711.408 7  21112866.763    21112880.658       -1765.168  
     -1375.391          44.000          45.000  
 109083939.823 8  85000540.570 7  20757984.904    20758001.021         139.254  
       108.508          48.000          45.000  
 117261748.106 7  91372877.294 6  22314168.663    22314187.842        2894.438  
      2255.305          47.000          39.000  
 128045536.856 6  99775818.989 6  24366258.056    24366275.464       -3305.008  
     -2575.469          38.000          38.000  
 24  1 10  3 18  8.6000000  0  7G08G24G18G23G10G32G15
 130678889.766 6 101827788.517 6  24867378.469    24867399.076        2895.324  
      2255.816          36.000          36.000  
 129620187.986 5 101002836.078 6  24665901.313    24665922.116         334.965  
       260.844          32.000          38.000  
 114269968.192 7  89041598.188 7  21744853.625    21744868.424       -1761.824  
     -1373.008          43.000          43.000  
 110949031.997 7  86453848.990 7  21112900.300    21112914.312       -1765.133  
     -1375.625          45.000          45.000  
 109083925.904 8  85000529.705 7  20757982.114    20757998.618         139.324  
       108.598          48.000          45.000  
 117261458.673 7  91372651.742 6  22314113.758    22314132.510        2894.422  
      2255.410          47.000          39.000  
 128045867.363 6  99776076.589 6  24366320.637    24366338.216       -3305.133  
     -2575.461          38.000          38.000  
 24  1 10  3 18  8.7000000  0  7G08G24G18G23G10G32G15
 130678600.262 6 101827562.928 6  24867323.378    24867343.984        2895.133  
      2255.570          37.000          36.000  
 129620154.596 5 101002809.969 6  24665894.959    24665915.740         334.637  
       260.957          31.000          38.000  
 114270144.405 7  89041735.460 7  21744887.157    21744901.947       -1761.898  
     -1372.746          43.000          43.000  
 110949208.518 7  86453986.541 7  21112933.891    21112947.903       -1765.176  
     -1375.508          45.000          45.000  
 109083912.004 8  85000518.887 7  20757979.469    20757995.976         139.188  
       108.371          48.000          45.000  
 117261169.266 7  91372426.250 6  22314058.686    22314077.442        2894.258  
      2255.180          47.000          39.000  
 128046197.893 6  99776334.064 6  24366383.535    24366401.094       -3305.168  
     -2574.871          38.000          38.000  
 24  1 10  3 18  8.8000000  0  7G08G24G18G23G10G32G15
 130678310.735 6 101827337.354 6  24867267.861    24867288.991        2895.027  
      2255.930          36.000          36.000  
 129620121.038 5 101002783.898 6  24665888.393    24665909.701         334.867  
       260.805          31.000          39.000  
 114270320.568 7  89041872.760 7  21744920.626    21744935.610       -1761.836  
     -1372.965          43.000          43.000  
 110949385.046 7  86454124.076 7  21112967.952    21112981.694       -1765.230  
     -1375.711          45.000          45.000  
 109083898.082 8  85000508.031 7  20757976.984    20757993.340         139.141  
       108.445          48.000          45.000  
 117260879.844 7  91372200.707 6  22314003.595    22314022.565        2894.121  
      2255.047          47.000          39.000  
 128046528.394 6  99776591.612 6  24366446.865    24366463.646       -3305.129  
     -2575.316          39.000          38.000  
 24  1 10  3 18  8.9000000  0  7G08G24G18G23G10G32G15
 130678021.209 6 101827111.718 6  24867212.766    24867233.888        2895.371  
      2256.191          36.000          36.000  
 129620087.729 5 101002757.838 6  24665882.055    24665903.337         334.332  
       260.738          31.000          39.000  
 114270496.740 7  89042010.067 7  21744954.150    21744969.142       -1761.633  
     -1372.879          43.000          43.000  
 110949561.536 7  86454261.645 7  21113001.537    21113015.289       -1765.070  
     -1375.371          45.000          45.000  
 109083884.153 8  85000497.171 7  20757974.334    20757990.688         139.250  
       108.496          48.000          45.000  
 117260590.430 7  91371975.213 6  22313948.521    22313967.498        2894.238  
      2255.309          47.000          39.000  
 128046858.844 6  99776849.171 6  24366509.747    24366526.545       -3304.793  
     -2575.441          39.000          38.000  
 24  1 10  3 18  9.0000000  0  7G08G24G18G23G10G32G15
 130677731.687 6 101826886.114 6  24867157.305    24867178.840        2895.113  
      2256.082          36.000          36.000  
 129620054.193 5 101002731.771 6  24665875.587    24665897.370         334.484  
       260.562          30.000          39.000  
 114270672.958 7  89042147.363 7  21744987.628    21745001.991       -1761.859  
     -1372.750          43.000          43.000  
 110949738.059 7  86454399.155 7  21113034.792    21113048.879       -1765.082  
     -1375.301          44.000          45.000  
 109083870.224 8  85000486.339 7  20757971.605    20757987.715         139.348  
       108.500          48.000          45.000  
 117260301.013 7  91371749.671 6  22313893.299    22313912.519        2894.219  
      2255.352          47.000          39.000  
 128047189.350 6  99777106.686 6  24366573.406    24366589.714       -3304.895  
     -2575.555          40.000          38.000  
 24  1 10  3 18  9.1000000  0  7G08G24G18G23G10G32G15
 130677442.214 6 101826660.500 6  24867102.220    24867123.743        2895.070  
      2256.141          36.000          36.000  
 129620020.759 4 101002705.730 6  24665869.225    24665891.010         334.465  
       260.453          29.000          39.000  
 114270849.116 7  89042284.602 7  21745021.150    21745035.506       -1761.875  
     -1372.715          43.000          43.000  
 110949914.554 7  86454536.703 7  21113068.378    21113082.469       -1765.109  
     -1375.328          44.000          45.000  
 109083856.280 8  85000475.473 7  20757968.951    20757985.061         139.367  
       108.723          48.000          45.000  
 117260011.580 7  91371524.159 6  22313838.221    22313857.447        2894.230  
      2255.086          47.000          39.000  
 128047519.854 6  99777364.238 6  24366636.299    24366652.611       -3304.754  
     -2575.055          40.000          38.000  
 24  1 10  3 18  9.2000000  0  7G08G24G18G23G10G32G15
 130677152.683 6 101826434.963 6  24867046.843    24867068.930        2895.145  
      2255.770          36.000          36.000  
 129619987.396 4 101002679.693 6  24665862.774    24665885.175         334.121  
       260.297          28.000          39.000  
 114271025.321 7  89042421.917 7  21745054.486    21745069.321       -1761.926  
     -1373.074          43.000          42.000  
 110950091.103 7  86454674.239 7  21113100.919    21113116.393       -1765.199  
     -1375.246          43.000          45.000  
 109083842.339 8  85000464.571 7  20757966.049    20757982.258         139.363  
       108.676          48.000          45.000  
 117259722.162 7  91371298.616 6  22313783.498    22313801.914        2894.191  
      2255.234          47.000          39.000  
 128047850.330 6  99777621.759 6  24366699.819    24366715.781       -3304.871  
     -2575.609          40.000          38.000  
 24  1 10  3 18  9.3000000  0  7G08G24G18G23G10G32G15
 130676863.169 6 101826209.386 6  24866991.750    24867013.842        2895.012  
      2255.742          36.000          36.000  
 129619953.963 4 101002653.665 6  24665856.412    24665878.819         334.145  
       260.445          26.000          39.000  
 114271201.521 7  89042559.216 7  21745088.015    21745102.851       -1762.016  
     -1373.106          43.000          42.000  
 110950267.591 7  86454811.779 7  21113134.504    21113149.982       -1765.047  
     -1375.516          43.000          45.000  
 109083828.394 8  85000453.741 7  20757963.395    20757979.613         139.418  
       108.457          48.000          45.000  
 117259432.742 7  91371073.108 6  22313728.424    22313746.843        2894.234  
      2255.066          47.000          39.000  
 128048180.853 6  99777879.356 6  24366762.716    24366778.689       -3305.121  
     -2575.270          39.000          37.000  
 24  1 10  3 18  9.4000000  0  7G08G24G18G23G10G32G15
 130676573.669 6 101825983.770 6  24866937.019    24866958.986        2895.262  
      2255.969          36.000          36.000  
 129619920.573 4 101002627.612 6  24665849.926    24665872.558         334.043  
       260.242          27.000          39.000  
 114271377.716 7  89042696.521 7  21745121.700    21745136.742       -1761.895  
     -1372.879          43.000          42.000  
 110950444.058 7  86454949.308 7  21113167.522    21113183.083       -1764.852  
     -1375.242          44.000          45.000  
 109083814.423 8  85000442.831 7  20757960.978    20757977.308         139.625  
       109.027          48.000          45.000  
 117259143.314 7  91370847.582 6  22313673.254    22313691.892        2894.328  
      2255.535          47.000          39.000  
 128048511.337 6  99778136.803 6  24366825.495    24366841.529       -3304.996  
     -2574.754          39.000          37.000  
 24  1 10  3 18  9.5000000  0  7G08G24G18G23G10G32G15
 130676284.147 6 101825758.164 6  24866881.925    24866903.891        2895.047  
      2256.230          36.000          36.000  
 129619887.063 4 101002601.572 6  24665843.549    24665866.199         334.637  
       260.473          27.000          39.000  
 114271553.868 7  89042833.755 7  21745155.221    21745170.256       -1761.703  
     -1372.613          44.000          43.000  
 110950620.522 7  86455086.817 7  21113201.102    21113216.664       -1764.715  
     -1374.938          44.000          45.000  
 109083800.475 8  85000431.977 7  20757958.324    20757974.658         139.629  
       108.879          48.000          45.000  
 117258853.902 7  91370622.057 6  22313618.180    22313636.816        2894.191  
      2254.930          47.000          39.000  
 128048841.802 6  99778394.344 6  24366888.381    24366904.423       -3304.922  
     -2575.695          39.000          37.000  
 24  1 10  3 18  9.6000000  0  7G08G24G18G23G10G32G15
 130675994.697 6 101825532.602 6  24866827.095    24866849.150        2895.008  
      2255.734          37.000          36.000  
 129619853.87034 101002575.492 6  24665837.779    24665859.650         333.926  
       260.613          25.000          39.000  
 114271730.064 7  89042971.065 7  21745188.836    21745203.827       -1761.836  
     -1372.918          43.000          43.000  
 110950797.028 7  86455224.330 7  21113235.127    21113249.817       -1765.000  
     -1375.453          44.000          45.000  
 109083786.520 8  85000421.108 7  20757955.762    20757971.910         139.531  
       108.648          48.000          45.000  
 117258564.507 7  91370396.563 6  22313563.212    22313582.123        2894.020  
      2255.258          47.000          39.000  
 128049172.356 6  99778651.939 6  24366951.049    24366966.596       -3305.059  
     -2575.461          39.000          37.000  
 24  1 10  3 18  9.7000000  0  7G08G24G18G23G10G32G15
 130675705.182 6 101825307.016 6  24866772.002    24866794.060        2894.750  
      2255.953          37.000          36.000  
 129619820.32634 101002549.487 6  24665831.420    24665853.300         334.258  
       260.316          25.000          38.000  
 114271906.297 7  89043108.380 7  21745222.372    21745237.361       -1762.035  
     -1373.023          43.000          43.000  
 110950973.534 7  86455361.872 7  21113268.715    21113283.406       -1764.945  
     -1375.383          44.000          45.000  
 109083772.598 7  85000410.261 7  20757953.113    20757969.261         139.305  
       108.406          47.000          45.000  
 117258275.139 7  91370171.074 6  22313508.147    22313527.057        2893.766  
      2254.383          47.000          39.000  
 128049502.767 6  99778909.424 6  24367013.924    24367029.477       -3304.672  
     -2574.859          38.000          38.000  
 24  1 10  3 18  9.8000000  0  6G08G10G18G23G32G15
 130675415.692 6 101825081.468 6  24866716.961    24866739.291        2894.992  
      2255.527          36.000          36.000  
 109083758.731 8  85000399.448 7  20757950.427    20757966.901         138.949  
       108.031          48.000          45.000  
 114272082.547 7  89043245.712 7  21745256.013    21745270.906       -1762.277  
     -1373.469          43.000          43.000  
 110951150.080 7  86455499.444 7  21113302.944    21113317.526       -1765.168  
     -1375.531          45.000          45.000  
 117257985.842 7  91369945.650 6  22313452.830    22313472.420        2893.293  
      2254.621          47.000          39.000  
 128049833.285 6  99779166.953 6  24367076.616    24367092.759       -3304.875  
     -2575.184          38.000          38.000  
 24  1 10  3 18  9.9000000  0  6G08G10G18G23G32G15
 130675126.242 6 101824855.895 6  24866661.880    24866684.204        2894.574  
      2255.852          37.000          36.000  
 109083744.898 8  85000388.670 7  20757947.795    20757964.269         138.578  
       107.930          48.000          45.000  
 114272258.790 7  89043383.075 7  21745289.551    21745304.452       -1762.293  
     -1373.512          43.000          43.000  
 110951326.624 7  86455637.033 7  21113336.539    21113351.126       -1765.367  
     -1375.922          45.000          45.000  
 117257696.551 7  91369720.220 6  22313397.780    22313417.368        2892.984  
      2253.926          47.000          39.000  
 128050163.827 6  99779424.500 6  24367139.516    24367155.654       -3305.168  
     -2575.363          38.000          38.000  
 24  1 10  3 18 10.0000000  0  6G08G10G18G23G32G15
 130674836.764 6 101824630.359 6  24866606.927    24866629.126        2894.672  
      2255.609          37.000          36.000  
 109083731.074 8  85000377.890 7  20757945.188    20757961.558         138.375  
       107.656          48.000          45.000  
 114272435.070 7  89043520.404 7  21745323.518    21745338.333       -1762.824  
     -1373.527          43.000          43.000  
 110951503.191 7  86455774.626 7  21113370.381    21113384.564       -1765.480  
     -1375.848          44.000          45.000  
 117257407.307 7  91369494.849 6  22313342.746    22313362.634        2892.648  
      2253.730          47.000          39.000  
 128050494.325 6  99779682.055 6  24367202.252    24367218.575       -3305.246  
     -2575.672          38.000          38.000  
 24  1 10  3 18 10.1000000  0  6G08G10G18G23G32G15
 130674547.357 6 101824404.824 6  24866551.855    24866574.048        2894.418  
      2255.152          37.000          36.000  
 109083717.280 8  85000367.142 7  20757942.563    20757958.934         138.160  
       107.590          48.000          45.000  
 114272611.341 7  89043657.775 7  21745357.061    21745371.880       -1762.621  
     -1373.746          43.000          43.000  
 110951679.771 7  86455912.148 7  21113403.983    21113418.148       -1765.922  
     -1375.680          44.000          45.000  
 117257118.087 7  91369269.483 6  22313287.709    22313307.598        2892.461  
      2253.988          47.000          38.000  
 128050824.822 6  99779939.600 6  24367265.143    24367281.470       -3304.984  
     -2575.387          38.000          39.000  
 24  1 10  3 18 10.2000000  0  6G08G10G18G23G32G15
 130674257.926 6 101824179.322 6  24866496.582    24866518.783        2894.367  
      2255.000          37.000          36.000  
 109083703.480 8  85000356.395 7  20757939.937    20757956.028         138.004  
       107.371          48.000          45.000  
 114272787.633 7  89043795.172 7  21745390.374    21745404.926       -1762.648  
     -1373.695          44.000          43.000  
 110951856.327 7  86456049.758 7  21113436.760    21113451.933       -1765.664  
     -1376.043          44.000          45.000  
 117256828.863 7  91369044.113 6  22313232.758    22313252.013        2892.344  
      2253.500          47.000          39.000  
 128051155.284 6  99780197.146 6  24367327.583    24367344.701       -3304.766  
     -2575.453          37.000          39.000  
 24  1 10  3 18 10.3000000  0  6G08G10G18G23G32G15
 130673968.524 6 101823953.771 6  24866441.511    24866463.701        2894.230  
      2255.438          36.000          36.000  
 109083689.715 8  85000345.682 7  20757937.318    20757953.412         137.859  
       107.191          48.000          45.000  
 114272963.914 7  89043932.512 7  21745423.919    21745438.466       -1762.895  
     -1373.500          44.000          43.000  
 110952032.930 7  86456187.379 7  21113470.366    21113485.542       -1765.742  
     -1375.856          43.000          45.000  
 117256539.645 7  91368818.746 6  22313177.722    22313196.976        2892.246  
      2253.516          47.000          39.000  
 128051485.802 6  99780454.643 6  24367390.478    24367407.585       -3305.082  
     -2575.129          36.000          39.000  
 24  1 10  3 18 10.4000000  0  6G08G10G18G23G32G15
 130673679.093 6 101823728.256 6  24866386.481    24866408.409        2894.277  
      2255.312          36.000          36.000  
 109083675.908 8  85000334.910 7  20757934.667    20757951.070         138.027  
       107.652          48.000          45.000  
 114273140.143 7  89044069.832 7  21745457.462    21745472.376       -1762.539  
     -1373.227          44.000          43.000  
 110952209.498 7  86456324.909 7  21113503.911    21113519.261       -1765.840  
     -1375.750          43.000          45.000  
 117256250.408 7  91368593.381 6  22313122.603    22313142.252        2892.328  
      2254.004          47.000          39.000  
 128051816.360 6  99780712.136 6  24367452.623    24367470.944       -3305.113  
     -2574.738          36.000          39.000  
 24  1 10  3 18 10.5000000  0  6G08G10G18G23G32G15
 130673389.653 6 101823502.773 6  24866331.403    24866353.344        2894.242  
      2254.824          37.000          36.000  
 109083662.148 8  85000324.196 7  20757932.048    20757948.454         137.918  
       107.457          48.000          45.000  
 114273316.384 7  89044207.113 7  21745490.999    21745505.901       -1762.598  
     -1373.148          44.000          43.000  
 110952386.058 7  86456462.540 7  21113537.510    21113552.872       -1765.406  
     -1375.941          44.000          45.000  
 117255961.213 7  91368368.013 6  22313067.571    22313087.215        2892.250  
      2253.535          47.000          39.000  
 128052146.798 6  99780969.649 6  24367515.504    24367533.831       -3304.945  
     -2575.266          36.000          39.000  
 24  1 10  3 18 10.6000000  0  6G08G10G18G23G32G15
 130673100.346 6 101823277.306 6  24866276.130    24866297.259        2893.141  
      2254.379          37.000          36.000  
 109083648.453 8  85000313.524 7  20757928.935    20757945.363         136.824  
       106.566          48.000          45.000  
 114273492.740 7  89044344.588 7  21745524.364    21745539.951       -1763.230  
     -1374.434          43.000          43.000  
 110952562.716 7  86456600.195 7  21113571.291    21113586.223       -1766.430  
     -1376.516          44.000          45.000  
 117255672.049 7  91368142.702 6  22313012.499    22313032.356        2891.512  
      2253.266          47.000          39.000  
 128052477.384 6  99781227.220 6  24367577.607    24367596.670       -3305.625  
     -2575.383          37.000          39.000  
 24  1 10  3 18 10.7000000  0  6G08G10G18G23G32G15
 130672811.002 6 101823051.842 6  24866221.070    24866242.198        2893.305  
      2254.906          37.000          36.000  
 109083634.743 8  85000302.817 7  20757926.326    20757942.748         136.926  
       106.824          48.000          45.000  
 114273669.027 7  89044481.965 7  21745557.910    21745573.500       -1763.066  
     -1373.934          43.000          43.000  
 110952739.327 7  86456737.801 7  21113604.898    21113619.828       -1766.527  
     -1376.332          44.000          45.000  
 117255382.859 7  91367917.379 6  22312957.467    22312977.330        2891.730  
      2253.223          47.000          39.000  
 128052807.925 6  99781484.782 6  24367640.507    24367659.569       -3305.395  
     -2575.766          38.000          39.000  
 24  1 10  3 18 10.8000000  0  6G08G10G18G23G32G15
 130672521.664 6 101822826.392 6  24866166.159    24866186.907        2893.391  
      2254.590          37.000          36.000  
 109083621.068 8  85000292.193 7  20757924.051    20757940.216         136.922  
       106.551          48.000          45.000  
 114273845.379 7  89044619.369 7  21745591.281    21745606.704       -1763.219  
     -1373.992          44.000          43.000  
 110952915.982 7  86456875.450 7  21113638.734    21113653.396       -1766.457  
     -1376.719          44.000          45.000  
 117255093.694 7  91367691.998 6  22312902.480    22312922.102        2891.664  
      2253.227          47.000          39.000  
 128053138.435 6  99781742.374 6  24367703.581    24367722.929       -3305.355  
     -2575.723          38.000          39.000  
 24  1 10  3 18 10.9000000  0  6G08G10G18G23G32G15
 130672232.381 6 101822600.919 6  24866111.111    24866131.844        2893.293  
      2254.602          37.000          36.000  
 109083607.354 8  85000281.486 7  20757921.442    20757937.602         137.094  
       106.852          48.000          45.000  
 114274021.709 7  89044756.771 7  21745624.836    21745640.258       -1763.281  
     -1373.871          44.000          43.000  
 110953092.604 7  86457013.111 7  21113672.344    21113687.015       -1766.301  
     -1376.504          44.000          45.000  
 117254804.500 7  91367466.714 6  22312847.448    22312867.085        2891.906  
      2253.516          47.000          39.000  
 128053468.981 6  99781999.896 6  24367766.482    24367785.819       -3305.258  
     -2575.504          39.000          39.000  
 24  1 10  3 18 11.0000000  0  6G08G10G18G23G32G15
 130671943.066 6 101822375.523 6  24866056.228    24866076.839        2893.262  
      2254.246          36.000          36.000  
 109083593.630 8  85000270.814 7  20757918.807    20757935.112         137.215  
       106.879          48.000          45.000  
 114274197.972 7  89044894.082 7  21745658.557    21745673.541       -1762.922  
     -1373.680          44.000          42.000  
 110953269.239 7  86457150.744 7  21113706.120    21113720.728       -1766.223  
     -1376.051          44.000          45.000  
 117254515.300 7  91367241.361 6  22312792.486    22312811.778        2892.109  
      2253.703          47.000          39.000  
 128053799.566 6  99782257.532 6  24367829.921    24367848.830       -3305.609  
     -2576.156          39.000          38.000  
 24  1 10  3 18 11.1000000  0  6G08G10G18G23G32G15
 130671653.760 6 101822150.095 6  24866001.175    24866021.787        2892.996  
      2253.910          37.000          36.000  
 109083579.950 8  85000260.140 7  20757916.203    20757932.506         137.043  
       106.812          48.000          45.000  
 114274374.323 7  89045031.552 7  21745692.115    21745707.113       -1763.219  
     -1374.109          44.000          42.000  
 110953445.907 7  86457288.378 7  21113739.739    21113754.339       -1766.504  
     -1376.527          44.000          45.000  
 117254226.101 7  91367015.988 6  22312737.453    22312756.740        2891.949  
      2253.574          47.000          39.000  
 128054130.137 6  99782515.088 6  24367892.827    24367911.728       -3305.750  
     -2575.656          38.000          38.000  
 24  1 10  3 18 11.2000000  0  6G08G10G18G23G32G15
 130671364.506 6 101821924.700 6  24865946.178    24865967.103        2892.906  
      2254.148          37.000          36.000  
 109083566.284 8  85000249.491 7  20757913.697    20757929.991         136.719  
       106.301          48.000          45.000  
 114274550.683 7  89045168.955 7  21745726.090    21745740.176       -1763.555  
     -1374.363          44.000          42.000  
 110953622.621 7  86457426.081 7  21113773.726    21113787.835       -1766.801  
     -1376.836          44.000          45.000  
 117253936.906 7  91366790.655 6  22312682.765    22312701.118        2891.910  
      2253.133          47.000          40.000  
 128054460.745 6  99782772.738 6  24367955.591    24367974.578       -3306.012  
     -2576.617          38.000          38.000  
 24  1 10  3 18 11.3000000  0  6G08G10G18G23G32G15
 130671075.195 6 101821699.266 6  24865891.124    24865912.050        2892.977  
      2254.250          37.000          36.000  
 109083552.615 8  85000238.846 7  20757911.096    20757927.392         136.750  
       106.547          48.000          45.000  
 114274727.121 7  89045306.419 7  21745759.665    21745773.746       -1763.801  
     -1374.379          43.000          42.000  
 110953799.336 7  86457563.782 7  21113807.354    21113821.463       -1766.988  
     -1376.918          44.000          45.000  
 117253647.719 7  91366565.320 6  22312627.734    22312646.089        2891.871  
      2253.508          47.000          40.000  
 128054791.439 6  99783030.413 6  24368018.520    24368037.505       -3306.359  
     -2576.562          38.000          38.000  
 24  1 10  3 18 11.4000000  0  6G08G10G18G23G32G15
 130670785.916 6 101821473.843 6  24865836.412    24865857.147        2892.852  
      2254.230          37.000          36.000  
 109083538.947 8  85000228.199 7  20757908.542    20757924.674         136.652  
       106.312          48.000          45.000  
 114274903.499 7  89045443.852 7  21745792.635    21745807.184       -1763.887  
     -1374.453          43.000          43.000  
 110953976.011 7  86457701.454 7  21113841.193    21113855.584       -1766.922  
     -1377.043          44.000          45.000  
 117253358.528 7  91366339.957 6  22312572.727    22312591.256        2891.871  
      2253.656          47.000          40.000  
 128055122.087 6  99783288.044 6  24368081.682    24368101.148       -3306.527  
     -2576.430          39.000          38.000  
 24  1 10  3 18 11.5000000  0  6G08G10G18G23G32G15
 130670496.689 6 101821248.435 6  24865781.374    24865802.100        2892.488  
      2254.102          37.000          36.000  
 109083525.326 8  85000217.568 7  20757905.949    20757922.078         136.465  
       106.344          48.000          45.000  
 114275079.908 7  89045581.352 7  21745826.204    21745840.762       -1763.898  
     -1374.801          43.000          43.000  
 110954152.779 7  86457839.216 7  21113874.830    21113889.226       -1767.312  
     -1377.520          44.000          45.000  
 117253069.378 7  91366114.663 6  22312517.703    22312536.237        2891.789  
      2252.949          47.000          39.000  
 128055452.721 6  99783545.687 6  24368144.600    24368164.066       -3306.332  
     -2576.508          39.000          38.000  
 24  1 10  3 18 11.6000000  0  7G08G24G18G23G10G32G15
 130670207.420 6 101821023.071 6  24865726.492    24865746.783        2892.609  
      2253.551          37.000          36.000  
 129619187.67834 101002055.728 6  24665710.421    24665731.820         332.004  
       258.742          29.000          38.000  
 114275256.362 7  89045718.822 7  21745859.618    21745874.787       -1764.473  
     -1374.953          44.000          43.000  
 110954329.578 7  86457976.928 7  21113908.435    21113922.591       -1767.750  
     -1377.215          44.000          45.000  
 109083511.731 8  85000206.974 7  20757903.394    20757919.475         136.133  
       105.930          48.000          45.000  
 117252780.261 7  91365889.376 6  22312462.397    22312481.493        2891.516  
      2252.973          47.000          39.000  
 128055783.455 6  99783803.409 6  24368208.224    24368226.505       -3306.727  
     -2576.996          40.000          38.000  
 24  1 10  3 18 11.7000000  0  7G08G24G18G23G10G32G15
 130669918.237 6 101820797.748 6  24865671.463    24865691.757        2892.277  
      2253.473          37.000          36.000  
 129619154.53225 101002029.923 6  24665704.114    24665725.518         331.547  
       257.953          31.000          38.000  
 114275432.859 7  89045856.351 7  21745893.204    21745908.373       -1764.719  
     -1375.344          44.000          43.000  
 110954506.346 7  86458114.688 7  21113942.073    21113956.234       -1767.695  
     -1377.809          44.000          45.000  
 109083498.133 8  85000196.402 7  20757900.806    20757916.894         136.031  
       105.746          48.000          45.000  
 117252491.125 7  91365664.074 6  22312407.376    22312426.472        2891.258  
      2252.734          47.000          39.000  
 128056114.156 6  99784061.119 6  24368271.154    24368289.440       -3307.113  
     -2577.422          40.000          38.000  
 24  1 10  3 18 11.8000000  0  7G08G24G18G23G10G32G15
 130669628.985 6 101820572.320 6  24865616.006    24865636.635        2892.387  
      2253.941          37.000          36.000  
 129619121.35825 101002004.054 6  24665698.238    24665719.099         332.008  
       258.715          31.000          37.000  
 114275609.290 7  89045993.848 7  21745927.309    21745942.194       -1764.488  
     -1375.106          43.000          43.000  
 110954683.165 7  86458252.487 7  21113975.564    21113990.183       -1767.801  
     -1377.504          44.000          45.000  
 109083484.521 8  85000185.779 7  20757898.474    20757914.346         136.141  
       106.238          48.000          45.000  
 117252201.972 7  91365438.744 6  22312352.501    22312371.225        2891.531  
      2253.129          47.000          40.000  
 128056444.859 6  99784318.820 6  24368334.585    24368352.374       -3306.855  
     -2576.980          40.000          38.000  
 24  1 10  3 18 11.9000000  0  7G08G24G18G23G10G32G15
 130669339.728 6 101820346.947 6  24865560.962    24865581.596        2892.453  
      2253.863          37.000          36.000  
 129619088.06535 101001978.213 6  24665691.926    24665712.788         331.988  
       258.418          31.000          37.000  
 114275785.772 7  89046131.385 7  21745960.893    21745975.781       -1764.605  
     -1375.117          44.000          43.000  
 110954859.942 7  86458390.228 7  21114009.204    21114023.821       -1767.918  
     -1377.543          44.000          45.000  
 109083470.908 8  85000175.168 7  20757895.883    20757911.755         136.152  
       106.055          48.000          45.000  
 117251912.805 7  91365213.434 6  22312297.474    22312316.202        2891.531  
      2253.344          47.000          40.000  
 128056775.573 6  99784576.561 6  24368397.518    24368415.316       -3307.129  
     -2577.293          39.000          37.000  
 24  1 10  3 18 12.0000000  0  7G08G24G18G23G10G32G15
 130669050.479 6 101820121.556 6  24865505.654    24865526.358        2892.402  
      2253.559          37.000          36.000  
 129619055.01425 101001952.347 6  24665685.660    24665707.011         331.672  
       258.602          32.000          37.000  
 114275962.232 7  89046268.871 7  21745994.308    21746009.318       -1764.602  
     -1374.957          43.000          43.000  
 110955036.710 7  86458527.957 7  21114042.982    21114057.229       -1767.707  
     -1377.289          44.000          45.000  
 109083457.260 8  85000164.544 7  20757893.325    20757909.379         136.391  
       106.246          48.000          45.000  
 117251623.623 7  91364988.084 6  22312242.562    22312261.130        2891.707  
      2253.332          47.000          39.000  
 128057106.338 6  99784834.265 6  24368460.374    24368477.743       -3307.277  
     -2576.914          38.000          37.000  
 24  1 10  3 18 12.1000000  0  7G08G24G18G23G10G32G15
 130668761.230 6 101819896.180 6  24865450.612    24865471.319        2892.625  
      2254.160          36.000          36.000  
 129619021.77525 101001926.542 6  24665679.335    24665700.709         331.719  
       258.145          31.000          37.000  
 114276138.689 7  89046406.370 7  21746027.886    21746042.897       -1764.531  
     -1374.824          43.000          43.000  
 110955213.483 7  86458665.716 7  21114076.621    21114090.871       -1767.668  
     -1377.488          44.000          45.000  
 109083443.610 8  85000153.904 7  20757890.728    20757906.781         136.469  
       106.477          48.000          45.000  
 117251334.428 7  91364762.734 6  22312187.530    22312206.097        2891.820  
      2253.605          47.000          40.000  
 128057437.065 6  99785091.956 6  24368523.310    24368540.673       -3307.340  
     -2576.992          38.000          37.000  
 24  1 10  3 18 12.2000000  0  7G08G24G18G23G10G32G15
 130668472.033 6 101819670.803 6  24865395.572    24865416.217        2892.180  
      2253.586          36.000          36.000  
 129618988.67125 101001900.695 6  24665673.356    24665694.108         331.512  
       258.484          31.000          38.000  
 114276315.113 7  89046543.835 7  21746061.545    21746076.225       -1764.535  
     -1374.996          43.000          43.000  
 110955390.164 7  86458803.381 7  21114109.891    21114124.537       -1767.246  
     -1377.051          44.000          45.000  
 109083429.917 8  85000143.220 7  20757887.622    20757903.961         136.672  
       106.645          48.000          45.000  
 117251045.217 7  91364537.403 6  22312132.026    22312150.921        2892.016  
      2253.445          47.000          40.000  
 128057767.829 6  99785349.718 6  24368585.799    24368603.325       -3307.578  
     -2577.445          38.000          38.000  
 24  1 10  3 18 12.3000000  0  7G08G24G18G23G10G32G15
 130668182.747 6 101819445.394 6  24865340.522    24865361.170        2892.547  
      2254.207          36.000          36.000  
 129618955.61125 101001874.834 6  24665667.065    24665687.792         331.012  
       258.719          31.000          38.000  
 114276491.516 7  89046681.287 7  21746095.113    21746109.792       -1764.051  
     -1374.270          43.000          43.000  
 110955566.858 7  86458941.114 7  21114143.514    21114158.173       -1766.891  
     -1376.785          44.000          45.000  
 109083416.148 8  85000132.508 7  20757885.002    20757901.345         137.336  
       107.316          48.000          45.000  
 117250755.928 7  91364311.990 6  22312076.976    22312095.873        2892.531  
      2253.973          47.000          39.000  
 128058098.518 6  99785607.393 6  24368648.727    24368666.251       -3307.094  
     -2576.691          38.000          38.000  
 24  1 10  3 18 12.4000000  0  7G08G24G18G23G10G32G15
 130667893.527 5 101819220.013 6  24865285.564    24865306.122        2892.508  
      2253.863          35.000          36.000  
 129618922.44025 101001849.045 6  24665660.558    24665681.518         331.289  
       257.930          31.000          38.000  
 114276667.920 7  89046818.745 7  21746128.377    21746143.868       -1764.016  
     -1374.648          43.000          43.000  
 110955743.559 7  86459078.747 7  21114176.976    21114191.597       -1767.070  
     -1376.613          44.000          45.000  
 109083402.408 8  85000121.793 7  20757882.637    20757898.361         137.352  
       107.176          48.000          45.000  
 117250466.683 7  91364086.583 6  22312021.778    22312040.912        2892.609  
      2254.109          47.000          39.000  
 128058429.324 6  99785865.190 6  24368711.857    24368729.365       -3307.703  
     -2577.609          39.000          38.000  
 24  1 10  3 18 12.5000000  0  7G08G24G18G23G10G32G15
 130667604.295 6 101818994.667 6  24865230.525    24865251.090        2892.195  
      2253.480          36.000          36.000  
 129618889.21025 101001823.233 6  24665654.234    24665675.214         332.148  
       258.211          30.000          38.000  
 114276844.305 7  89046956.187 7  21746161.942    21746177.433       -1763.883  
     -1374.270          43.000          43.000  
 110955920.254 7  86459216.426 7  21114210.600    21114225.219       -1767.066  
     -1376.856          44.000          45.000  
 109083388.657 8  85000111.090 7  20757880.020    20757895.747         137.445  
       107.047          48.000          45.000  
 117250177.395 7  91363861.154 6  22311966.729    22311985.860        2892.676  
      2253.840          47.000          39.000  
 128058760.090 6  99786122.815 6  24368774.799    24368792.279       -3307.648  
     -2576.801          40.000          38.000  
 24  1 10  3 18 12.6000000  0  7G08G24G18G23G10G32G15
 130667315.113 6 101818769.294 6  24865175.479    24865196.450        2892.176  
      2253.730          36.000          37.000  
 129618856.06324 101001797.417 6  24665647.958    24665669.324         331.379  
       258.246          29.000          38.000  
 114277020.697 7  89047093.622 7  21746195.821    21746210.590       -1764.047  
     -1374.469          43.000          43.000  
 110956096.911 7  86459354.103 7  21114244.419    21114258.490       -1766.633  
     -1376.789          44.000          45.000  
 109083374.920 8  85000100.377 7  20757877.453    20757893.303         137.445  
       107.285          48.000          45.000  
 117249888.129 7  91363635.773 6  22311911.738    22311930.851        2892.754  
      2254.371          47.000          39.000  
 128059090.869 6  99786380.612 6  24368838.416    24368855.439       -3307.785  
     -2577.570          40.000          38.000  
 24  1 10  3 18 12.7000000  0  7G08G24G18G23G10G32G15
 130667025.880 6 101818543.950 6  24865120.440    24865141.419        2892.180  
      2253.488          36.000          37.000  
 129618823.01425 101001771.607 6  24665641.669    24665663.021         331.301  
       258.035          30.000          38.000  
 114277197.052 7  89047231.037 7  21746229.380    21746244.148       -1763.730  
     -1374.324          43.000          43.000  
 110956273.605 7  86459491.799 7  21114278.043    21114292.117       -1766.824  
     -1376.781          44.000          45.000  
 109083361.158 8  85000089.645 7  20757874.834    20757890.682         137.457  
       107.105          48.000          45.000  
 117249598.840 7  91363410.338 6  22311856.688    22311875.797        2892.656  
      2253.902          47.000          39.000  
 128059421.659 6  99786638.338 6  24368901.364    24368918.378       -3307.828  
     -2577.266          40.000          38.000  
 24  1 10  3 18 12.8000000  0  7G08G24G18G23G10G32G15
 130666736.717 6 101818318.604 6  24865065.492    24865086.590        2891.953  
      2253.219          36.000          37.000  
 129618789.79125 101001745.775 6  24665635.214    24665656.736         331.566  
       258.316          30.000          38.000  
 114277373.450 7  89047368.524 7  21746263.033    21746277.692       -1763.766  
     -1374.445          44.000          43.000  
 110956450.311 7  86459629.451 7  21114311.544    21114325.959       -1767.102  
     -1376.812          44.000          45.000  
 109083347.435 8  85000078.973 7  20757871.950    20757888.138         137.340  
       106.949          48.000          45.000  
 117249309.597 7  91363184.957 6  22311801.694    22311820.741        2892.672  
      2253.766          47.000          39.000  
 128059752.432 6  99786896.062 6  24368964.237    24368981.302       -3307.684  
     -2577.441          40.000          38.000  
 24  1 10  3 18 12.9000000  0  7G08G24G18G23G10G32G15
 130666447.521 6 101818093.286 6  24865010.460    24865031.565        2891.906  
      2253.297          36.000          36.000  
 129618756.714 5 101001719.977 6  24665628.919    24665650.435         331.145  
       257.719          31.000          38.000  
 114277549.861 7  89047505.951 7  21746296.603    21746311.254       -1764.227  
     -1374.676          44.000          43.000  
 110956627.031 7  86459767.146 7  21114345.173    21114359.586       -1767.121  
     -1377.098          44.000          45.000  
 109083333.748 8  85000068.297 7  20757869.345    20757885.531         137.105  
       106.613          48.000          45.000  
 117249020.365 7  91362959.608 6  22311746.655    22311765.709        2892.461  
      2253.770          47.000          39.000  
 128060083.148 6  99787153.794 6  24369027.171    24369044.242       -3307.496  
     -2577.145          39.000          38.000  
 24  1 10  3 18 13.0000000  0  7G08G24G18G23G10G32G15
 130666158.400 6 101817867.960 6  24864955.942    24864976.101        2891.594  
      2253.234          36.000          37.000  
 129618723.612 5 101001694.178 6  24665622.534    24665644.362         331.219  
       258.125          32.000          39.000  
 114277726.305 7  89047643.442 7  21746330.273    21746344.588       -1764.137  
     -1374.762          44.000          43.000  
 110956803.744 7  86459904.904 7  21114378.761    21114393.298       -1767.102  
     -1377.148          44.000          45.000  
 109083320.056 8  85000057.635 7  20757867.068    20757882.982         136.922  
       106.543          48.000          45.000  
 117248731.104 7  91362734.167 6  22311691.665    22311711.412        2892.340  
      2254.145          47.000          38.000  
 128060413.915 6  99787411.566 6  24369089.895    24369107.240       -3307.566  
     -2577.547          38.000          39.000  
 24  1 10  3 18 13.1000000  0  7G08G24G18G23G10G32G15
 130665869.207 6 101817642.620 6  24864900.911    24864921.071        2891.781  
      2253.539          36.000          37.000  
 129618690.479 5 101001668.381 6  24665616.229    24665638.062         331.219  
       257.992          32.000          38.000  
 114277902.720 7  89047780.926 7  21746363.844    21746378.163       -1764.109  
     -1374.516          44.000          43.000  
 110956980.476 7  86460042.599 7  21114412.392    21114426.925       -1767.074  
     -1377.039          44.000          45.000  
 109083306.400 8  85000046.969 7  20757864.469    20757880.377         136.852  
       106.656          48.000          45.000  
 117248441.925 7  91362508.840 6  22311636.636    22311656.384        2892.238  
      2253.281          47.000          38.000  
 128060744.697 6  99787669.290 6  24369152.840    24369170.179       -3307.660  
     -2577.453          37.000          39.000  
 24  1 10  3 18 13.2000000  0  7G08G24G18G23G10G32G15
 130665580.063 6 101817417.333 6  24864846.498    24864866.327        2891.375  
      2252.801          36.000          37.000  
 129618657.379 5 101001642.579 6  24665610.196    24665632.128         330.879  
       257.875          32.000          38.000  
 114278079.174 7  89047918.437 7  21746397.641    21746412.213       -1764.750  
     -1375.332          43.000          43.000  
 110957157.237 7  86460180.323 7  21114446.177    21114460.480       -1767.891  
     -1377.500          44.000          45.000  
 109083292.784 8  85000036.375 7  20757861.722    20757877.829         136.203  
       105.957          48.000          45.000  
 117248152.753 7  91362283.530 6  22311581.429    22311601.166        2891.539  
      2253.039          47.000          38.000  
 128061075.426 6  99787927.057 6  24369214.924    24369233.581       -3307.660  
     -2577.691          36.000          39.000  
 24  1 10  3 18 13.3000000  0  7G08G24G18G23G10G32G15
 130665290.924 6 101817192.051 6  24864791.477    24864811.310        2891.602  
      2253.137          36.000          37.000  
 129618624.424 5 101001616.816 6  24665603.925    24665625.836         330.410  
       257.574          32.000          38.000  
 114278255.691 7  89048055.955 7  21746431.231    21746445.797       -1765.207  
     -1375.262          43.000          43.000  
 110957334.077 7  86460318.115 7  21114479.829    21114494.130       -1768.363  
     -1377.688          44.000          45.000  
 109083279.198 8  85000025.795 7  20757859.136    20757875.245         135.773  
       105.773          48.000          45.000  
 117247863.628 7  91362058.231 6  22311526.410    22311546.146        2891.266  
      2253.230          47.000          38.000  
 128061406.304 6  99788184.837 6  24369277.888    24369296.533       -3308.211  
     -2577.824          36.000          39.000  
 24  1 10  3 18 13.4000000  0  7G08G24G18G23G10G32G15
 130665001.799 6 101816966.738 6  24864736.599    24864756.756        2891.316  
      2252.758          37.000          37.000  
 129618591.18735 101001591.067 6  24665597.741    24665619.314         331.109  
       257.578          32.000          38.000  
 114278432.211 7  89048193.523 7  21746464.048    21746479.283       -1765.016  
     -1375.613          43.000          43.000  
 110957510.867 7  86460455.870 7  21114513.533    21114527.576       -1768.039  
     -1377.918          44.000          45.000  
 109083265.628 8  85000015.213 7  20757856.242    20757872.427         135.879  
       105.910          48.000          45.000  
 117247574.505 7  91361832.919 6  22311471.337    22311491.357        2891.258  
      2252.504          47.000          39.000  
 128061737.141 5  99788442.651 6  24369339.821    24369359.729       -3308.184  
     -2578.039          34.000          39.000  
 24  1 10  3 18 13.5000000  0  7G08G24G18G23G10G32G15
 130664712.637 6 101816741.466 6  24864681.573    24864701.742        2891.551  
      2253.016          37.000          37.000  
 129618558.28025 101001565.271 6  24665591.479    24665613.014         330.324  
       258.039          32.000          38.000  
 114278608.706 7  89048331.037 7  21746497.634    21746512.865       -1765.082  
     -1375.273          43.000          43.000  
 110957687.678 7  86460593.665 7  21114547.179    21114561.227       -1767.949  
     -1377.738          44.000          45.000  
 109083252.026 8  85000004.610 7  20757853.653    20757869.837         136.008  
       105.898          48.000          45.000  
 117247285.365 7  91361607.666 6  22311416.316    22311436.348        2891.387  
      2252.973          47.000          39.000  
 128062067.924 5  99788700.371 6  24369402.767    24369422.667       -3308.082  
     -2577.371          34.000          39.000  
 24  1 10  3 18 13.6000000  0  7G08G24G18G23G10G32G15
 130664423.508 6 101816516.093 6  24864626.358    24864646.844        2891.395  
      2253.367          37.000          37.000  
 129618525.06725 101001539.511 6  24665585.565    24665606.903         331.039  
       257.672          31.000          38.000  
 114278785.250 7  89048468.595 7  21746530.979    21746546.294       -1765.133  
     -1375.340          43.000          43.000  
 110957864.478 7  86460731.437 7  21114580.307    21114594.771       -1767.887  
     -1377.481          44.000          45.000  
 109083238.428 8  84999994.025 7  20757851.144    20757867.408         136.016  
       106.031          48.000          45.000  
 117246996.243 7  91361382.353 6  22311361.493    22311381.074        2891.395  
      2252.926          47.000          39.000  
 128062398.752 5  99788958.174 6  24369465.151    24369485.437       -3308.000  
     -2577.809          34.000          39.000  
 24  1 10  3 18 13.7000000  0  7G08G24G18G23G10G32G15
 130664134.377 6 101816290.812 6  24864571.338    24864591.828        2891.414  
      2252.988          37.000          37.000  
 129618492.11735 101001513.749 6  24665579.279    24665600.612         330.520  
       257.340          31.000          38.000  
 114278961.766 7  89048606.138 7  21746564.569    21746579.884       -1765.238  
     -1375.777          43.000          43.000  
 110958041.314 7  86460869.221 7  21114613.958    21114628.419       -1768.125  
     -1377.918          44.000          45.000  
 109083224.871 8  84999983.463 7  20757848.564    20757864.829         135.770  
       105.672          48.000          45.000  
 117246707.114 7  91361157.050 6  22311306.473    22311326.052        2891.227  
      2253.062          47.000          39.000  
 128062729.535 5  99789215.961 6  24369528.097    24369548.391       -3308.012  
     -2577.953          34.000          39.000  
 24  1 10  3 18 13.8000000  0  7G08G24G18G23G10G32G15
 130663845.221 6 101816065.555 6  24864515.650    24864536.982        2891.375  
      2252.621          37.000          37.000  
 129618459.08525 101001488.020 6  24665573.048    24665594.906         330.219  
       257.199          31.000          38.000  
 114279138.318 7  89048743.745 7  21746598.306    21746613.238       -1765.367  
     -1375.762          43.000          43.000  
 110958218.164 7  86461007.028 7  21114647.932    21114662.550       -1768.465  
     -1378.113          44.000          45.000  
 109083211.330 8  84999972.897 7  20757846.143    20757862.249         135.543  
       105.504          48.000          45.000  
 117246418.041 7  91360931.811 6  22311251.394    22311270.500        2890.984  
      2252.414          47.000          39.000  
 128063060.399 5  99789473.747 6  24369591.144    24369611.033       -3308.336  
     -2577.762          35.000          39.000  
 24  1 10  3 18 13.9000000  0  7G08G24G18G23G10G32G15
 130663556.139 6 101815840.269 6  24864460.639    24864481.965        2891.219  
      2252.672          37.000          37.000  
 129618426.09325 101001462.277 6  24665566.770    24665588.620         330.215  
       257.332          32.000          38.000  
 114279314.892 7  89048881.317 7  21746631.907    21746646.835       -1765.637  
     -1376.016          42.000          43.000  
 110958395.000 7  86461144.806 7  21114681.583    21114696.196       -1768.418  
     -1378.031          45.000          45.000  
 109083197.791 8  84999962.369 7  20757843.567    20757859.678         135.457  
       105.379          48.000          45.000  
 117246128.950 7  91360706.545 6  22311196.382    22311215.488        2890.945  
      2252.430          47.000          39.000  
 128063391.265 6  99789731.563 6  24369654.106    24369673.994       -3308.562  
     -2578.238          36.000          39.000  
 24  1 10  3 18 14.0000000  0  7G08G24G18G23G10G32G15
 130663267.020 6 101815614.983 6  24864405.598    24864426.557        2891.152  
      2252.852          37.000          36.000  
 129618393.12025 101001436.611 6  24665560.245    24665581.719         329.926  
       256.898          32.000          38.000  
 114279491.469 7  89049018.905 7  21746665.251    21746680.779       -1765.738  
     -1375.871          43.000          43.000  
 110958571.882 7  86461282.664 7  21114715.531    21114729.706       -1768.578  
     -1378.285          44.000          45.000  
 109083184.273 8  84999951.810 7  20757841.159    20757857.295         135.324  
       105.496          48.000          45.000  
 117245839.863 7  91360481.278 6  22311141.097    22311160.756        2890.879  
      2252.816          47.000          39.000  
 128063722.133 6  99789989.393 6  24369717.779    24369736.615       -3308.586  
     -2578.234          37.000          39.000  
 24  1 10  3 18 14.1000000  0  7G08G24G18G23G10G32G15
 130662977.906 6 101815389.654 6  24864350.582    24864371.530        2891.273  
      2253.059          37.000          37.000  
 129618359.99925 101001410.859 6  24665553.943    24665575.430         330.469  
       257.359          31.000          38.000  
 114279668.009 7  89049156.474 7  21746698.845    21746714.375       -1765.418  
     -1375.481          43.000          43.000  
 110958748.695 7  86461420.405 7  21114749.178    21114763.344       -1768.461  
     -1377.875          44.000          45.000  
 109083170.650 8  84999941.204 7  20757838.566    20757854.704         135.750  
       106.012          48.000          45.000  
 117245550.723 7  91360255.964 6  22311086.076    22311105.732        2891.246  
      2253.027          47.000          39.000  
 128064052.951 6  99790247.197 6  24369780.732    24369799.574       -3308.223  
     -2578.055          37.000          39.000  
 24  1 10  3 18 14.2000000  0  7G08G24G18G23G10G32G15
 130662688.742 6 101815164.368 6  24864295.626    24864315.934        2891.371  
      2253.027          37.000          36.000  
 129618327.04425 101001385.154 6  24665547.546    24665568.973         330.074  
       257.047          31.000          38.000  
 114279844.519 7  89049294.017 7  21746732.403    21746748.191       -1765.285  
     -1375.559          43.000          43.000  
 110958925.536 7  86461558.241 7  21114782.782    21114796.708       -1768.000  
     -1377.652          44.000          45.000  
 109083157.065 8  84999930.621 7  20757835.778    20757851.987         135.914  
       105.816          48.000          45.000  
 117245261.603 7  91360030.694 6  22311031.292    22311050.641        2891.250  
      2253.027          47.000          39.000  
 128064383.738 6  99790504.966 6  24369844.428    24369862.383       -3308.270  
     -2577.539          38.000          39.000  
 24  1 10  3 18 14.3000000  0  7G08G24G18G23G10G32G15
 130662399.664 6 101814939.087 6  24864240.616    24864260.918        2891.074  
      2252.574          37.000          36.000  
 129618294.06825 101001359.457 6  24665541.271    24665562.698         329.707  
       257.082          32.000          38.000  
 114280021.093 7  89049431.596 7  21746766.004    21746781.789       -1765.469  
     -1375.664          43.000          43.000  
 110959102.358 7  86461695.978 7  21114816.431    21114830.345       -1768.309  
     -1377.742          44.000          45.000  
 109083143.496 8  84999920.049 7  20757833.196    20757849.405         135.789  
       105.801          48.000          45.000  
 117244972.482 7  91359805.402 6  22310976.275    22310995.623        2891.188  
      2252.992          47.000          39.000  
 128064714.680 6  99790762.782 6  24369907.404    24369925.344       -3308.785  
     -2578.402          38.000          39.000  
 24  1 10  3 18 14.4000000  0  7G08G24G18G23G10G32G15
 130662110.577 6 101814713.841 6  24864185.683    24864205.786        2890.953  
      2252.547          37.000          36.000  
 129618261.113 5 101001333.800 6  24665535.047    24665556.416         329.992  
       256.496          32.000          38.000  
 114280197.651 7  89049569.171 7  21746799.750    21746815.214       -1765.566  
     -1375.691          42.000          42.000  
 110959279.192 7  86461833.788 7  21114849.761    21114864.281       -1768.312  
     -1378.016          44.000          45.000  
 109083129.921 8  84999909.464 7  20757830.831    20757846.938         135.742  
       105.711          48.000          45.000  
 117244683.376 7  91359580.101 6  22310921.549    22310940.766        2891.000  
      2252.625          47.000          39.000  
 128065045.559 6  99791020.641 6  24369970.697    24369988.574       -3308.812  
     -2578.320          39.000          39.000  
 24  1 10  3 18 14.5000000  0  7G08G24G18G23G10G32G15
 130661821.481 6 101814488.593 6  24864130.670    24864150.778        2890.941  
      2252.695          37.000          36.000  
 129618228.119 5 101001308.090 6  24665528.769    24665550.138         329.895  
       256.820          31.000          38.000  
 114280374.236 7  89049706.768 7  21746833.353    21746848.817       -1765.742  
     -1376.207          43.000          42.000  
 110959456.053 7  86461971.593 7  21114883.416    21114897.934       -1768.473  
     -1378.008          44.000          45.000  
 109083116.367 8  84999898.912 7  20757828.252    20757844.361         135.688  
       105.547          48.000          45.000  
 117244394.313 7  91359354.875 6  22310866.542    22310885.763        2890.914  
      2252.340          47.000          39.000  
 128065376.444 6  99791278.443 6  24370033.662    24370051.532       -3308.809  
     -2578.152          39.000          39.000  
 24  1 10  3 18 14.6000000  0  7G08G24G18G23G10G32G15
 130661532.402 6 101814263.309 6  24864075.590    24864096.160        2890.848  
      2252.684          37.000          37.000  
 129618195.084 5 101001282.464 6  24665522.138    24665544.020         329.945  
       256.543          30.000          38.000  
 114280550.838 7  89049844.414 7  21746867.076    21746882.221       -1765.828  
     -1376.152          43.000          42.000  
 110959632.898 7  86462109.413 7  21114917.100    21114932.099       -1768.559  
     -1378.312          44.000          45.000  
 109083102.841 8  84999888.376 7  20757825.522    20757842.061         135.391  
       105.535          48.000          45.000  
 117244105.260 7  91359129.616 6  22310811.451    22310830.636        2890.664  
      2252.492          47.000          39.000  
 128065707.354 6  99791536.307 6  24370096.726    24370114.825       -3308.840  
     -2578.414          38.000          39.000  
 24  1 10  3 18 14.7000000  0  7G08G24G18G23G10G32G15
 130661243.297 6 101814038.032 6  24864020.575    24864041.145        2891.078  
      2252.832          37.000          37.000  
 129618162.293 5 101001256.728 6  24665515.898    24665537.735         329.133  
       256.984          30.000          38.000  
 114280727.417 7  89049981.964 7  21746900.678    21746915.812       -1765.984  
     -1375.961          44.000          43.000  
 110959809.717 7  86462247.225 7  21114950.748    21114965.754       -1768.332  
     -1377.973          44.000          45.000  
 109083089.280 8  84999877.798 7  20757822.941    20757839.478         135.488  
       105.645          48.000          45.000  
 117243816.187 7  91358904.401 6  22310756.442    22310775.636        2890.715  
      2252.297          47.000          39.000  
 128066038.123 6  99791794.138 6  24370159.669    24370177.790       -3308.297  
     -2578.113          37.000          39.000  
 24  1 10  3 18 14.8000000  0  7G08G24G18G23G10G32G15
 130660954.153 6 101813812.775 6  24863965.646    24863986.557        2891.195  
      2252.543          37.000          37.000  
 129618129.311 5 101001231.087 6  24665509.271    24665531.161         329.199  
       256.438          31.000          39.000  
 114280904.041 7  89050119.593 7  21746934.445    21746949.493       -1765.996  
     -1376.262          44.000          43.000  
 110959986.584 7  86462385.015 7  21114984.388    21114999.256       -1768.531  
     -1378.195          44.000          45.000  
 109083075.759 8  84999867.262 7  20757820.275    20757836.866         135.305  
       105.488          48.000          45.000  
 117243527.178 7  91358679.178 6  22310701.633    22310720.345        2890.402  
      2252.176          47.000          38.000  
 128066369.035 6  99792051.938 6  24370222.468    24370240.560       -3308.770  
     -2578.188          37.000          39.000  
 24  1 10  3 18 14.9000000  0  7G08G24G18G23G10G32G15
 130660665.104 6 101813587.475 6  24863910.642    24863931.536        2890.883  
      2252.824          37.000          37.000  
 129618096.45535 101001205.439 6  24665503.003    24665524.897         329.332  
       256.559          32.000          38.000  
 114281080.678 7  89050257.215 7  21746968.058    21746983.101       -1766.312  
     -1376.387          44.000          43.000  
 110960163.462 7  86462522.852 7  21115018.047    21115032.917       -1768.645  
     -1378.160          44.000          45.000  
 109083062.244 8  84999856.723 7  20757817.703    20757834.292         135.273  
       105.234          48.000          45.000  
 117243238.165 7  91358453.991 6  22310646.636    22310665.352        2890.164  
      2252.047          46.000          38.000  
 128066699.952 6  99792309.742 6  24370285.439    24370303.518       -3308.738  
     -2577.828          36.000          39.000  
 24  1 10  3 18 15.0000000  0  7G08G24G18G23G10G32G15
 130660375.981 6 101813362.213 6  24863855.663    24863876.509        2891.113  
      2252.480          37.000          37.000  
 129618063.39625 101001179.729 6  24665496.329    24665518.580         329.566  
       256.824          31.000          38.000  
 114281257.300 7  89050394.872 7  21747002.238    21747017.093       -1766.184  
     -1376.523          44.000          43.000  
 110960340.365 7  86462660.676 7  21115051.672    21115066.379       -1768.844  
     -1378.410          44.000          45.000  
 109083048.746 8  84999846.218 7  20757815.416    20757831.305         135.098  
       105.211          48.000          45.000  
 117242949.194 7  91358228.790 6  22310591.412    22310610.191        2889.957  
      2251.750          47.000          38.000  
 128067030.779 6  99792567.558 6  24370348.019    24370366.628       -3308.723  
     -2578.164          36.000          39.000  
 24  1 10  3 18 15.1000000  0  7G08G24G18G23G10G32G15
 130660086.897 6 101813136.945 6  24863800.652    24863821.497        2890.895  
      2252.727          37.000          37.000  
 129618030.50825 101001154.081 6  24665490.071    24665512.316         329.484  
       256.734          31.000          38.000  
 114281433.950 7  89050532.532 7  21747035.854    21747050.711       -1766.309  
     -1376.258          44.000          43.000  
 110960517.214 7  86462798.484 7  21115085.325    21115100.034       -1768.551  
     -1378.016          44.000          45.000  
 109083035.246 8  84999835.696 7  20757812.847    20757828.735         135.078  
       105.195          48.000          45.000  
 117242660.214 7  91358003.615 6  22310536.421    22310555.202        2889.875  
      2251.930          47.000          38.000  
 128067361.618 6  99792825.392 6  24370410.975    24370429.593       -3308.340  
     -2578.270          36.000          39.000  
 24  1 10  3 18 15.2000000  0  7G08G24G18G23G10G32G15
 130659797.771 6 101812911.656 6  24863745.563    24863766.612        2891.039  
      2252.945          37.000          36.000  
 129617997.57525 101001128.377 6  24665484.007    24665505.914         329.340  
       256.781          32.000          38.000  
 114281610.586 7  89050670.138 7  21747069.529    21747084.176       -1766.402  
     -1376.434          44.000          43.000  
 110960694.097 7  86462936.299 7  21115118.836    21115133.947       -1768.664  
     -1378.215          44.000          45.000  
 109083021.768 8  84999825.180 7  20757810.133    20757826.300         134.859  
       105.152          48.000          45.000  
 117242371.253 7  91357778.452 6  22310481.519    22310500.277        2889.699  
      2251.676          47.000          38.000  
 128067692.417 6  99793083.182 6  24370473.955    24370492.095       -3308.340  
     -2578.129          36.000          39.000  
 24  1 10  3 18 15.3000000  0  7G08G24G18G23G10G32G15
 130659508.668 6 101812686.357 6  24863690.548    24863711.591        2891.039  
      2252.738          37.000          37.000  
 129617964.56525 101001102.738 6  24665477.725    24665499.653         329.426  
       256.328          32.000          38.000  
 114281787.232 7  89050807.818 7  21747103.143    21747117.799       -1766.410  
     -1376.422          43.000          43.000  
 110960870.979 7  86463074.152 7  21115152.496    21115167.612       -1768.883  
     -1378.523          44.000          45.000  
 109083008.295 8  84999814.700 7  20757807.570    20757823.741         134.777  
       104.871          48.000          45.000  
 117242082.317 7  91357553.341 6  22310426.537    22310445.302        2889.504  
      2251.148          47.000          38.000  
 128068023.324 6  99793340.983 6  24370536.925    24370555.053       -3308.699  
     -2577.949          37.000          39.000  
 24  1 10  3 18 15.4000000  0  7G08G24G18G23G10G32G15
 130659219.555 6 101812461.149 6  24863635.227    24863656.851        2891.125  
      2252.602          37.000          37.000  
 129617931.67725 101001077.036 6  24665471.443    24665493.470         329.422  
       256.961          33.000          38.000  
 114281963.827 7  89050945.421 7  21747136.952    21747151.559       -1766.203  
     -1376.449          44.000          43.000  
 110961047.830 7  86463211.962 7  21115186.368    21115200.751       -1768.578  
     -1378.176          44.000          45.000  
 109082994.787 8  84999804.164 7  20757804.843    20757821.628         134.918  
       105.250          48.000          45.000  
 117241793.358 7  91357328.170 6  22310371.760    22310390.602        2889.543  
      2251.750          47.000          39.000  
 128068354.167 6  99793598.748 6  24370599.734    24370618.056       -3308.477  
     -2577.773          38.000          39.000  
 24  1 10  3 18 15.5000000  0  7G08G24G18G23G10G32G15
 130658930.443 6 101812235.839 6  24863580.211    24863601.828        2891.113  
      2252.973          37.000          36.000  
 129617898.67525 101001051.341 6  24665465.163    24665487.195         329.672  
       256.984          32.000          38.000  
 114282140.451 7  89051083.064 7  21747170.562    21747185.173       -1766.070  
     -1375.930          43.000          43.000  
 110961224.649 7  86463349.752 7  21115220.016    21115234.401       -1768.348  
     -1377.852          44.000          45.000  
 109082981.282 8  84999793.645 7  20757802.273    20757819.060         135.113  
       105.316          48.000          45.000  
 117241504.391 7  91357102.990 6  22310316.772    22310335.611        2889.680  
      2251.602          47.000          38.000  
 128068684.962 6  99793856.559 6  24370662.682    24370681.016       -3308.266  
     -2578.102          39.000          39.000  
 24  1 10  3 18 15.6000000  0  7G08G24G18G23G10G32G15
 130658641.345 6 101812010.539 6  24863525.197    24863547.253        2891.078  
      2252.891          37.000          36.000  
 129617865.807 5 101001025.691 6  24665458.534    24665481.204         329.273  
       256.492          32.000          38.000  
 114282317.095 7  89051220.686 7  21747203.903    21747218.766       -1766.395  
     -1376.430          43.000          43.000  
 110961401.496 7  86463487.547 7  21115253.403    21115268.169       -1768.500  
     -1377.844          44.000          45.000  
 109082967.809 8  84999783.137 7  20757799.709    20757816.337         134.863  
       104.957          48.000          45.000  
 117241215.464 7  91356877.860 6  22310261.775    22310280.781        2889.438  
      2251.512          47.000          39.000  
 128069015.752 6  99794114.337 6  24370725.879    24370744.508       -3308.090  
     -2577.746          39.000          39.000  
 24  1 10  3 18 15.7000000  0  7G08G24G18G23G10G32G15
 130658352.233 6 101811785.288 6  24863470.181    24863492.244        2891.066  
      2252.637          37.000          36.000  
 129617832.847 5 101000999.996 6  24665452.262    24665474.929         329.719  
       256.820          30.000          37.000  
 114282493.757 7  89051358.345 7  21747237.520    21747252.384       -1766.434  
     -1376.434          43.000          43.000  
 110961578.443 7  86463625.403 7  21115287.075    21115301.835       -1769.008  
     -1378.414          44.000          45.000  
 109082954.341 8  84999772.660 7  20757797.146    20757813.779         134.742  
       104.883          48.000          45.000  
 117240926.534 7  91356652.726 6  22310206.794    22310225.801        2889.293  
      2251.277          47.000          39.000  
 128069346.596 6  99794372.113 6  24370788.837    24370807.459       -3308.285  
     -2577.902          39.000          39.000  
 24  1 10  3 18 15.8000000  0  7G08G24G18G23G10G32G15
 130658063.162 6 101811560.041 6  24863414.962    24863437.213        2890.902  
      2252.359          37.000          36.000  
 129617799.866 5 101000974.363 6  24665446.220    24665468.302         329.309  
       256.594          30.000          37.000  
 114282670.375 7  89051495.977 7  21747271.106    21747285.909       -1766.602  
     -1376.641          43.000          43.000  
 110961755.291 7  86463763.218 7  21115320.806    21115335.491       -1768.723  
     -1378.535          44.000          45.000  
 109082940.879 8  84999762.167 7  20757794.749    20757810.911         134.656  
       104.781          48.000          45.000  
 117240637.622 7  91356427.578 6  22310151.784    22310170.770        2889.254  
      2251.414          47.000          39.000  
 128069677.431 6  99794629.938 6  24370852.121    24370870.454       -3308.395  
     -2578.277          38.000          39.000  
 24  1 10  3 18 15.9000000  0  7G08G24G18G23G10G32G15
 130657774.046 6 101811334.775 6  24863359.945    24863382.201        2890.969  
      2252.750          37.000          36.000  
 129617766.882 4 101000948.666 6  24665439.943    24665462.027         329.723  
       256.648          29.000          37.000  
 114282847.035 7  89051633.643 7  21747304.723    21747319.528       -1766.328  
     -1376.590          44.000          43.000  
 110961932.195 7  86463901.077 7  21115354.470    21115369.157       -1768.852  
     -1378.211          44.000          45.000  
 109082927.429 8  84999751.674 7  20757792.189    20757808.349         134.582  
       104.980          48.000          45.000  
 117240348.703 7  91356202.478 6  22310096.805    22310115.799        2889.277  
      2251.508          47.000          39.000  
 128070008.274 6  99794887.751 6  24370915.078    24370933.414       -3308.316  
     -2578.055          38.000          39.000  
 24  1 10  3 18 16.0000000  0  7G08G24G18G23G10G32G15
 130657485.029 6 101811109.500 6  24863304.986    24863326.936        2890.570  
      2252.910          37.000          36.000  
 129617733.951 4 101000923.070 6  24665433.364    24665455.526         329.398  
       256.273          29.000          37.000  
 114283023.767 7  89051771.353 7  21747338.511    21747353.151       -1766.758  
     -1376.668          43.000          43.000  
 110962109.083 7  86464038.921 7  21115388.107    21115402.719       -1768.832  
     -1378.414          44.000          45.000  
 109082913.994 8  84999741.224 7  20757789.625    20757805.781         134.469  
       104.570          48.000          45.000  
 117240059.792 7  91355977.323 6  22310042.022    22310060.681        2889.094  
      2250.922          47.000          39.000  
 128070339.151 6  99795145.554 6  24370977.737    24370996.177       -3308.547  
     -2578.078          37.000          39.000  
 24  1 10  3 18 16.1000000  0  7G08G24G18G23G10G32G15
 130657195.979 6 101810884.243 6  24863249.982    24863271.926        2890.625  
      2252.520          37.000          36.000  
 129617701.108 5 101000897.420 6  24665427.115    24665449.262         329.023  
       256.496          30.000          37.000  
 114283200.440 7  89051908.957 7  21747372.131    21747386.755       -1767.000  
     -1376.684          43.000          43.000  
 110962285.988 7  86464176.737 7  21115421.771    21115436.375       -1769.148  
     -1378.535          44.000          45.000  
 109082900.552 8  84999730.733 7  20757787.067    20757803.219         134.379  
       104.590          48.000          45.000  
 117239770.907 7  91355752.227 6  22309987.049    22310005.710        2888.949  
      2251.273          47.000          39.000  
 128070670.025 6  99795403.360 6  24371040.700    24371059.136       -3308.609  
     -2578.129          36.000          39.000  
 24  1 10  3 18 16.2000000  0  7G08G24G18G23G10G32G15
 130656906.938 6 101810659.083 6  24863194.721    24863216.721        2890.512  
      2251.785          37.000          36.000  
 129617668.228 5 101000871.805 6  24665420.772    24665442.928         328.816  
       255.996          31.000          37.000  
 114283377.164 7  89052046.724 7  21747405.783    21747420.094       -1767.020  
     -1377.367          43.000          43.000  
 110962462.945 7  86464314.655 7  21115455.492    21115470.509       -1769.215  
     -1378.758          44.000          45.000  
 109082887.164 8  84999720.319 7  20757784.566    20757800.606         134.129  
       104.551          48.000          45.000  
 117239482.010 7  91355527.115 6  22309931.902    22309950.649        2888.941  
      2250.934          47.000          39.000  
 128071000.962 6  99795661.208 6  24371103.254    24371121.957       -3309.137  
     -2578.340          37.000          38.000  
 24  1 10  3 18 16.3000000  0  7G08G24G18G23G10G32G15
 130656617.922 6 101810433.856 6  24863139.723    24863161.718        2890.273  
      2251.988          36.000          36.000  
 129617635.424 5 101000846.238 6  24665414.529    24665436.685         328.570  
       255.914          31.000          37.000  
 114283553.901 7  89052184.455 7  21747439.415    21747453.729       -1767.238  
     -1377.277          44.000          43.000  
 110962639.873 7  86464452.531 7  21115489.160    21115504.180       -1769.395  
     -1378.934          45.000          45.000  
 109082873.764 8  84999709.887 7  20757782.016    20757798.058         134.062  
       104.246          48.000          45.000  
 117239193.164 7  91355302.041 6  22309876.936    22309895.684        2888.684  
      2250.812          47.000          39.000  
 128071331.921 6  99795919.082 6  24371166.233    24371184.932       -3309.242  
     -2578.629          37.000          38.000  
 24  1 10  3 18 16.4000000  0  7G08G24G18G23G10G32G15
 130656328.942 6 101810208.647 6  24863084.756    24863106.595        2890.062  
      2252.082          36.000          36.000  
 129617602.563 5 101000820.631 6  24665408.354    24665430.751         328.469  
       256.051          31.000          37.000  
 114283730.634 7  89052322.172 7  21747472.867    21747487.408       -1767.422  
     -1377.348          44.000          43.000  
 110962816.888 7  86464590.430 7  21115523.024    21115537.668       -1769.691  
     -1378.984          44.000          45.000  
 109082860.415 8  84999699.466 7  20757779.171    20757795.435         133.789  
       104.215          48.000          45.000  
 117238904.318 7  91355076.941 6  22309821.916    22309840.822        2888.574  
      2250.641          47.000          39.000  
 128071662.864 6  99796176.964 6  24371229.272    24371247.917       -3309.535  
     -2578.715          37.000          38.000  
 24  1 10  3 18 16.5000000  0  7G08G24G18G23G10G32G15
 130656039.954 6 101809983.516 6  24863029.763    24863051.616        2890.043  
      2251.645          37.000          36.000  
 129617569.913 5 101000795.072 6  24665402.141    24665424.510         327.668  
       255.641          31.000          37.000  
 114283907.413 7  89052459.894 7  21747506.507    21747521.041       -1767.629  
     -1377.379          43.000          43.000  
 110962993.861 7  86464728.336 7  21115556.701    21115571.347       -1769.809  
     -1379.234          44.000          45.000  
 109082847.052 8  84999689.050 7  20757776.628    20757792.891         133.645  
       103.984          48.000          45.000  
 117238615.473 7  91354851.917 6  22309766.951    22309785.868        2888.547  
      2250.410          47.000          39.000  
 128071993.786 6  99796434.841 6  24371292.244    24371310.894       -3309.191  
     -2578.746          37.000          38.000  
 24  1 10  3 18 16.6000000  0  7G08G24G18G23G10G32G15
 130655750.983 6 101809758.279 6  24862975.336    24862996.618        2889.801  
      2252.051          37.000          36.000  
 129617537.085 5 101000769.517 6  24665395.878    24665418.323         327.805  
       255.414          30.000          37.000  
 114284084.206 7  89052597.655 7  21747539.267    21747554.926       -1767.676  
     -1377.383          43.000          43.000  
 110963170.838 7  86464866.255 7  21115590.418    21115605.192       -1769.766  
     -1379.184          44.000          45.000  
 109082833.698 8  84999678.645 7  20757774.236    20757790.179         133.645  
       104.152          48.000          45.000  
 117238326.630 7  91354626.827 6  22309712.072    22309730.954        2888.426  
      2250.828          47.000          39.000  
 128072324.725 6  99796692.747 6  24371355.298    24371373.377       -3309.492  
     -2579.082          38.000          38.000  
 24  1 10  3 18 16.7000000  0  7G08G24G18G23G10G32G15
 130655461.967 6 101809533.124 6  24862920.338    24862941.633        2890.012  
      2251.750          37.000          36.000  
 129617504.394 4 101000744.000 6  24665389.658    24665412.092         327.520  
       255.211          29.000          38.000  
 114284261.006 7  89052735.397 7  21747572.910    21747588.564       -1767.898  
     -1377.574          43.000          43.000  
 110963347.874 7  86465004.201 7  21115624.107    21115638.880       -1769.973  
     -1379.203          44.000          45.000  
 109082820.380 8  84999668.269 7  20757771.701    20757787.645         133.418  
       103.805          48.000          45.000  
 117238037.813 7  91354401.771 6  22309657.112    22309675.993        2888.273  
      2250.633          47.000          39.000  
 128072655.754 6  99796950.619 6  24371418.291    24371436.352       -3309.820  
     -2578.734          38.000          38.000  
 24  1 10  3 18 16.8000000  0  7G08G24G18G23G10G32G15
 130655173.003 6 101809307.977 6  24862865.210    24862886.416        2889.859  
      2251.246          37.000          36.000  
 129617471.36634 101000718.467 6  24665383.498    24665406.005         328.531  
       255.375          29.000          38.000  
 114284437.799 7  89052873.195 7  21747606.647    21747622.505       -1767.840  
     -1377.859          44.000          43.000  
 110963524.883 7  86465142.108 7  21115657.618    21115673.003       -1770.281  
     -1379.430          44.000          45.000  
 109082807.042 8  84999657.872 7  20757769.155    20757785.418         133.348  
       103.754          48.000          45.000  
 117237748.998 7  91354176.732 6  22309601.980    22309621.161        2888.281  
      2250.555          47.000          39.000  
 128072986.782 6  99797208.557 6  24371481.541    24371499.304       -3309.973  
     -2579.059          38.000          38.000  
 24  1 10  3 18 16.9000000  0  7G08G24G18G23G10G32G15
 130654884.055 6 101809082.790 6  24862810.225    24862831.423        2889.598  
      2251.672          37.000          36.000  
 129617438.72725 101000692.931 6  24665377.286    24665399.769         327.430  
       255.230          30.000          38.000  
 114284614.602 7  89053010.987 7  21747640.291    21747656.155       -1767.941  
     -1377.926          45.000          43.000  
 110963701.937 7  86465280.077 7  21115691.311    21115706.697       -1770.238  
     -1379.445          44.000          45.000  
 109082793.729 8  84999647.494 7  20757766.622    20757782.884         133.227  
       103.867          48.000          45.000  
 117237460.184 7  91353951.678 6  22309547.021    22309566.200        2888.230  
      2250.301          47.000          39.000  
 128073317.766 6  99797466.462 6  24371544.525    24371562.287       -3309.973  
     -2579.258          38.000          38.000  
 24  1 10  3 18 17.0000000  0  7G08G24G18G23G10G32G15
 130654595.123 6 101808857.644 6  24862754.993    24862776.604        2889.496  
      2251.547          36.000          36.000  
 129617405.99525 101000667.441 6  24665370.925    24665393.513         327.531  
       255.102          31.000          38.000  
 114284791.451 7  89053148.743 7  21747674.406    21747689.461       -1768.371  
     -1377.684          44.000          43.000  
 110963878.969 7  86465418.037 7  21115725.116    21115740.232       -1770.254  
     -1379.504          44.000          45.000  
 109082780.413 8  84999637.120 7  20757764.088    20757780.334         133.234  
       103.902          48.000          45.000  
 117237171.358 7  91353726.616 6  22309492.004    22309510.855        2888.227  
      2250.480          47.000          39.000  
 128073648.787 6  99797724.396 6  24371607.540    24371625.824       -3310.176  
     -2579.324          37.000          38.000  
 24  1 10  3 18 17.1000000  0  7G08G24G18G23G10G32G15
 130654306.174 6 101808632.481 6  24862700.007    24862721.617        2889.516  
      2251.492          37.000          36.000  
 129617373.11725 101000641.913 6  24665364.669    24665387.279         328.062  
       255.113          31.000          38.000  
 114284968.285 7  89053286.526 7  21747708.056    21747723.109       -1768.238  
     -1378.086          44.000          43.000  
 110964056.018 7  86465556.008 7  21115758.807    21115773.926       -1770.430  
     -1379.809          44.000          45.000  
 109082767.099 8  84999626.756 7  20757761.554    20757777.804         133.184  
       103.535          48.000          45.000  
 117236882.552 7  91353501.588 6  22309437.046    22309455.901        2888.203  
      2250.688          47.000          39.000  
 128073979.787 6  99797982.317 6  24371670.527    24371688.811       -3310.039  
     -2579.332          38.000          38.000  
 24  1 10  3 18 17.2000000  0  7G08G24G18G23G10G32G15
 130654017.212 6 101808407.364 6  24862645.442    24862666.461        2889.559  
      2251.281          37.000          36.000  
 129617340.50225 101000616.395 6  24665358.322    24665381.429         327.070  
       254.992          30.000          38.000  
 114285145.124 7  89053424.338 7  21747741.481    21747756.920       -1768.309  
     -1377.895          44.000          43.000  
 110964233.059 7  86465693.962 7  21115792.458    21115807.131       -1770.473  
     -1379.512          44.000          45.000  
 109082753.781 8  84999616.371 7  20757758.911    20757775.517         133.164  
       103.684          48.000          45.000  
 117236593.728 7  91353276.494 6  22309382.038    22309400.329        2888.160  
      2250.254          47.000          39.000  
 128074310.817 6  99798240.271 6  24371733.825    24371752.025       -3310.152  
     -2579.406          38.000          38.000  
 24  1 10  3 18 17.3000000  0  7G08G24G18G23G10G32G15
 130653728.326 6 101808182.242 6  24862590.469    24862611.484        2889.207  
      2251.375          37.000          36.000  
 129617307.81124 101000590.908 6  24665352.101    24665375.205         327.117  
       254.855          29.000          38.000  
 114285321.986 7  89053562.136 7  21747775.136    21747790.572       -1768.473  
     -1378.305          44.000          43.000  
 110964410.130 7  86465831.943 7  21115826.154    21115840.827       -1770.527  
     -1379.820          44.000          45.000  
 109082740.509 8  84999606.029 7  20757756.385    20757772.992         132.973  
       103.555          48.000          45.000  
 117236304.933 7  91353051.488 6  22309327.082    22309345.381        2888.094  
      2250.074          47.000          39.000  
 128074641.906 6  99798498.243 6  24371796.829    24371815.024       -3310.547  
     -2579.879          38.000          38.000  
 24  1 10  3 18 17.4000000  0  7G08G24G18G23G10G32G15
 130653439.392 6 101807957.118 6  24862535.580    24862556.624        2889.340  
      2251.348          37.000          36.000  
 129617275.09925 101000565.469 6  24665345.774    24665369.548         326.961  
       254.688          30.000          38.000  
 114285498.855 7  89053699.984 7  21747809.161    21747824.517       -1768.715  
     -1378.320          44.000          43.000  
 110964587.261 7  86465969.953 7  21115859.790    21115874.406       -1770.992  
     -1379.938          44.000          45.000  
 109082727.240 8  84999595.689 7  20757753.938    20757770.264         132.676  
       103.297          48.000          45.000  
 117236016.151 7  91352826.469 6  22309272.355    22309290.429        2887.879  
      2250.469          47.000          39.000  
 128074972.949 6  99798756.236 6  24371860.254    24371878.060       -3310.453  
     -2580.031          39.000          38.000  
 24  1 10  3 18 17.5000000  0  7G08G24G18G23G10G32G15
 130653150.491 6 101807731.976 6  24862480.604    24862501.642        2889.145  
      2251.316          37.000          36.000  
 129617242.446 5 101000539.971 6  24665339.561    24665363.321         326.824  
       254.910          31.000          39.000  
 114285675.732 7  89053837.798 7  21747842.819    21747858.172       -1768.723  
     -1378.391          44.000          43.000  
 110964764.315 7  86466107.930 7  21115893.482    21115908.101       -1770.824  
     -1380.078          44.000          45.000  
 109082713.938 8  84999585.338 7  20757751.407    20757767.736         132.957  
       103.645          48.000          45.000  
 117235727.317 7  91352601.390 6  22309217.392    22309235.462        2888.090  
      2250.508          47.000          39.000  
 128075304.011 6  99799014.200 6  24371923.253    24371941.057       -3310.477  
     -2579.422          38.000          38.000  
 24  1 10  3 18 17.6000000  0  7G08G24G18G23G10G32G15
 130652861.595 6 101807506.858 6  24862425.566    24862447.283        2889.094  
      2251.367          37.000          36.000  
 129617209.740 5 101000514.523 6  24665333.610    24665357.497         326.957  
       254.551          31.000          39.000  
 114285852.569 7  89053975.568 7  21747876.337    21747891.325       -1768.387  
     -1377.359          44.000          43.000  
 110964941.323 7  86466245.870 7  21115927.158    21115941.702       -1770.281  
     -1379.227          44.000          45.000  
 109082700.573 8  84999574.910 7  20757749.059    20757765.291         133.348  
       104.160          48.000          45.000  
 117235438.463 7  91352376.329 6  22309162.206    22309180.984        2888.418  
      2250.789          47.000          39.000  
 128075635.031 6  99799272.152 6  24371986.072    24372003.927       -3310.246  
     -2579.516          37.000          38.000  
 24  1 10  3 18 17.7000000  0  7G08G24G18G23G10G32G15
 130652572.620 6 101807281.707 6  24862370.576    24862392.299        2889.344  
      2251.578          37.000          36.000  
 129617176.964 5 101000489.027 6  24665327.373    24665351.270         327.211  
       255.160          31.000          39.000  
 114286029.331 7  89054113.299 7  21747909.974    21747924.960       -1767.902  
     -1377.637          44.000          43.000  
 110965118.364 7  86466383.815 7  21115960.848    21115975.389       -1770.184  
     -1379.086          44.000          45.000  
 109082687.214 8  84999564.494 7  20757746.517    20757762.747         133.617  
       104.340          48.000          45.000  
 117235149.597 7  91352151.195 6  22309107.237    22309126.004        2888.605  
      2251.301          47.000          39.000  
 128075966.062 6  99799530.093 6  24372049.065    24372066.919       -3310.457  
     -2579.355          37.000          38.000  
 24  1 10  3 18 17.8000000  0  7G08G24G18G23G10G32G15
 130652283.725 6 101807056.567 6  24862315.336    24862337.770        2889.176  
      2251.438          37.000          36.000  
 129617144.260 5 101000463.528 6  24665321.181    24665344.887         327.074  
       254.762          30.000          39.000  
 114286206.101 7  89054251.077 7  21747943.495    21747957.826       -1767.711  
     -1377.418          44.000          43.000  
 110965295.312 7  86466521.678 7  21115994.762    21116009.237       -1769.973  
     -1378.957          44.000          45.000  
 109082673.788 8  84999554.045 7  20757743.845    20757760.289         133.906  
       104.543          48.000          45.000  
 117234860.707 7  91351926.125 6  22309052.201    22309071.196        2888.863  
      2251.074          47.000          39.000  
 128076297.096 6  99799788.035 6  24372111.238    24372129.200       -3310.219  
     -2579.598          36.000          37.000  
 24  1 10  3 18 17.9000000  0  7G08G24G18G23G10G32G15
 130651994.830 6 101806831.414 6  24862260.361    24862282.786        2889.105  
      2251.285          36.000          36.000  
 129617111.622 5 101000438.072 6  24665314.970    24665338.670         326.738  
       254.926          32.000          39.000  
 114286382.848 7  89054388.798 7  21747977.129    21747991.459       -1767.684  
     -1377.520          44.000          43.000  
 110965472.258 7  86466659.554 7  21116028.434    21116042.907       -1769.691  
     -1378.781          44.000          45.000  
 109082660.364 8  84999543.581 7  20757741.290    20757757.734         134.098  
       104.480          48.000          45.000  
 117234571.787 7  91351700.964 6  22308997.221    22309016.210        2889.012  
      2251.551          47.000          39.000  
 128076628.099 6  99800046.008 6  24372174.226    24372192.199       -3310.184  
     -2579.664          37.000          38.000  
 24  1 10  3 18 18.0000000  0  7G08G24G18G23G10G32G15
 130651705.910 6 101806606.323 6  24862205.202    24862227.644        2889.191  
      2251.312          36.000          36.000  
 129617078.960 5 101000412.559 6  24665308.677    24665331.752         326.586  
       255.055          31.000          39.000  
 114286559.584 7  89054526.550 7  21748010.784    21748025.545       -1767.477  
     -1377.141          44.000          43.000  
 110965649.227 7  86466797.450 7  21116062.243    21116076.833       -1769.598  
     -1378.852          44.000          45.000  
 109082646.950 8  84999533.131 7  20757738.675    20757754.994         134.145  
       104.746          48.000          45.000  
 117234282.871 7  91351475.859 6  22308942.508    22308961.221        2889.055  
      2251.008          47.000          39.000  
 128076959.170 6  99800303.954 6  24372237.141    24372255.044       -3310.484  
     -2579.414          38.000          38.000  
 24  1 10  3 18 18.1000000  0  7G08G24G18G23G10G32G15
 130651416.979 6 101806381.150 6  24862150.220    24862172.655        2889.078  
      2251.309          37.000          36.000  
 129617046.238 5 101000387.064 6  24665302.450    24665325.526         327.246  
       254.965          31.000          39.000  
 114286736.319 7  89054664.228 7  21748044.416    21748059.167       -1767.430  
     -1377.043          44.000          43.000  
 110965826.166 7  86466935.313 7  21116095.913    21116110.500       -1769.578  
     -1378.797          44.000          45.000  
 109082633.524 8  84999522.666 7  20757736.120    20757752.438         134.230  
       104.578          48.000          45.000  
 117233993.992 7  91351250.742 6  22308887.536    22308906.245        2888.949  
      2251.391          47.000          39.000  
 128077290.174 6  99800561.931 6  24372300.129    24372318.045       -3310.148  
     -2579.742          38.000          38.000  
 24  1 10  3 18 18.2000000  0  7G08G24G18G23G10G32G15
 130651128.086 6 101806156.043 6  24862095.198    24862117.517        2889.109  
      2251.262          37.000          36.000  
 129617013.475 5 101000361.596 6  24665296.247    24665319.142         327.191  
       254.680          30.000          39.000  
 114286913.108 7  89054802.003 7  21748078.198    21748092.719       -1767.656  
     -1377.543          44.000          43.000  
 110966003.120 7  86467073.202 7  21116129.508    21116143.807       -1769.613  
     -1379.070          44.000          45.000  
 109082620.114 8  84999512.205 7  20757733.725    20757749.313         134.113  
       104.496          48.000          45.000  
 117233705.107 7  91351025.650 6  22308832.336    22308851.150        2888.852  
      2250.723          47.000          39.000  
 128077621.221 6  99800819.884 6  24372363.656    24372381.289       -3310.355  
     -2579.512          39.000          39.000  
 24  1 10  3 18 18.3000000  0  7G08G24G18G23G10G32G15
 130650839.179 6 101805930.921 6  24862040.221    24862062.540        2889.172  
      2251.488          37.000          36.000  
 129616980.827 4 101000336.124 6  24665290.034    24665312.922         327.145  
       254.711          29.000          39.000  
 114287089.888 7  89054939.720 7  21748111.838    21748126.351       -1768.008  
     -1377.520          44.000          43.000  
 110966180.086 7  86467211.114 7  21116163.184    21116177.487       -1769.531  
     -1379.043          44.000          45.000  
 109082606.741 8  84999501.790 7  20757731.180    20757746.770         133.840  
       104.203          48.000          45.000  
 117233416.248 7  91350800.550 6  22308777.368    22308796.178        2888.695  
      2250.770          47.000          39.000  
 128077952.254 6  99801077.811 6  24372426.650    24372444.278       -3310.363  
     -2579.348          40.000          39.000  
 24  1 10  3 18 18.4000000  0  7G08G24G18G23G10G32G15
 130650550.238 6 101805705.792 6  24861985.753    24862007.014        2889.160  
      2251.375          37.000          36.000  
 129616948.068 4 101000310.683 6  24665283.988    24665307.053         326.926  
       254.453          28.000          39.000  
 114287266.668 7  89055077.473 7  21748145.580    21748160.508       -1767.691  
     -1377.602          44.000          43.000  
 110966357.070 7  86467349.030 7  21116196.878    21116211.253       -1769.766  
     -1379.078          44.000          45.000  
 109082593.393 7  84999491.400 7  20757728.538    20757744.420         133.668  
       103.988          47.000          45.000  
 117233127.454 7  91350575.532 6  22308722.288    22308741.289        2888.219  
      2250.168          47.000          38.000  
 128078283.294 6  99801335.733 6  24372489.840    24372507.406       -3310.289  
     -2579.297          40.000          39.000  
 24  1 10  3 18 18.5000000  0  7G08G24G18G23G10G32G15
 130650261.354 6 101805480.706 6  24861930.780    24861952.046        2889.098  
      2250.875          37.000          36.000  
 129616915.359 4 101000285.201 6  24665277.763    24665300.830         327.160  
       254.848          28.000          39.000  
 114287443.504 7  89055215.298 7  21748179.231    21748194.166       -1768.082  
     -1377.918          43.000          43.000  
 110966534.098 7  86467486.975 7  21116230.566    21116244.941       -1770.020  
     -1379.270          44.000          45.000  
 109082580.051 7  84999481.003 7  20757725.999    20757741.881         133.555  
       103.867          47.000          45.000  
 117232838.678 7  91350350.459 6  22308667.335    22308686.324        2887.953  
      2250.754          47.000          38.000  
 128078614.323 6  99801593.684 6  24372552.833    24372570.400       -3310.363  
     -2579.223          39.000          39.000  
 24  1 10  3 18 18.6000000  0  7G08G24G18G23G10G32G15
 130649972.473 6 101805255.564 6  24861876.027    24861896.752        2888.836  
      2251.316          37.000          36.000  
 129616882.694 4 101000259.755 6  24665271.469    24665294.459         326.797  
       254.285          28.000          39.000  
 114287620.332 7  89055353.102 7  21748212.669    21748227.811       -1768.180  
     -1378.160          43.000          43.000  
 110966711.081 7  86467624.818 7  21116263.760    21116278.705       -1770.145  
     -1378.973          44.000          45.000  
 109082566.732 7  84999470.614 7  20757723.480    20757739.742         133.316  
       103.898          47.000          45.000  
 117232549.916 7  91350125.503 6  22308612.737    22308631.044        2887.711  
      2249.902          47.000          38.000  
 128078945.358 6  99801851.614 6  24372615.866    24372633.124       -3310.301  
     -2579.590          39.000          39.000  
 24  1 10  3 18 18.7000000  0  7G08G24G18G23G10G32G15
 130649683.538 6 101805030.484 6  24861821.044    24861841.785        2889.070  
      2250.883          37.000          36.000  
 129616850.008 4 101000234.264 6  24665265.249    24665288.234         327.105  
       254.785          28.000          39.000  
 114287797.210 7  89055490.904 7  21748246.328    21748261.464       -1768.629  
     -1378.113          43.000          43.000  
 110966888.103 7  86467762.812 7  21116297.446    21116312.404       -1770.035  
     -1379.559          44.000          45.000  
 109082553.439 8  84999460.264 7  20757720.951    20757737.215         133.113  
       103.430          48.000          45.000  
 117232261.190 7  91349900.532 6  22308557.794    22308576.104        2887.391  
      2249.750          47.000          38.000  
 128079276.352 6  99802109.595 6  24372678.852    24372696.125       -3310.098  
     -2579.570          39.000          39.000  
 24  1 10  3 18 18.8000000  0  7G08G24G18G23G10G32G15
 130649394.651 6 101804805.370 6  24861766.048    24861786.896        2889.016  
      2250.988          37.000          36.000  
 129616817.326 4 101000208.847 6  24665259.804    24665281.097         326.762  
       254.262          29.000          38.000  
 114287974.048 7  89055628.673 7  21748280.065    21748295.585       -1768.570  
     -1378.043          43.000          43.000  
 110967065.115 7  86467900.759 7  21116330.974    21116345.772       -1770.219  
     -1379.727          44.000          45.000  
 109082540.160 8  84999449.918 7  20757718.580    20757734.774         132.855  
       103.398          48.000          45.000  
 117231972.484 7  91349675.556 6  22308502.527    22308521.404        2887.176  
      2249.688          47.000          38.000  
 128079607.360 6  99802367.513 6  24372741.801    24372759.041       -3310.258  
     -2579.270          38.000          39.000  
 24  1 10  3 18 18.9000000  0  7G08G24G18G23G10G32G15
 130649105.761 6 101804580.237 6  24861711.074    24861731.916        2888.984  
      2251.113          37.000          36.000  
 129616784.748 4 101000183.402 6  24665253.604    24665274.884         326.453  
       254.355          29.000          38.000  
 114288150.941 7  89055766.557 7  21748313.727    21748329.258       -1768.551  
     -1378.301          43.000          43.000  
 110967242.177 7  86468038.701 7  21116364.668    21116379.459       -1770.250  
     -1379.211          44.000          45.000  
 109082526.863 8  84999439.558 7  20757716.050    20757732.244         132.926  
       103.625          48.000          45.000  
 117231683.803 7  91349450.596 6  22308447.593    22308466.467        2887.145  
      2249.457          47.000          38.000  
 128079938.403 6  99802625.451 6  24372804.797    24372822.032       -3310.309  
     -2579.336          39.000          39.000  
 24  1 10  3 18 19.0000000  0  7G08G24G18G23G10G32G15
 130648816.821 6 101804355.091 5  24861655.661    24861677.081        2889.184  
      2251.262          37.000          35.000  
 129616752.121 4 101000157.911 6  24665247.653    24665268.049         326.195  
       254.902          29.000          38.000  
 114288327.839 7  89055904.345 7  21748347.022    21748362.696       -1768.785  
     -1378.016          43.000          43.000  
 110967419.178 7  86468176.630 7  21116398.905    21116413.744       -1770.172  
     -1379.277          44.000          45.000  
 109082513.581 8  84999429.215 7  20757713.460    20757729.421         132.934  
       103.520          48.000          45.000  
 117231395.107 7  91349225.679 6  22308392.656    22308411.712        2886.969  
      2249.465          47.000          39.000  
 128080269.423 6  99802883.358 6  24372867.866    24372885.172       -3310.129  
     -2579.129          39.000          39.000  
 24  1 10  3 18 19.1000000  0  7G08G24G18G23G10G32G15
 130648527.929 6 101804129.943 6  24861600.686    24861622.098        2888.992  
      2251.410          37.000          36.000  
 129616719.32234 101000132.489 6  24665241.427    24665261.841         327.039  
       254.602          29.000          38.000  
 114288504.715 7  89056042.196 7  21748380.680    21748396.360       -1768.590  
     -1378.352          43.000          43.000  
 110967596.223 7  86468314.606 7  21116432.595    21116447.439       -1770.199  
     -1379.586          44.000          45.000  
 109082500.308 8  84999418.864 7  20757710.934    20757726.894         132.832  
       103.465          48.000          45.000  
 117231106.419 7  91349000.700 6  22308337.721    22308356.770        2886.875  
      2249.629          47.000          39.000  
 128080600.434 6  99803141.315 6  24372930.855    24372948.168       -3310.117  
     -2579.625          39.000          39.000  
 24  1 10  3 18 19.2000000  0  7G08G24G18G23G10G32G15
 130648239.039 6 101803904.884 6  24861545.736    24861566.722        2888.973  
      2250.906          37.000          36.000  
 129616686.77724 101000107.025 6  24665235.258    24665255.747         326.332  
       254.410          29.000          38.000  
 114288681.609 7  89056180.049 7  21748414.428    21748429.932       -1769.023  
     -1378.703          43.000          43.000  
 110967773.280 7  86468452.572 7  21116466.132    21116481.155       -1770.430  
     -1379.590          44.000          45.000  
 109082487.045 8  84999408.522 7  20757708.567    20757724.212         132.699  
       103.430          48.000          45.000  
 117230817.760 7  91348775.756 6  22308283.088    22308301.969        2886.754  
      2249.188          47.000          39.000  
 128080931.467 6  99803399.263 6  24372993.849    24373011.403       -3310.391  
     -2579.340          38.000          39.000  
 24  1 10  3 18 19.3000000  0  7G08G24G18G23G10G32G15
 130647950.148 6 101803679.773 6  24861490.762    24861511.748        2888.891  
      2251.105          37.000          36.000  
 129616654.12024 101000081.668 6  24665229.043    24665249.555         326.395  
       253.871          29.000          38.000  
 114288858.488 7  89056317.878 7  21748448.087    21748463.591       -1768.957  
     -1378.406          44.000          43.000  
 110967950.305 7  86468590.491 7  21116499.819    21116514.837       -1770.496  
     -1379.574          44.000          45.000  
 109082473.744 8  84999398.165 7  20757706.036    20757721.682         132.801  
       103.410          48.000          45.000  
 117230529.081 7  91348550.827 6  22308228.154    22308247.039        2886.781  
      2249.434          47.000          39.000  
 128081262.531 6  99803657.205 6  24373056.848    24373074.395       -3310.250  
     -2579.680          38.000          39.000  
 24  1 10  3 18 19.4000000  0  7G08G24G18G23G10G32G15
 130647661.284 6 101803454.648 6  24861436.097    24861457.114        2888.883  
      2250.977          37.000          36.000  
 129616621.59025 101000056.239 6  24665222.814    24665243.548         325.816  
       254.129          30.000          38.000  
 114289035.405 7  89056455.728 7  21748482.738    21748496.865       -1768.875  
     -1378.207          44.000          43.000  
 110968127.307 7  86468728.432 7  21116533.267    21116547.781       -1770.270  
     -1379.496          44.000          45.000  
 109082460.494 8  84999387.855 7  20757703.522    20757719.204         132.828  
       103.457          48.000          45.000  
 117230240.404 7  91348325.869 6  22308173.353    22308192.344        2886.828  
      2249.434          47.000          39.000  
 128081593.569 6  99803915.191 6  24373119.616    24373137.750       -3310.551  
     -2579.934          39.000          39.000  
 24  1 10  3 18 19.5000000  0  7G08G24G18G23G10G32G15
 130647372.411 6 101803229.552 6  24861381.127    24861402.143        2888.723  
      2251.078          37.000          36.000  
 129616588.99725 101000030.869 6  24665216.612    24665237.352         325.906  
       253.676          30.000          38.000  
 114289212.290 7  89056593.550 7  21748516.398    21748530.522       -1768.941  
     -1378.664          44.000          43.000  
 110968304.354 7  86468866.418 7  21116566.958    21116581.479       -1770.262  
     -1379.598          44.000          45.000  
 109082447.208 8  84999377.460 7  20757700.994    20757716.665         132.789  
       103.559          48.000          45.000  
 117229951.713 7  91348100.941 6  22308118.417    22308137.414        2886.902  
      2249.465          47.000          39.000  
 128081924.677 6  99804173.136 6  24373182.624    24373200.742       -3310.750  
     -2579.277          39.000          38.000  
 24  1 10  3 18 19.6000000  0  7G08G24G18G23G10G32G15
 130647083.536 6 101803004.477 6  24861325.890    24861347.075        2888.746  
      2250.902          37.000          36.000  
 129616556.32524 101000005.412 6  24665210.387    24665231.370         326.180  
       254.473          29.000          38.000  
 114289389.139 7  89056731.379 7  21748549.355    21748564.057       -1768.738  
     -1378.391          44.000          43.000  
 110968481.385 7  86469004.361 7  21116601.052    21116615.119       -1770.219  
     -1379.449          44.000          45.000  
 109082433.897 8  84999367.121 7  20757698.343    20757714.312         133.004  
       103.598          48.000          45.000  
 117229662.991 7  91347875.963 6  22308063.413    22308082.410        2887.051  
      2249.875          47.000          39.000  
 128082255.675 6  99804431.120 6  24373245.634    24373263.690       -3310.344  
     -2579.828          39.000          38.000  
 24  1 10  3 18 19.7000000  0  7G08G24G18G23G10G32G15
 130646794.683 6 101802779.387 6  24861270.923    24861292.106        2888.574  
      2250.770          37.000          36.000  
 129616523.78524 100999980.016 6  24665204.195    24665225.168         325.844  
       253.910          29.000          38.000  
 114289566.058 7  89056869.263 7  21748583.022    21748597.729       -1768.867  
     -1377.992          44.000          43.000  
 110968658.416 7  86469142.283 7  21116634.740    21116648.801       -1770.297  
     -1379.352          44.000          45.000  
 109082420.593 8  84999356.759 7  20757695.812    20757711.782         133.004  
       103.738          48.000          45.000  
 117229374.272 7  91347651.003 6  22308008.471    22308027.472        2887.188  
      2249.820          47.000          39.000  
 128082586.779 6  99804689.099 6  24373308.641    24373326.691       -3310.703  
     -2579.750          39.000          38.000  
 24  1 10  3 18 19.8000000  0  7G08G24G18G23G10G32G15
 130646505.838 6 101802554.314 6  24861216.028    24861237.165        2888.523  
      2250.984          37.000          36.000  
 129616491.20025 100999954.624 6  24665198.361    24665218.959         325.641  
       254.059          30.000          38.000  
 114289742.921 7  89057007.017 7  21748616.787    21748631.519       -1768.770  
     -1378.055          44.000          43.000  
 110968835.430 7  86469280.193 7  21116668.471    21116682.785       -1770.188  
     -1379.008          44.000          45.000  
 109082407.280 8  84999346.387 7  20757693.185    20757709.561         133.098  
       103.824          48.000          45.000  
 117229085.510 7  91347426.000 6  22307953.451    22307972.149        2887.457  
      2250.113          47.000          39.000  
 128082917.840 6  99804947.103 6  24373371.538    24373389.480       -3310.648  
     -2580.031          40.000          38.000  
 24  1 10  3 18 19.9000000  0  7G08G24G18G23G10G32G15
 130646216.980 6 101802329.249 6  24861161.060    24861182.201        2888.543  
      2250.496          37.000          36.000  
 129616458.65424 100999929.229 6  24665192.168    24665212.757         325.695  
       254.102          29.000          38.000  
 114289919.782 7  89057144.853 7  21748650.443    21748665.180       -1768.676  
     -1378.320          44.000          43.000  
 110969012.442 7  86469418.126 7  21116702.155    21116716.469       -1770.293  
     -1379.699          44.000          45.000  
 109082393.964 8  84999335.987 7  20757690.651    20757707.021         133.113  
       103.691          48.000          45.000  
 117228796.771 7  91347200.988 6  22307898.506    22307917.199        2887.383  
      2250.141          47.000          39.000  
 128083248.953 6  99805205.124 6  24373434.547    24373452.491       -3310.910  
     -2580.320          40.000          38.000  
 24  1 10  3 18 20.0000000  0  7G08G24G18G23G10G32G15
 130645928.159 6 101802104.171 6  24861105.795    24861126.766        2888.363  
      2250.562          38.000          36.000  
 129616426.06924 100999903.882 6  24665185.740    24665206.630         325.852  
       253.531          29.000          38.000  
 114290096.644 7  89057282.686 7  21748684.474    21748698.824       -1768.750  
     -1378.438          44.000          43.000  
 110969189.505 7  86469556.160 7  21116735.412    21116750.186       -1770.281  
     -1379.859          44.000          45.000  
 109082380.677 8  84999325.663 7  20757688.458    20757704.102         132.996  
       103.547          48.000          45.000  
 117228508.026 7  91346975.994 6  22307843.185    22307862.527        2887.461  
      2249.867          47.000          39.000  
 128083580.065 6  99805463.109 6  24373497.946    24373515.251       -3310.965  
     -2579.961          40.000          38.000  
 24  1 10  3 18 20.1000000  0  7G08G24G18G23G10G32G15
 130645639.379 6 101801879.141 6  24861050.842    24861071.812        2888.105  
      2250.387          37.000          36.000  
 129616393.51225 100999878.505 6  24665179.545    24665200.432         325.609  
       253.543          30.000          38.000  
 114290273.565 7  89057420.559 7  21748718.141    21748732.494       -1768.961  
     -1378.535          44.000          43.000  
 110969366.595 7  86469694.089 7  21116769.111    21116783.870       -1770.695  
     -1379.598          44.000          45.000  
 109082367.407 8  84999315.301 7  20757685.933    20757701.571         132.836  
       103.402          48.000          45.000  
 117228219.285 7  91346750.949 6  22307788.239    22307807.568        2887.391  
      2250.059          47.000          39.000  
 128083911.246 6  99805721.137 6  24373560.968    24373578.265       -3311.406  
     -2580.031          40.000          38.000  
 24  1 10  3 18 20.2000000  0  7G08G24G18G23G10G32G15
 130645350.575 6 101801654.149 6  24860995.517    24861016.593        2888.031  
      2249.770          37.000          36.000  
 129616360.95724 100999853.195 6  24665173.233    24665194.166         325.531  
       253.320          29.000          38.000  
 114290450.500 7  89057558.405 7  21748751.248    21748766.369       -1769.266  
     -1378.602          44.000          43.000  
 110969543.686 7  86469832.096 7  21116803.209    21116817.565       -1770.910  
     -1379.957          44.000          45.000  
 109082354.153 8  84999304.965 7  20757683.380    20757699.141         132.609  
       103.227          48.000          45.000  
 117227930.552 7  91346526.033 6  22307733.428    22307752.813        2887.289  
      2249.398          47.000          39.000  
 128084242.404 6  99805979.174 6  24373624.415    24373640.819       -3311.648  
     -2580.625          40.000          38.000  
 24  1 10  3 18 20.3000000  0  7G08G24G18G23G10G32G15
 130645061.852 6 101801429.136 6  24860940.575    24860961.642        2887.691  
      2250.250          37.000          36.000  
 129616328.49825 100999827.825 6  24665167.056    24665187.970         325.188  
       253.410          30.000          38.000  
 114290627.422 7  89057696.236 7  21748784.915    21748800.028       -1769.191  
     -1378.609          43.000          43.000  
 110969720.757 7  86469970.062 7  21116836.904    21116851.258       -1770.762  
     -1379.875          44.000          45.000  
 109082340.892 8  84999294.634 7  20757680.856    20757696.618         132.613  
       103.289          48.000          45.000  
 117227641.832 7  91346301.026 6  22307678.486    22307697.864        2887.262  
      2249.875          47.000          39.000  
 128084573.577 6  99806237.240 6  24373687.435    24373703.841       -3311.480  
     -2580.453          40.000          38.000  
 24  1 10  3 18 20.4000000  0  7G08G24G18G23G10G32G15
 130644773.126 6 101801204.114 6  24860885.585    24860906.838        2887.535  
      2249.836          37.000          36.000  
 129616295.91124 100999802.493 6  24665160.699    24665182.198         325.461  
       253.371          29.000          39.000  
 114290804.365 7  89057834.137 7  21748818.539    21748833.580       -1769.336  
     -1378.746          44.000          43.000  
 110969897.884 7  86470108.103 7  21116870.399    21116884.851       -1770.891  
     -1380.148          43.000          45.000  
 109082327.690 8  84999284.356 7  20757678.320    20757694.405         132.332  
       102.824          48.000          45.000  
 117227353.137 7  91346076.085 6  22307623.573    22307642.963        2887.137  
      2249.531          47.000          39.000  
 128084904.771 6  99806495.253 6  24373750.435    24373767.116       -3311.816  
     -2580.156          39.000          38.000  
 24  1 10  3 18 20.5000000  0  7G08G24G18G23G10G32G15
 130644484.356 6 101800979.151 6  24860830.634    24860851.900        2887.414  
      2249.809          37.000          36.000  
 129616263.48924 100999777.168 6  24665154.529    24665176.013         324.793  
       253.348          29.000          39.000  
 114290981.321 7  89057972.005 7  21748852.213    21748867.249       -1769.508  
     -1378.863          44.000          43.000  
 110970075.013 7  86470246.128 7  21116904.106    21116918.559       -1771.266  
     -1380.348          43.000          45.000  
 109082314.498 8  84999274.093 7  20757675.810    20757691.898         132.070  
       102.762          48.000          45.000  
 117227064.445 7  91345851.109 6  22307568.637    22307588.021        2886.965  
      2249.555          47.000          39.000  
 128085235.969 6  99806753.289 6  24373813.460    24373830.131       -3311.773  
     -2580.344          39.000          38.000  
 24  1 10  3 18 20.6000000  0  7G08G24G18G23G10G32G15
 130644195.696 6 101800754.208 6  24860775.985    24860796.412        2887.176  
      2249.785          37.000          36.000  
 129616230.96724 100999751.853 6  24665148.090    24665169.964         325.148  
       253.137          29.000          39.000  
 114291158.306 7  89058110.005 7  21748885.782    21748901.341       -1769.395  
     -1379.375          43.000          43.000  
 110970252.185 7  86470384.156 7  21116936.664    21116952.313       -1771.621  
     -1380.516          43.000          45.000  
 109082301.361 8  84999263.847 7  20757673.068    20757689.092         131.691  
       102.406          48.000          45.000  
 117226775.810 7  91345626.210 6  22307513.805    22307532.927        2886.664  
      2249.367          47.000          39.000  
 128085567.116 6  99807011.390 6  24373876.491    24373892.662       -3311.570  
     -2580.934          38.000          38.000  
 24  1 10  3 18 20.7000000  0  7G08G24G18G23G10G32G15
 130643907.006 6 101800529.214 6  24860721.049    24860741.466        2886.859  
      2249.512          37.000          37.000  
 129616198.45625 100999726.548 6  24665141.904    24665163.784         324.871  
       253.141          30.000          39.000  
 114291335.328 7  89058247.862 7  21748919.469    21748935.007       -1770.148  
     -1379.125          43.000          43.000  
 110970429.392 7  86470522.258 7  21116970.386    21116986.039       -1771.676  
     -1380.863          44.000          45.000  
 109082288.242 8  84999253.622 7  20757670.571    20757686.595         131.406  
       102.234          48.000          45.000  
 117226487.184 7  91345401.296 6  22307458.881    22307478.000        2886.387  
      2248.898          47.000          39.000  
 128085898.242 6  99807269.483 6  24373939.502    24373955.691       -3311.625  
     -2580.930          37.000          38.000  
 24  1 10  3 18 20.8000000  0  7G08G24G18G23G10G32G15
 130643618.310 6 101800304.302 6  24860666.190    24860686.962        2886.867  
      2249.566          37.000          37.000  
 129616165.98725 100999701.266 6  24665135.569    24665157.750         324.949  
       253.109          32.000          39.000  
 114291512.383 7  89058385.827 7  21748952.755    21748968.512       -1770.188  
     -1379.449          43.000          43.000  
 110970606.601 7  86470660.344 7  21117004.272    21117020.050       -1771.941  
     -1380.762          44.000          45.000  
 109082275.161 8  84999243.419 7  20757668.285    20757684.189         131.066  
       101.887          48.000          45.000  
 117226198.574 7  91345176.405 6  22307403.742    22307422.705        2886.152  
      2248.457          47.000          38.000  
 128086229.443 6  99807527.528 6  24374002.254    24374019.107       -3311.738  
     -2580.617          37.000          38.000  
 24  1 10  3 18 20.9000000  0  7G08G24G18G23G10G32G15
 130643329.634 6 101800079.360 6  24860611.257    24860632.029        2886.801  
      2249.453          37.000          37.000  
 129616133.47825 100999675.908 6  24665129.382    24665151.558         325.012  
       253.695          32.000          38.000  
 114291689.394 7  89058523.741 7  21748986.439    21749002.192       -1770.094  
     -1379.375          43.000          43.000  
 110970783.772 7  86470798.408 7  21117037.986    21117053.767       -1771.961  
     -1380.812          44.000          45.000  
 109082262.061 8  84999233.223 7  20757665.793    20757681.699         130.938  
       101.984          48.000          45.000  
 117225909.976 7  91344951.516 6  22307348.824    22307367.785        2886.105  
      2248.828          47.000          38.000  
 128086560.677 6  99807785.611 6  24374065.286    24374082.133       -3312.051  
     -2580.812          37.000          38.000  
 24  1 10  3 18 21.0000000  0  7G08G24G18G23G10G32G15
 130643040.955 6 101799854.393 6  24860556.636    24860576.808        2886.859  
      2249.758          37.000          37.000  
 129616101.08625 100999650.563 6  24665123.375    24665145.056         324.262  
       253.461          32.000          38.000  
 114291866.358 7  89058661.695 7  21749020.036    21749035.881       -1769.891  
     -1379.367          43.000          43.000  
 110970960.979 7  86470936.482 7  21117072.082    21117087.314       -1771.848  
     -1380.582          44.000          45.000  
 109082248.963 8  84999223.023 7  20757663.003    20757679.348         131.168  
       102.160          48.000          45.000  
 117225621.377 7  91344726.637 6  22307293.780    22307312.609        2886.078  
      2249.148          47.000          38.000  
 128086891.850 6  99808043.679 6  24374128.158    24374145.344       -3311.773  
     -2580.734          37.000          38.000  
 24  1 10  3 18 21.1000000  0  7G08G24G18G23G10G32G15
 130642752.323 6 101799629.471 6  24860501.711    24860521.880        2886.594  
      2249.125          37.000          37.000  
 129616068.58025 100999625.278 6  24665117.189    24665138.881         324.984  
       253.098          32.000          38.000  
 114292043.382 7  89058799.608 7  21749053.722    21749069.561       -1770.016  
     -1378.969          43.000          43.000  
 110971138.145 7  86471074.547 7  21117105.796    21117121.031       -1771.914  
     -1380.949          44.000          45.000  
 109082235.885 8  84999212.819 7  20757660.515    20757676.857         130.965  
       102.062          48.000          45.000  
 117225332.795 7  91344501.771 6  22307238.865    22307257.694        2885.953  
      2248.758          47.000          38.000  
 128087223.005 6  99808301.738 6  24374191.174    24374208.364       -3311.711  
     -2580.500          37.000          39.000  
 24  1 10  3 18 21.2000000  0  7G08G24G18G23G10G32G15
 130642463.630 6 101799404.542 6  24860446.712    24860467.607        2886.734  
      2249.332          37.000          37.000  
 129616036.00825 100999599.966 6  24665110.788    24665132.645         324.965  
       253.012          31.000          38.000  
 114292220.377 7  89058937.490 7  21749087.872    21749102.944       -1770.195  
     -1379.516          43.000          43.000  
 110971315.354 7  86471212.639 7  21117140.127    21117154.731       -1771.992  
     -1380.758          44.000          45.000  
 109082222.814 8  84999202.638 7  20757658.012    20757674.284         130.742  
       101.863          48.000          45.000  
 117225044.227 7  91344276.927 6  22307184.030    22307202.903        2885.742  
      2248.332          47.000          38.000  
 128087554.188 6  99808559.837 6  24374253.548    24374271.785       -3311.723  
     -2580.914          38.000          39.000  
 24  1 10  3 18 21.3000000  0  7G08G24G18G23G10G32G15
 130642174.998 6 101799179.602 6  24860391.787    24860412.674        2886.484  
      2249.512          37.000          37.000  
 129616003.50225 100999574.623 6  24665104.602    24665126.456         325.395  
       253.207          30.000          38.000  
 114292397.457 7  89059075.515 7  21749121.569    21749136.651       -1770.281  
     -1379.652          43.000          43.000  
 110971492.610 7  86471350.732 7  21117173.858    21117188.455       -1772.188  
     -1380.941          44.000          45.000  
 109082209.783 8  84999192.468 7  20757655.532    20757671.801         130.508  
       101.516          48.000          45.000  
 117224755.698 7  91344052.073 6  22307129.125    22307147.991        2885.430  
      2248.188          47.000          38.000  
 128087885.394 6  99808817.865 6  24374316.574    24374334.798       -3311.883  
     -2580.523          38.000          39.000  
 24  1 10  3 18 21.4000000  0  7G08G24G18G23G10G32G15
 130641886.386 6 101798954.695 6  24860336.569    24860357.734        2886.285  
      2249.051          37.000          37.000  
 129615971.08925 100999549.348 6  24665098.051    24665120.385         324.445  
       253.035          30.000          38.000  
 114292574.551 7  89059213.488 7  21749154.777    21749170.549       -1770.773  
     -1379.922          43.000          43.000  
 110971669.832 7  86471488.846 7  21117208.113    21117222.051       -1772.289  
     -1381.227          44.000          45.000  
 109082196.764 8  84999182.338 7  20757653.203    20757669.178         130.266  
       101.184          48.000          45.000  
 117224467.182 7  91343827.287 6  22307074.183    22307093.127        2885.281  
      2248.160          47.000          38.000  
 128088216.630 6  99809075.973 6  24374379.646    24374398.432       -3312.074  
     -2580.957          38.000          39.000  
 24  1 10  3 18 21.5000000  0  7G08G24G18G23G10G32G15
 130641597.676 6 101798729.802 6  24860281.629    24860302.812        2886.828  
      2249.023          37.000          36.000  
 129615938.60325 100999524.033 6  24665091.869    24665114.203         324.758  
       252.906          30.000          38.000  
 114292751.581 7  89059351.437 7  21749188.465    21749204.238       -1770.539  
     -1379.688          43.000          44.000  
 110971847.076 7  86471626.963 7  21117241.842    21117255.780       -1772.105  
     -1380.844          44.000          45.000  
 109082183.717 8  84999172.179 7  20757650.720    20757666.697         130.457  
       101.855          48.000          45.000  
 117224178.674 7  91343602.464 6  22307019.282    22307038.223        2885.281  
      2248.230          47.000          38.000  
 128088547.780 6  99809334.027 6  24374442.661    24374461.452       -3311.797  
     -2580.445          38.000          40.000  
 24  1 10  3 18 21.6000000  0  7G08G24G18G23G10G32G15
 130641308.995 6 101798504.846 6  24860226.766    24860247.993        2886.617  
      2249.242          37.000          36.000  
 129615905.99524 100999498.763 6  24665085.110    24665107.453         325.406  
       253.102          29.000          38.000  
 114292928.661 7  89059489.429 7  21749222.279    21749237.921       -1770.582  
     -1379.672          43.000          44.000  
 110972024.283 7  86471765.046 7  21117275.258    21117289.455       -1772.227  
     -1381.016          44.000          45.000  
 109082170.679 8  84999162.005 7  20757648.083    20757664.314         130.398  
       101.418          48.000          45.000  
 117223890.183 7  91343377.649 6  22306964.063    22306983.383        2885.070  
      2248.184          47.000          38.000  
 128088879.024 6  99809592.098 6  24374505.976    24374524.749       -3312.102  
     -2580.699          38.000          40.000  
 24  1 10  3 18 21.7000000  0  7G08G24G18G23G10G32G15
 130641020.404 6 101798279.930 6  24860171.849    24860193.066        2886.445  
      2249.262          37.000          36.000  
 129615873.64424 100999473.450 6  24665078.953    24665101.272         324.461  
       252.777          28.000          38.000  
 114293105.723 7  89059627.446 7  21749255.973    21749271.626       -1770.473  
     -1379.793          43.000          43.000  
 110972201.513 7  86471903.114 7  21117308.984    21117323.173       -1772.348  
     -1381.008          44.000          45.000  
 109082157.675 8  84999151.889 7  20757645.608    20757661.844         130.195  
       101.387          48.000          45.000  
 117223601.706 7  91343152.890 6  22306909.168    22306928.495        2884.961  
      2248.047          47.000          38.000  
 128089210.160 6  99809850.141 6  24374568.989    24374587.766       -3311.727  
     -2580.363          38.000          39.000  
 24  1 10  3 18 21.8000000  0  7G08G24G18G23G10G32G15
 130640731.707 6 101798055.031 6  24860116.911    24860138.699        2886.594  
      2249.023          37.000          36.000  
 129615841.16524 100999448.173 6  24665072.343    24665095.294         324.855  
       253.008          29.000          38.000  
 114293282.812 7  89059765.400 7  21749290.117    21749305.011       -1770.871  
     -1380.031          43.000          44.000  
 110972378.738 7  86472041.225 7  21117342.295    21117357.362       -1772.359  
     -1381.266          44.000          45.000  
 109082144.674 8  84999141.749 7  20757643.181    20757659.344         130.102  
       101.238          48.000          45.000  
 117223313.227 7  91342928.106 6  22306854.694    22306874.186        2884.711  
      2247.438          47.000          38.000  
 128089541.364 6  99810108.195 6  24374632.039    24374650.426       -3311.941  
     -2580.703          38.000          39.000  
 24  1 10  3 18 21.9000000  0  7G08G24G18G23G10G32G15
 130640443.130 6 101797830.091 6  24860061.997    24860083.766        2886.172  
      2249.402          37.000          36.000  
 129615808.80724 100999422.873 6  24665066.186    24665089.116         323.910  
       252.363          29.000          38.000  
 114293459.917 7  89059903.386 7  21749323.819    21749338.709       -1771.211  
     -1380.113          44.000          44.000  
 110972556.019 7  86472179.399 7  21117376.030    21117391.105       -1772.645  
     -1381.449          44.000          45.000  
 109082131.717 8  84999131.641 7  20757640.715    20757656.876         129.762  
       101.043          48.000          45.000  
 117223024.812 7  91342703.331 6  22306799.811    22306819.294        2884.504  
      2247.531          47.000          38.000  
 128089872.563 6  99810366.319 6  24374695.064    24374713.462       -3311.961  
     -2581.109          38.000          39.000  
 24  1 10  3 18 22.0000000  0  7G08G24G18G23G10G32G15
 130640154.474 6 101797605.187 6  24860006.935    24860028.350        2886.473  
      2249.062          37.000          36.000  
 129615776.39324 100999397.679 6  24665060.252    24665082.853         324.211  
       252.301          29.000          38.000  
 114293637.086 7  89060041.468 7  21749357.174    21749372.633       -1771.281  
     -1380.582          43.000          44.000  
 110972733.325 7  86472317.530 7  21117409.974    21117424.049       -1772.781  
     -1381.234          44.000          45.000  
 109082118.760 8  84999121.561 7  20757638.390    20757654.664         129.738  
       100.863          48.000          45.000  
 117222736.390 7  91342478.615 6  22306745.199    22306764.174        2884.316  
      2247.453          47.000          38.000  
 128090203.783 6  99810624.422 6  24374758.210    24374776.072       -3312.125  
     -2580.855          38.000          39.000  
 24  1 10  3 18 22.1000000  0  7G08G24G18G23G10G32G15
 130639865.857 6 101797380.320 6  24859952.013    24859973.435        2886.297  
      2248.910          37.000          36.000  
 129615744.07825 100999372.429 6  24665054.102    24665076.687         323.598  
       252.270          30.000          38.000  
 114293814.237 7  89060179.510 7  21749390.885    21749406.344       -1771.379  
     -1380.289          43.000          43.000  
 110972910.599 7  86472455.690 7  21117443.708    21117457.789       -1772.801  
     -1381.664          44.000          45.000  
 109082105.812 8  84999111.466 7  20757635.926    20757652.199         129.598  
       101.133          48.000          45.000  
 117222447.971 7  91342253.854 6  22306690.315    22306709.285        2884.191  
      2247.438          47.000          39.000  
 128090535.010 6  99810882.526 6  24374821.241    24374839.104       -3312.094  
     -2581.000          38.000          39.000  
 24  1 10  3 18 22.2000000  0  7G08G24G18G23G10G32G15
 130639577.270 6 101797155.429 6  24859896.971    24859918.319        2886.086  
      2248.848          37.000          36.000  
 129615711.64525 100999347.195 6  24665048.009    24665070.119         323.906  
       252.367          31.000          38.000  
 114293991.388 7  89060317.525 7  21749424.423    21749440.143       -1771.422  
     -1380.359          43.000          43.000  
 110973087.943 7  86472593.875 7  21117477.260    21117491.645       -1773.062  
     -1381.719          43.000          45.000  
 109082092.872 8  84999101.357 7  20757633.472    20757649.410         129.516  
       100.855          48.000          45.000  
 117222159.580 7  91342029.159 6  22306635.577    22306654.193        2884.184  
      2247.109          47.000          39.000  
 128090866.199 6  99811140.618 6  24374884.295    24374901.796       -3312.000  
     -2581.246          38.000          38.000  
 24  1 10  3 18 22.3000000  0  7G08G24G18G23G10G32G15
 130639288.660 6 101796930.562 6  24859842.051    24859863.404        2886.047  
      2248.844          37.000          36.000  
 129615679.24625 100999321.950 6  24665041.843    24665063.954         323.906  
       252.379          31.000          38.000  
 114294168.592 7  89060455.626 7  21749458.144    21749473.868       -1771.887  
     -1380.863          43.000          43.000  
 110973265.323 7  86472732.068 7  21117511.014    21117525.393       -1773.559  
     -1381.879          44.000          45.000  
 109082079.983 8  84999091.351 7  20757631.019    20757646.966         129.109  
       100.195          48.000          45.000  
 117221871.224 7  91341804.445 6  22306580.704    22306599.316        2883.766  
      2246.988          47.000          39.000  
 128091197.460 6  99811398.696 6  24374947.332    24374964.822       -3312.434  
     -2581.090          37.000          38.000  
 24  1 10  3 18 22.4000000  0  7G08G24G18G23G10G32G15
 130639000.091 6 101796705.675 6  24859787.005    24859808.352        2885.902  
      2248.934          37.000          36.000  
 129615646.86425 100999296.705 6  24665035.494    24665057.765         324.109  
       252.547          32.000          38.000  
 114294345.805 7  89060593.721 7  21749492.539    21749507.264       -1772.004  
     -1381.160          43.000          43.000  
 110973442.662 7  86472870.268 7  21117544.620    21117559.400       -1773.531  
     -1382.141          44.000          45.000  
 109082067.114 8  84999081.311 7  20757628.445    20757644.514         128.852  
       100.414          48.000          45.000  
 117221582.852 7  91341579.761 6  22306525.665    22306544.329        2883.664  
      2246.734          47.000          39.000  
 128091528.808 6  99811656.836 6  24375009.784    24375027.565       -3312.781  
     -2581.242          36.000          38.000  
 24  1 10  3 18 22.5000000  0  7G08G24G18G23G10G32G15
 130638711.479 6 101796480.817 6  24859732.084    24859753.439        2885.906  
      2248.555          36.000          36.000  
 129615614.52825 100999271.546 6  24665029.341    24665051.621         323.617  
       251.828          32.000          38.000  
 114294523.027 7  89060731.834 7  21749526.263    21749540.993       -1772.098  
     -1380.988          43.000          43.000  
 110973620.031 7  86473008.476 7  21117578.372    21117593.152       -1773.582  
     -1382.152          44.000          45.000  
 109082054.262 8  84999071.295 7  20757626.000    20757642.068         128.723  
       100.047          48.000          45.000  
 117221294.528 7  91341355.096 6  22306470.799    22306489.463        2883.473  
      2246.898          47.000          39.000  
 128091860.075 5  99811914.973 6  24375072.822    24375090.605       -3312.754  
     -2581.234          35.000          38.000  
 24  1 10  3 18 22.6000000  0  7G08G24G18G23G10G32G15
 130638422.975 6 101796255.968 6  24859677.277    24859698.552        2885.613  
      2248.555          37.000          36.000  
 129615582.09725 100999246.313 6  24665023.169    24665045.459         323.863  
       252.223          30.000          38.000  
 114294700.299 7  89060869.940 7  21749559.653    21749574.837       -1772.547  
     -1381.246          44.000          43.000  
 110973797.446 7  86473146.739 7  21117613.055    21117626.925       -1773.770  
     -1382.531          44.000          45.000  
 109082041.451 8  84999061.307 7  20757623.343    20757639.356         128.355  
       100.004          48.000          45.000  
 117221006.200 7  91341130.404 6  22306415.908    22306434.857        2883.344  
      2246.488          47.000          39.000  
 128092191.405 5  99812173.131 6  24375135.192    24375153.821       -3312.941  
     -2581.645          35.000          38.000  
 24  1 10  3 18 22.7000000  0  7G08G24G18G23G10G32G15
 130638134.456 6 101796031.173 6  24859622.374    24859643.655        2885.273  
      2247.676          36.000          36.000  
 129615549.94134 100999221.147 6  24665017.027    24665039.313         323.020  
       251.582          28.000          38.000  
 114294877.574 7  89061008.055 7  21749593.387    21749608.566       -1772.441  
     -1380.988          44.000          43.000  
 110973974.884 7  86473284.998 7  21117646.820    21117660.690       -1774.184  
     -1382.469          44.000          45.000  
 109082028.626 8  84999051.314 7  20757620.903    20757636.915         128.254  
        99.699          48.000          45.000  
 117220717.883 7  91340905.766 6  22306361.043    22306379.998        2883.176  
      2246.164          47.000          39.000  
 128092522.662 6  99812431.293 6  24375198.228    24375216.867       -3312.793  
     -2581.582          37.000          38.000  
 24  1 10  3 18 22.8000000  0  7G08G24G18G23G10G32G15
 130637845.896 6 101795806.332 6  24859567.846    24859588.731        2885.367  
      2248.324          36.000          36.000  
 129615517.42934 100999195.969 6  24665010.723    24665033.344         323.551  
       251.848          27.000          38.000  
 114295054.858 7  89061146.165 7  21749626.631    21749642.794       -1772.703  
     -1381.168          43.000          43.000  
 110974152.309 7  86473423.209 7  21117680.818    21117694.426       -1774.250  
     -1382.523          44.000          45.000  
 109082015.842 8  84999041.371 7  20757618.743    20757634.706         128.129  
        99.715          48.000          45.000  
 117220429.584 7  91340681.095 6  22306305.987    22306325.068        2883.125  
      2246.570          47.000          39.000  
 128092853.894 6  99812689.453 6  24375261.822    24375279.655       -3312.559  
     -2581.719          38.000          38.000  
 24  1 10  3 18 22.9000000  0  7G08G24G18G23G10G32G15
 130637557.394 6 101795581.499 6  24859512.946    24859533.824        2885.129  
      2248.508          37.000          36.000  
 129615485.20924 100999170.716 6  24665004.591    24665027.177         323.188  
       252.297          27.000          38.000  
 114295232.112 7  89061284.296 7  21749660.361    21749676.527       -1772.785  
     -1381.633          42.000          43.000  
 110974329.720 7  86473561.490 7  21117714.578    21117728.196       -1774.148  
     -1382.727          44.000          45.000  
 109082003.056 8  84999031.405 7  20757616.310    20757632.272         127.914  
        99.594          48.000          45.000  
 117220141.306 7  91340456.500 6  22306251.129    22306270.220        2882.992  
      2246.277          47.000          39.000  
 128093185.203 6  99812947.585 6  24375324.868    24375342.693       -3312.855  
     -2581.480          39.000          38.000  
 24  1 10  3 18 23.0000000  0  7G08G24G18G23G10G32G15
 130637268.884 6 101795356.666 6  24859458.474    24859479.058        2885.102  
      2247.883          37.000          36.000  
 129615452.88224 100999145.575 6  24664998.783    24665021.186         322.953  
       251.617          28.000          38.000  
 114295409.406 7  89061422.505 7  21749694.201    21749710.310       -1772.754  
     -1381.863          43.000          43.000  
 110974507.202 7  86473699.792 7  21117748.023    21117762.057       -1774.492  
     -1382.785          44.000          45.000  
 109081990.302 8  84999021.446 7  20757614.071    20757629.887         127.633  
        99.453          48.000          45.000  
 117219853.051 7  91340231.856 6  22306196.245    22306215.594        2882.820  
      2246.465          47.000          39.000  
 128093516.482 6  99813205.768 6  24375388.674    24375405.275       -3312.855  
     -2581.883          39.000          38.000  
 24  1 10  3 18 23.1000000  0  7G08G24G18G23G10G32G15
 130636980.396 6 101795131.891 6  24859403.576    24859424.166        2885.066  
      2248.270          37.000          36.000  
 129615420.74124 100999120.406 6  24664992.667    24665015.039         322.199  
       251.660          27.000          38.000  
 114295586.659 7  89061560.659 7  21749727.931    21749744.049       -1772.570  
     -1381.457          44.000          43.000  
 110974684.693 7  86473838.068 7  21117781.799    21117795.825       -1774.746  
     -1382.824          44.000          45.000  
 109081977.533 8  84999011.516 7  20757611.641    20757627.462         127.793  
        99.473          48.000          45.000  
 117219564.729 7  91340007.186 6  22306141.379    22306160.727        2882.949  
      2246.422          47.000          39.000  
 128093847.833 6  99813463.959 6  24375451.728    24375468.328       -3313.141  
     -2581.848          39.000          38.000  
 24  1 10  3 18 23.2000000  0  7G08G24G18G23G10G32G15
 130636691.858 6 101794907.088 6  24859348.974    24859369.150        2885.176  
      2248.090          37.000          36.000  
 129615388.24824 100999095.224 6  24664986.812    24665008.624         324.008  
       251.551          27.000          38.000  
 114295764.025 7  89061698.797 7  21749762.651    21749777.213       -1773.242  
     -1381.418          44.000          43.000  
 110974862.123 7  86473976.327 7  21117815.242    21117830.019       -1774.527  
     -1382.766          44.000          45.000  
 109081964.785 8  84999001.569 7  20757609.184    20757624.853         127.605  
        99.434          48.000          45.000  
 117219276.448 7  91339782.575 6  22306086.661    22306105.492        2882.926  
      2246.281          47.000          39.000  
 128094179.140 6  99813722.121 6  24375515.047    24375531.249       -3313.086  
     -2581.574          38.000          38.000  
 24  1 10  3 18 23.3000000  0  7G08G24G18G23G10G32G15
 130636403.383 6 101794682.269 6  24859294.079    24859314.246        2884.938  
      2248.371          37.000          36.000  
 129615356.01124 100999070.040 6  24664980.678    24665002.474         322.750  
       251.801          29.000          38.000  
 114295941.301 7  89061836.929 7  21749796.386    21749810.947       -1773.102  
     -1381.676          44.000          43.000  
 110975039.539 7  86474114.592 7  21117849.003    21117863.785       -1774.348  
     -1382.688          45.000          45.000  
 109081952.003 8  84998991.623 7  20757606.751    20757622.424         127.676  
        99.445          48.000          45.000  
 117218988.143 7  91339557.907 6  22306031.799    22306050.626        2882.934  
      2246.766          47.000          39.000  
 128094510.527 6  99813980.298 6  24375578.108    24375594.298       -3313.418  
     -2581.500          37.000          38.000  
 24  1 10  3 18 23.4000000  0  7G08G24G18G23G10G32G15
 130636114.884 6 101794457.481 6  24859238.898    24859259.421        2885.023  
      2247.695          37.000          36.000  
 129615323.84824 100999044.921 6  24664974.995    24664996.566         322.520  
       251.125          29.000          38.000  
 114296118.595 7  89061975.113 7  21749829.155    21749844.903       -1772.809  
     -1381.570          43.000          43.000  
 110975217.058 7  86474252.948 7  21117883.253    21117897.573       -1774.637  
     -1383.047          45.000          45.000  
 109081939.236 8  84998981.668 7  20757604.213    20757619.954         127.766  
        99.496          48.000          45.000  
 117218699.863 7  91339333.257 6  22305977.011    22305995.991        2882.973  
      2246.535          47.000          39.000  
 128094841.858 6  99814238.488 6  24375640.807    24375657.828       -3313.297  
     -2582.066          37.000          38.000  
 24  1 10  3 18 23.5000000  0  7G08G24G18G23G10G32G15
 130635826.386 6 101794232.670 6  24859183.999    24859204.520        2885.023  
      2248.242          36.000          36.000  
 129615291.49425 100999019.753 6  24664968.838    24664990.420         322.910  
       251.703          30.000          38.000  
 114296295.952 7  89062113.322 7  21749862.905    21749878.655       -1773.340  
     -1382.016          43.000          43.000  
 110975394.575 7  86474391.234 7  21117917.033    21117931.344       -1774.953  
     -1383.086          44.000          45.000  
 109081926.481 8  84998971.734 7  20757601.785    20757617.528         127.633  
        99.332          48.000          45.000  
 117218411.576 7  91339108.620 6  22305922.152    22305941.132        2882.863  
      2246.348          47.000          39.000  
 128095173.262 6  99814496.728 6  24375703.871    24375720.892       -3313.914  
     -2582.348          37.000          38.000  
 24  1 10  3 18 23.6000000  0  7G08G24G18G23G10G32G15
 130635537.900 6 101794007.857 6  24859128.618    24859150.220        2884.906  
      2247.863          36.000          36.000  
 129615259.25725 100998994.658 6  24664963.258    24664984.315         322.543  
       250.723          30.000          38.000  
 114296473.259 7  89062251.464 7  21749897.473    21749911.821       -1773.262  
     -1381.902          43.000          43.000  
 110975572.027 7  86474529.490 7  21117950.942    21117964.873       -1774.883  
     -1383.008          44.000          45.000  
 109081913.713 8  84998961.781 7  20757599.606    20757615.691         127.684  
        99.633          48.000          45.000  
 117218123.283 7  91338884.006 6  22305867.260    22305886.255        2882.918  
      2246.121          47.000          39.000  
 128095504.678 6  99814754.922 6  24375767.226    24375784.516       -3313.879  
     -2582.176          38.000          38.000  
 24  1 10  3 18 23.7000000  0  7G08G24G18G23G10G32G15
 130635249.420 6 101793783.081 6  24859073.722    24859095.327        2884.820  
      2247.824          36.000          36.000  
 129615227.00225 100998969.611 6  24664957.120    24664978.198         322.406  
       250.910          31.000          37.000  
 114296650.629 7  89062389.670 7  21749931.226    21749945.572       -1773.449  
     -1381.758          43.000          43.000  
 110975749.482 7  86474667.767 7  21117984.711    21117998.642       -1774.707  
     -1382.793          45.000          45.000  
 109081900.919 8  84998951.804 7  20757597.171    20757613.255         127.879  
        99.645          48.000          45.000  
 117217834.970 7  91338659.301 6  22305812.396    22305831.380        2882.965  
      2246.883          47.000          39.000  
 128095836.048 6  99815013.175 6  24375830.284    24375847.584       -3313.734  
     -2582.180          38.000          38.000  
 24  1 10  3 18 23.8000000  0  7G08G24G18G23G10G32G15
 130634960.921 6 101793558.260 6  24859019.119    24859040.627        2885.031  
      2248.316          36.000          36.000  
 129615194.84925 100998944.555 6  24664951.408    24664971.727         322.285  
       250.602          30.000          37.000  
 114296827.959 7  89062527.845 7  21749965.158    21749979.300       -1773.309  
     -1381.856          43.000          43.000  
 110975926.948 7  86474806.090 7  21118018.739    21118032.984       -1774.461  
     -1382.824          45.000          45.000  
 109081888.088 8  84998941.821 7  20757594.519    20757610.512         128.082  
        99.953          48.000          45.000  
 117217546.661 7  91338434.706 6  22305757.736    22305776.860        2883.125  
      2246.488          47.000          39.000  
 128096167.398 6  99815271.394 6  24375893.681    24375910.902       -3313.828  
     -2582.359          38.000          39.000  
 24  1 10  3 18 23.9000000  0  7G08G24G18G23G10G32G15
 130634672.410 6 101793333.470 6  24858964.217    24858985.731        2884.957  
      2248.039          36.000          36.000  
 129615162.59725 100998919.474 6  24664945.271    24664965.602         322.215  
       250.879          31.000          38.000  
 114297005.305 7  89062666.058 7  21749998.906    21750013.053       -1773.414  
     -1381.848          43.000          42.000  
 110976104.394 7  86474944.344 7  21118052.506    21118066.747       -1774.520  
     -1382.559          45.000          45.000  
 109081875.245 8  84998931.796 7  20757592.075    20757608.064         128.316  
       100.203          48.000          45.000  
 117217258.323 7  91338209.990 6  22305702.867    22305721.982        2883.250  
      2246.770          47.000          39.000  
 128096498.838 6  99815529.631 6  24375956.752    24375973.966       -3313.992  
     -2582.504          38.000          39.000  
 24  1 10  3 18 24.0000000  0  7G08G24G18G23G10G32G15
 130634383.826 6 101793108.646 6  24858909.153    24858930.858        2885.406  
      2248.051          36.000          36.000  
 129615130.45625 100998894.367 6  24664938.623    24664959.494         321.977  
       250.742          30.000          38.000  
 114297182.618 7  89062804.183 7  21750031.866    21750046.527       -1773.160  
     -1381.684          43.000          43.000  
 110976281.797 7  86475082.557 7  21118086.241    21118099.906       -1774.328  
     -1382.508          44.000          45.000  
 109081862.376 8  84998921.791 7  20757589.430    20757605.199         128.543  
       100.297          48.000          45.000  
 117216969.966 7  91337985.332 6  22305647.995    22305667.110        2883.453  
      2246.797          47.000          39.000  
 128096830.285 6  99815787.893 6  24376019.918    24376037.310       -3314.195  
     -2582.297          38.000          39.000  
 24  1 10  3 18 24.1000000  0  7G08G24G18G23G10G32G15
 130634095.366 6 101792883.810 6  24858854.261    24858875.951        2885.145  
      2248.348          36.000          36.000  
 129615098.42025 100998869.353 6  24664932.527    24664953.386         321.141  
       250.332          31.000          38.000  
 114297359.917 7  89062942.348 7  21750065.605    21750080.268       -1773.145  
     -1381.481          43.000          43.000  
 110976459.234 7  86475220.897 7  21118120.006    21118133.690       -1774.109  
     -1382.566          45.000          45.000  
 109081849.500 8  84998911.740 7  20757586.980    20757602.744         128.676  
       100.262          48.000          45.000  
 117216681.633 7  91337760.629 6  22305593.127    22305612.236        2883.477  
      2246.906          47.000          39.000  
 128097161.688 6  99816046.139 6  24376082.982    24376100.376       -3314.145  
     -2582.777          37.000          39.000  
 24  1 10  3 18 24.2000000  0  7G08G24G18G23G10G32G15
 130633806.891 6 101792659.037 6  24858799.577    24858821.239        2884.918  
      2247.648          36.000          36.000  
 129615066.16325 100998844.311 6  24664926.443    24664947.395         321.711  
       250.496          30.000          38.000  
 114297537.304 7  89063080.566 7  21750099.079    21750114.210       -1773.570  
     -1382.074          43.000          43.000  
 110976636.697 7  86475359.117 7  21118153.136    21118167.414       -1774.613  
     -1382.648          44.000          45.000  
 109081836.655 8  84998901.735 7  20757584.520    20757600.621         128.441  
       100.148          48.000          45.000  
 117216393.290 7  91337535.915 6  22305537.960    22305557.390        2883.277  
      2246.758          47.000          39.000  
 128097493.093 6  99816304.425 6  24376145.570    24376163.390       -3314.234  
     -2582.750          37.000          39.000  
 24  1 10  3 18 24.3000000  0  7G08G24G18G23G10G32G15
 130633518.361 6 101792434.164 6  24858744.671    24858766.322        2885.137  
      2248.430          36.000          36.000  
 129615034.03025 100998819.227 6  24664920.329    24664941.269         321.438  
       250.703          31.000          38.000  
 114297714.607 7  89063218.735 7  21750132.819    21750147.952       -1773.328  
     -1381.844          43.000          43.000  
 110976814.143 7  86475497.390 7  21118186.902    21118201.181       -1774.410  
     -1382.805          44.000          45.000  
 109081823.807 8  84998891.726 7  20757582.075    20757598.177         128.508  
       100.133          48.000          45.000  
 117216104.975 7  91337311.324 6  22305483.096    22305502.542        2883.320  
      2246.449          47.000          39.000  
 128097824.497 6  99816562.689 6  24376208.634    24376226.461       -3313.965  
     -2582.727          36.000          39.000  
 24  1 10  3 18 24.4000000  0  7G08G24G18G23G10G32G15
 130633229.836 6 101792209.401 6  24858689.634    24858710.659        2885.090  
      2247.977          36.000          36.000  
 129615001.96725 100998794.186 6  24664913.868    24664935.326         321.371  
       250.367          31.000          38.000  
 114297891.980 7  89063356.943 7  21750167.213    21750181.759       -1773.398  
     -1382.172          43.000          43.000  
 110976991.599 7  86475635.685 7  21118220.296    21118234.970       -1774.527  
     -1382.809          44.000          45.000  
 109081810.967 8  84998881.726 7  20757579.702    20757596.242         128.465  
       100.008          48.000          45.000  
 117215816.659 7  91337086.613 6  22305428.223    22305447.720        2883.137  
      2246.480          47.000          39.000  
 128098155.901 6  99816820.921 6  24376271.175    24376289.633       -3314.066  
     -2582.512          37.000          39.000  
 24  1 10  3 18 24.5000000  0  7G08G24G18G23G10G32G15
 130632941.343 6 101791984.564 5  24858634.736    24858655.752        2884.996  
      2248.145          36.000          35.000  
 129614969.75925 100998769.173 6  24664907.739    24664929.218         321.625  
       250.523          31.000          38.000  
 114298069.362 7  89063495.183 7  21750200.967    21750215.519       -1773.652  
     -1382.066          43.000          43.000  
 110977169.067 7  86475773.948 7  21118254.067    21118268.735       -1774.699  
     -1382.871          44.000          45.000  
 109081798.163 8  84998871.744 7  20757577.266    20757593.805         128.223  
        99.738          48.000          45.000  
 117215528.365 7  91336862.008 6  22305373.363    22305392.869        2882.996  
      2246.609          47.000          39.000  
 128098487.383 6  99817079.141 6  24376334.253    24376352.693       -3314.523  
     -2582.457          37.000          39.000  
 24  1 10  3 18 24.6000000  0  7G08G24G18G23G10G32G15
 130632652.846 6 101791759.811 6  24858579.415    24858600.521        2885.062  
      2247.777          36.000          36.000  
 129614937.68325 100998744.188 6  24664901.697    24664923.444         321.133  
       249.914          32.000          38.000  
 114298246.720 7  89063633.395 7  21750235.202    21750249.209       -1773.777  
     -1382.504          43.000          43.000  
 110977346.574 7  86475912.253 7  21118287.580    21118302.370       -1774.934  
     -1383.062          44.000          45.000  
 109081785.373 8  84998861.764 7  20757574.707    20757591.477         127.973  
        99.574          48.000          45.000  
 117215240.113 7  91336637.367 6  22305318.619    22305337.666        2882.781  
      2245.867          47.000          39.000  
 128098818.904 6  99817337.461 6  24376396.769    24376415.066       -3314.730  
     -2582.766          37.000          39.000  
 24  1 10  3 18 24.7000000  0  7G08G24G18G23G10G32G15
 130632364.393 6 101791534.993 6  24858524.524    24858545.618        2884.789  
      2248.031          36.000          36.000  
 129614905.59525 100998719.090 6  24664895.591    24664917.315         320.992  
       250.840          32.000          38.000  
 114298424.147 7  89063771.652 7  21750268.965    21750282.972       -1773.848  
     -1382.289          44.000          43.000  
 110977524.048 7  86476050.539 7  21118321.352    21118336.141       -1774.859  
     -1382.941          44.000          45.000  
 109081772.578 8  84998851.819 7  20757572.272    20757589.048         127.992  
        99.754          48.000          45.000  
 117214951.833 7  91336412.751 6  22305263.762    22305282.812        2882.754  
      2246.559          47.000          39.000  
 128099150.254 6  99817595.707 6  24376459.823    24376478.132       -3314.066  
     -2582.555          37.000          39.000  
 24  1 10  3 18 24.8000000  0  7G08G24G18G23G10G32G15
 130632075.910 6 101791310.224 6  24858469.698    24858490.782        2884.781  
      2247.582          36.000          36.000  
 129614873.46225 100998694.065 6  24664889.336    24664911.141         320.965  
       250.207          33.000          38.000  
 114298601.531 7  89063909.827 7  21750302.861    21750317.216       -1773.996  
     -1381.988          44.000          43.000  
 110977701.528 7  86476188.860 7  21118355.321    21118370.350       -1774.715  
     -1383.086          44.000          45.000  
 109081759.807 8  84998841.843 7  20757569.998    20757586.612         127.824  
        99.477          48.000          45.000  
 117214663.588 7  91336188.129 6  22305209.098    22305227.770        2882.711  
      2246.184          47.000          39.000  
 128099481.754 6  99817853.962 6  24376523.406    24376541.201       -3314.785  
     -2582.781          37.000          40.000  
 24  1 10  3 18 24.9000000  0  7G08G24G18G23G10G32G15
 130631787.472 6 101791085.472 5  24858414.810    24858435.895        2884.551  
      2247.727          37.000          35.000  
 129614841.309 5 100998669.046 6  24664883.217    24664905.031         321.574  
       250.344          33.000          38.000  
 114298778.842 7  89064048.000 7  21750336.602    21750350.960       -1773.477  
     -1381.984          44.000          43.000  
 110977878.959 7  86476327.110 7  21118389.085    21118404.112       -1774.578  
     -1382.660          44.000          45.000  
 109081746.990 8  84998831.864 7  20757567.559    20757584.175         127.984  
        99.773          48.000          45.000  
 117214375.308 7  91335963.495 6  22305154.240    22305172.912        2882.766  
      2246.309          47.000          39.000  
 128099813.128 6  99818112.225 6  24376586.464    24376604.271       -3314.195  
     -2582.340          36.000          39.000  
 24  1 10  3 18 25.0000000  0  7G08G24G18G23G10G32G15
 130631499.024 6 101790860.722 6  24858359.897    24858381.126        2884.656  
      2247.219          37.000          36.000  
 129614809.250 5 100998643.991 6  24664876.836    24664898.897         320.949  
       250.414          32.000          38.000  
 114298956.257 7  89064186.284 7  21750369.589    21750384.410       -1773.590  
     -1382.106          44.000          43.000  
 110978056.415 7  86476465.422 7  21118423.440    21118437.444       -1774.441  
     -1382.883          44.000          45.000  
 109081734.215 8  84998821.920 7  20757565.300    20757581.653         127.984  
        99.629          48.000          45.000  
 117214087.021 7  91335738.890 6  22305098.920    22305118.413        2882.797  
      2246.137          47.000          39.000  
 128100144.604 6  99818370.490 6  24376649.354    24376667.592       -3314.543  
     -2582.688          37.000          39.000  
 24  1 10  3 18 25.1000000  0  7G08G24G18G23G10G32G15
 130631210.578 6 101790635.957 6  24858305.007    24858326.236        2884.430  
      2247.758          37.000          36.000  
 129614777.077 5 100998619.010 6  24664870.713    24664892.796         321.379  
       250.184          32.000          38.000  
 114299133.576 7  89064324.380 7  21750403.332    21750418.134       -1773.617  
     -1381.727          44.000          43.000  
 110978233.867 7  86476603.685 7  21118457.208    21118471.209       -1774.543  
     -1382.656          44.000          45.000  
 109081721.392 8  84998811.920 7  20757562.860    20757579.211         128.035  
        99.824          48.000          45.000  
 117213798.715 7  91335514.206 6  22305044.057    22305063.542        2882.887  
      2246.414          47.000          39.000  
 128100476.070 6  99818628.738 6  24376712.430    24376730.659       -3314.465  
     -2582.434          37.000          39.000  
 24  1 10  3 18 25.2000000  0  7G08G24G18G23G10G32G15
 130630922.195 6 101790411.226 6  24858250.091    24858271.144        2884.156  
      2247.480          37.000          36.000  
 129614744.962 5 100998593.960 6  24664864.407    24664887.397         321.164  
       250.473          31.000          38.000  
 114299310.941 7  89064462.603 7  21750437.170    21750451.577       -1773.543  
     -1381.891          44.000          44.000  
 110978411.321 7  86476741.940 7  21118490.929    21118504.777       -1774.660  
     -1382.879          44.000          45.000  
 109081708.611 8  84998801.971 7  20757560.389    20757576.234         127.984  
        99.578          48.000          45.000  
 117213510.457 7  91335289.608 6  22304989.110    22305008.662        2882.824  
      2246.352          47.000          39.000  
 128100807.444 6  99818886.972 6  24376775.567    24376794.176       -3314.207  
     -2582.613          37.000          39.000  
 24  1 10  3 18 25.3000000  0  7G08G24G18G23G10G32G15
 130630633.770 6 101790186.490 6  24858195.205    24858216.261        2884.203  
      2247.406          37.000          36.000  
 129614712.891 5 100998568.926 6  24664858.304    24664881.284         320.961  
       250.316          31.000          39.000  
 114299488.288 7  89064600.823 7  21750470.918    21750485.332       -1773.480  
     -1382.156          44.000          44.000  
 110978588.808 7  86476880.266 7  21118524.704    21118538.558       -1774.758  
     -1382.961          44.000          45.000  
 109081695.853 8  84998792.010 7  20757557.961    20757573.802         127.668  
        99.422          48.000          45.000  
 117213222.185 7  91335064.977 6  22304934.253    22304953.805        2882.609  
      2246.348          46.000          39.000  
 128101138.879 6  99819145.270 6  24376838.637    24376857.255       -3314.262  
     -2582.664          37.000          39.000  
 24  1 10  3 18 25.4000000  0  7G08G24G18G23G10G32G15
 130630345.388 6 101789961.784 5  24858140.039    24858161.425        2883.949  
      2246.820          37.000          35.000  
 129614680.765 5 100998543.882 6  24664851.706    24664874.965         321.246  
       250.383          31.000          39.000  
 114299665.645 7  89064739.031 7  21750505.511    21750519.927       -1773.613  
     -1382.086          44.000          44.000  
 110978766.349 7  86477018.565 7  21118558.278    21118572.074       -1775.125  
     -1383.188          44.000          45.000  
 109081683.116 8  84998782.106 7  20757555.318    20757571.445         127.543  
        99.238          48.000          45.000  
 117212933.901 7  91334840.321 6  22304879.527    22304898.606        2882.672  
      2246.348          47.000          39.000  
 128101470.375 6  99819403.570 6  24376901.695    24376920.678       -3314.590  
     -2582.973          37.000          39.000  
 24  1 10  3 18 25.5000000  0  7G08G24G18G23G10G32G15
 130630057.094 6 101789737.138 5  24858085.178    24858106.564        2883.500  
      2246.680          37.000          35.000  
 129614648.593 5 100998518.901 6  24664845.584    24664868.864         321.141  
       249.840          30.000          39.000  
 114299843.071 7  89064877.287 7  21750539.274    21750553.691       -1773.941  
     -1382.574          43.000          44.000  
 110978943.892 7  86477156.940 7  21118592.063    21118605.867       -1775.254  
     -1383.656          43.000          45.000  
 109081670.420 8  84998772.204 7  20757552.902    20757569.027         127.191  
        98.871          48.000          45.000  
 117212645.673 7  91334615.766 6  22304824.679    22304843.767        2882.602  
      2245.773          47.000          39.000  
 128101801.846 6  99819661.854 6  24376964.772    24376983.754       -3314.711  
     -2583.195          37.000          39.000  
 24  1 10  3 18 25.6000000  0  7G08G24G18G23G10G32G15
 130629768.735 6 101789512.472 5  24858030.751    24858051.549        2883.461  
      2246.473          37.000          35.000  
 129614616.557 4 100998493.937 6  24664839.456    24664862.455         320.699  
       249.766          29.000          39.000  
 114300020.498 7  89065015.516 7  21750572.389    21750587.541       -1774.102  
     -1382.754          43.000          43.000  
 110979121.455 7  86477295.332 7  21118625.532    21118639.921       -1775.453  
     -1383.824          43.000          44.000  
 109081657.777 8  84998762.348 7  20757550.754    20757566.386         126.797  
        98.598          48.000          45.000  
 117212357.433 7  91334391.189 6  22304770.392    22304788.611        2882.438  
      2245.871          47.000          39.000  
 128102133.443 6  99819920.188 6  24377027.310    24377046.677       -3315.336  
     -2583.297          36.000          39.000  
 24  1 10  3 18 25.7000000  0  7G08G24G18G23G10G32G15
 130629480.537 6 101789287.906 5  24857975.908    24857996.708        2882.699  
      2245.906          37.000          35.000  
 129614584.595 4 100998468.928 6  24664833.374    24664856.348         320.383  
       249.969          29.000          39.000  
 114300197.914 7  89065153.775 7  21750606.150    21750621.306       -1774.242  
     -1382.523          43.000          44.000  
 110979299.095 7  86477433.756 7  21118659.336    21118673.726       -1775.859  
     -1384.090          43.000          44.000  
 109081645.146 7  84998752.528 7  20757548.351    20757563.988         126.516  
        98.129          47.000          44.000  
 117212069.163 7  91334166.519 6  22304715.536    22304733.744        2882.586  
      2246.141          47.000          40.000  
 128102465.018 6  99820178.552 6  24377090.406    24377109.772       -3315.543  
     -2583.750          36.000          38.000  
 24  1 10  3 18 25.8000000  0  7G08G24G18G23G10G32G15
 130629192.363 6 101789063.347 5  24857921.383    24857941.962        2882.012  
      2245.383          37.000          35.000  
 129614552.32534 100998443.982 6  24664827.796    24664850.490         321.590  
       249.742          28.000          38.000  
 114300375.382 7  89065292.038 7  21750639.132    21750654.868       -1774.707  
     -1382.727          43.000          44.000  
 110979476.812 7  86477572.179 7  21118693.201    21118708.116       -1777.496  
     -1384.625          43.000          44.000  
 109081632.616 7  84998742.761 7  20757545.662    20757561.814         125.316  
        97.637          47.000          44.000  
 117211780.913 7  91333941.973 6  22304660.676    22304678.751        2882.500  
      2245.973          46.000          39.000  
 128102796.628 6  99820436.956 6  24377153.166    24377172.346       -3316.051  
     -2583.828          36.000          38.000  
 24  1 10  3 18 25.9000000  0  7G08G24G18G23G10G32G15
 130628904.267 6 101788838.862 5  24857866.560    24857887.141        2880.996  
      2244.852          36.000          35.000  
 129614520.46534 100998418.929 6  24664821.710    24664844.372         319.703  
       250.434          26.000          38.000  
 114300552.787 7  89065430.307 7  21750672.891    21750688.635       -1774.234  
     -1382.727          44.000          43.000  
 110979654.508 7  86477710.651 7  21118727.015    21118741.932       -1776.902  
     -1384.922          42.000          44.000  
 109081620.108 7  84998733.002 7  20757543.281    20757559.430         124.992  
        97.496          47.000          44.000  
 117211492.603 7  91333717.274 6  22304605.812    22304623.877        2883.090  
      2246.469          46.000          40.000  
 128103128.231 6  99820695.413 6  24377216.268    24377235.464       -3316.172  
     -2584.543          37.000          37.000  
 24  1 10  3 18 26.0000000  0  7G08G24G18G23G10G32G15
 130628616.292 5 101788614.447 5  24857811.604    24857832.196        2879.688  
      2244.203          35.000          35.000  
 129614488.37924 100998393.926 6  24664815.659    24664838.031         320.816  
       250.148          26.000          39.000  
 114300730.224 7  89065568.544 7  21750706.547    21750722.487       -1774.207  
     -1382.195          44.000          44.000  
 110979832.282 7  86477849.167 7  21118760.626    21118776.048       -1777.672  
     -1385.031          42.000          44.000  
 109081607.638 7  84998723.298 7  20757540.947    20757556.920         124.699  
        97.086          47.000          44.000  
 117211204.236 7  91333492.602 6  22304551.141    22304569.041        2883.789  
      2247.004          46.000          40.000  
 128103459.932 6  99820953.817 6  24377280.115    24377298.373       -3316.957  
     -2584.086          38.000          37.000  
 24  1 10  3 18 26.1000000  0  7G08G24G18G23G10G32G15
 130628328.376 5 101788390.110 5  24857756.816    24857777.410        2879.477  
      2243.723          35.000          35.000  
 129614456.23324 100998368.901 6  24664809.542    24664831.920         321.207  
       250.477          29.000          38.000  
 114300907.617 7  89065706.771 7  21750740.304    21750756.244       -1773.969  
     -1382.551          44.000          44.000  
 110980010.022 7  86477987.663 7  21118794.449    21118809.871       -1777.605  
     -1385.098          43.000          44.000  
 109081595.190 7  84998713.580 7  20757538.579    20757554.547         124.496  
        97.133          47.000          44.000  
 117210915.802 7  91333267.835 6  22304496.254    22304514.151        2884.352  
      2247.652          46.000          41.000  
 128103791.588 6  99821212.303 6  24377343.227    24377361.498       -3316.754  
     -2584.609          38.000          37.000  
 24  1 10  3 18 26.2000000  0  7G08G24G18G23G10G32G15
 130628040.554 5 101788165.869 5  24857701.740    24857722.695        2878.180  
      2242.355          35.000          35.000  
 129614424.07624 100998343.925 6  24664803.782    24664825.680         322.066  
       249.652          29.000          38.000  
 114301084.983 7  89065845.048 7  21750774.555    21750789.731       -1773.609  
     -1382.484          44.000          44.000  
 110980187.916 7  86478126.284 7  21118828.480    21118843.856       -1779.242  
     -1386.039          43.000          44.000  
 109081582.813 7  84998703.958 7  20757536.302    20757551.869         123.590  
        96.469          47.000          44.000  
 117210627.328 7  91333043.055 6  22304441.304    22304459.257        2885.250  
      2248.047          46.000          41.000  
 128104123.374 6  99821470.821 6  24377407.270    24377424.631       -3317.793  
     -2585.273          39.000          37.000  
 24  1 10  3 18 26.3000000  0  7G08G24G18G23G10G32G15
 130627752.830 5 101787941.589 5  24857646.988    24857667.924        2876.711  
      2242.734          35.000          35.000  
 129614391.98225 100998318.923 6  24664797.674    24664819.574         320.574  
       250.164          30.000          38.000  
 114301262.393 7  89065983.253 7  21750808.315    21750823.482       -1774.090  
     -1382.074          45.000          44.000  
 110980365.806 7  86478264.886 7  21118862.332    21118877.704       -1779.078  
     -1386.320          43.000          44.000  
 109081570.457 7  84998694.327 7  20757533.950    20757549.517         123.559  
        96.133          47.000          44.000  
 117210338.763 7  91332818.205 6  22304386.392    22304404.347        2885.895  
      2248.434          46.000          41.000  
 128104455.200 6  99821729.386 6  24377470.415    24377487.775       -3318.410  
     -2585.430          39.000          37.000  
 24  1 10  3 18 26.4000000  0  7G08G24G18G23G10G32G15
 130627465.206 6 101787717.480 5  24857591.841    24857612.991        2876.383  
      2241.051          36.000          34.000  
 129614359.89625 100998293.891 6  24664792.030    24664813.696         320.695  
       250.141          30.000          38.000  
 114301439.754 7  89066121.466 7  21750842.293    21750857.274       -1773.504  
     -1382.191          44.000          44.000  
 110980543.731 7  86478403.561 7  21118896.151    21118911.336       -1779.086  
     -1386.625          44.000          44.000  
 109081558.138 7  84998684.727 7  20757531.887    20757547.039         122.863  
        96.043          47.000          44.000  
 117210050.135 7  91332593.305 6  22304330.765    22304349.705        2886.820  
      2249.293          46.000          41.000  
 128104787.041 6  99821987.983 6  24377534.109    24377550.881       -3318.617  
     -2586.023          39.000          36.000  
 24  1 10  3 18 26.5000000  0  7G08G24G18G23G10G32G15
 130627177.631 6 101787493.473 5  24857537.117    24857558.286        2874.484  
      2240.652          36.000          34.000  
 129614327.80625 100998268.894 6  24664785.923    24664807.591         320.547  
       250.000          30.000          38.000  
 114301617.106 7  89066259.627 7  21750876.042    21750891.015       -1773.352  
     -1381.711          44.000          44.000  
 110980721.755 7  86478542.309 7  21118930.028    21118945.219       -1780.840  
     -1387.000          43.000          44.000  
 109081545.864 7  84998675.152 7  20757529.552    20757544.701         122.625  
        95.609          47.000          44.000  
 117209761.427 7  91332368.335 6  22304275.826    22304294.765        2886.988  
      2249.375          46.000          41.000  
 128105118.981 6  99822246.643 6  24377597.275    24377614.048       -3319.824  
     -2586.566          39.000          36.000  
 24  1 10  3 18 26.6000000  0  7G08G24G18G23G10G32G15
 130626890.271 6 101787269.449 5  24857482.489    24857503.702        2874.078  
      2239.961          36.000          34.000  
 129614295.67024 100998243.894 6  24664779.550    24664801.158         321.168  
       249.961          28.000          39.000  
 114301794.494 7  89066397.854 7  21750909.899    21750925.310       -1773.953  
     -1381.898          44.000          44.000  
 110980899.779 7  86478680.960 7  21118964.068    21118978.931       -1780.320  
     -1387.484          43.000          44.000  
 109081533.621 7  84998665.627 7  20757527.206    20757542.578         122.281  
        95.434          47.000          44.000  
 117209472.664 7  91332143.329 7  22304220.899    22304240.418        2888.375  
      2250.215          46.000          42.000  
 128105451.003 6  99822505.386 6  24377661.003    24377677.032       -3320.133  
     -2587.527          38.000          36.000  
 24  1 10  3 18 26.7000000  0  7G08G24G18G23G10G32G15
 130626602.891 6 101787045.579 5  24857427.803    24857449.031        2873.285  
      2239.199          36.000          34.000  
 129614263.70624 100998218.912 6  24664773.467    24664795.057         318.035  
       250.035          28.000          39.000  
 114301971.802 7  89066535.980 7  21750943.639    21750959.042       -1772.785  
     -1381.766          44.000          44.000  
 110981077.834 7  86478819.795 7  21118997.951    21119012.836       -1780.496  
     -1387.781          43.000          44.000  
 109081521.409 7  84998656.108 7  20757524.882    20757540.254         121.777  
        95.129          47.000          44.000  
 117209183.804 7  91331918.233 6  22304165.931    22304185.447        2889.059  
      2250.828          46.000          41.000  
 128105783.122 6  99822764.160 6  24377724.204    24377740.228       -3321.219  
     -2587.617          37.000          36.000  
 24  1 10  3 18 26.8000000  0  7G08G24G18G23G10G32G15
 130626315.602 5 101786821.707 5  24857373.618    24857395.054        2871.938  
      2238.457          35.000          34.000  
 129614231.74424 100998193.925 6  24664767.096    24664789.072         320.629  
       249.926          28.000          39.000  
 114302149.066 7  89066674.161 7  21750977.567    21750993.256       -1772.566  
     -1381.492          45.000          44.000  
 110981255.948 7  86478958.556 7  21119032.181    21119046.707       -1781.539  
     -1387.594          43.000          44.000  
 109081509.210 7  84998646.580 7  20757522.491    20757537.966         122.043  
        95.078          47.000          44.000  
 117208894.873 7  91331693.082 6  22304111.293    22304130.174        2889.742  
      2251.402          46.000          41.000  
 128106115.220 6  99823022.948 6  24377787.056    24377803.536       -3322.016  
     -2587.832          37.000          36.000  
 24  1 10  3 18 26.9000000  0  7G08G24G18G23G10G32G15
 130626028.420 6 101786597.932 5  24857318.969    24857340.406        2871.629  
      2238.195          36.000          34.000  
 129614199.52434 100998168.915 6  24664760.981    24664782.964         321.328  
       250.055          27.000          39.000  
 114302326.365 7  89066812.322 7  21751011.306    21751026.996       -1772.938  
     -1381.453          45.000          44.000  
 110981434.129 7  86479097.356 7  21119066.088    21119080.603       -1782.141  
     -1388.172          43.000          44.000  
 109081497.061 7  84998637.131 7  20757520.179    20757535.658         121.715  
        94.891          47.000          44.000  
 117208605.906 7  91331467.940 7  22304056.304    22304075.192        2890.102  
      2252.023          46.000          42.000  
 128106447.394 6  99823281.808 6  24377850.266    24377866.752       -3322.309  
     -2588.668          38.000          36.000  
 24  1 10  3 18 27.0000000  0  6G08G10G18G23G32G15
 130625741.311 6 101786374.207 5  24857264.240    24857285.731        2870.848  
      2237.430          36.000          34.000  
 109081484.895 7  84998627.658 7  20757517.793    20757533.564         121.562  
        94.469          47.000          44.000  
 114302503.670 7  89066950.461 7  21751045.522    21751060.239       -1773.281  
     -1381.582          45.000          44.000  
 110981612.329 7  86479236.216 7  21119099.647    21119115.014       -1781.906  
     -1388.453          43.000          44.000  
 117208316.870 7  91331242.685 6  22304001.358    22304020.112        2890.355  
      2252.055          46.000          41.000  
 128106779.663 6  99823540.702 6  24377913.152    24377930.297       -3322.969  
     -2588.945          38.000          37.000  
 24  1 10  3 18 27.1000000  0  6G08G10G18G23G32G15
 130625454.274 6 101786150.543 5  24857209.619    24857231.110        2869.867  
      2236.895          36.000          34.000  
 109081472.811 7  84998618.235 7  20757515.494    20757531.262         120.492  
        94.469          47.000          44.000  
 114302680.984 7  89067088.633 7  21751079.264    21751093.982       -1773.383  
     -1381.691          44.000          44.000  
 110981790.527 7  86479375.097 7  21119133.556    21119148.930       -1782.066  
     -1388.898          43.000          44.000  
 117208027.832 7  91331017.485 6  22303946.355    22303965.116        2890.418  
      2252.262          46.000          41.000  
 128107111.933 6  99823799.627 6  24377976.380    24377993.529       -3322.621  
     -2589.191          37.000          37.000  
 24  1 10  3 18 27.2000000  0  6G08G10G18G23G32G15
 130625167.263 6 101785926.915 5  24857155.104    24857176.396        2870.062  
      2236.199          36.000          35.000  
 109081460.686 8  84998608.758 7  20757513.218    20757529.229         121.172  
        94.309          48.000          44.000  
 114302858.251 7  89067226.767 7  21751112.536    21751127.661       -1772.375  
     -1381.352          44.000          44.000  
 110981968.746 7  86479513.984 7  21119167.595    21119182.856       -1782.102  
     -1388.871          43.000          44.000  
 117207738.722 7  91330792.169 6  22303891.371    22303910.240        2891.438  
      2252.910          47.000          41.000  
 128107444.295 6  99824058.557 6  24378039.275    24378057.317       -3323.590  
     -2589.168          36.000          38.000  
 24  1 10  3 18 27.3000000  0  6G08G10G18G23G32G15
 130624880.275 6 101785703.246 5  24857100.492    24857121.774        2869.992  
      2236.562          36.000          35.000  
 109081448.563 8  84998599.324 7  20757510.911    20757526.926         121.371  
        94.520          48.000          44.000  
 114303035.545 7  89067364.940 7  21751146.274    21751161.404       -1773.031  
     -1381.391          44.000          44.000  
 110982147.007 7  86479652.870 7  21119201.517    21119216.773       -1782.465  
     -1388.797          43.000          45.000  
 117207449.573 7  91330566.854 6  22303836.348    22303855.216        2891.562  
      2253.098          47.000          41.000  
 128107776.573 6  99824317.463 6  24378102.506    24378120.544       -3323.203  
     -2589.352          36.000          37.000  
 24  1 10  3 18 27.4000000  0  6G08G10G18G23G32G15
 130624593.297 6 101785479.643 5  24857046.241    24857066.871        2869.867  
      2235.906          37.000          35.000  
 109081436.457 8  84998589.898 7  20757508.474    20757524.670         121.180  
        94.387          48.000          45.000  
 114303212.815 7  89067503.037 7  21751179.507    21751194.934       -1772.914  
     -1381.293          44.000          44.000  
 110982325.224 7  86479791.742 7  21119235.095    21119250.234       -1782.109  
     -1388.953          43.000          45.000  
 117207160.401 7  91330341.507 6  22303781.265    22303799.957        2891.699  
      2253.508          47.000          41.000  
 128108109.004 6  99824576.477 6  24378165.718    24378183.759       -3323.844  
     -2589.957          36.000          37.000  
 24  1 10  3 18 27.5000000  0  6G08G10G18G23G32G15
 130624306.354 6 101785256.043 5  24856991.638    24857012.266        2869.254  
      2235.770          36.000          35.000  
 109081424.345 8  84998580.466 7  20757506.169    20757522.367         121.105  
        94.320          48.000          45.000  
 114303390.118 7  89067641.197 7  21751213.247    21751228.674       -1772.969  
     -1381.375          44.000          44.000  
 110982503.504 7  86479930.693 7  21119269.021    21119284.167       -1782.441  
     -1389.004          43.000          45.000  
 117206871.229 7  91330116.205 6  22303726.238    22303744.936        2891.797  
      2253.305          47.000          41.000  
 128108441.313 6  99824835.463 6  24378228.955    24378247.006       -3323.305  
     -2589.812          37.000          37.000  
 24  1 10  3 18 27.6000000  0  6G08G10G18G23G32G15
 130624019.446 6 101785032.481 5  24856936.768    24856957.115        2869.465  
      2235.918          37.000          35.000  
 109081412.238 8  84998571.019 7  20757503.944    20757520.130         121.051  
        94.285          48.000          45.000  
 114303567.364 7  89067779.298 7  21751247.163    21751262.306       -1772.746  
     -1381.402          44.000          44.000  
 110982681.776 7  86480069.569 7  21119303.304    21119317.684       -1782.754  
     -1389.020          44.000          45.000  
 117206582.046 7  91329890.849 6  22303671.060    22303690.105        2891.645  
      2253.402          47.000          40.000  
 128108773.676 6  99825094.463 6  24378292.303    24378310.100       -3323.543  
     -2590.211          36.000          38.000  
 24  1 10  3 18 27.7000000  0  6G08G10G18G23G32G15
 130623732.510 6 101784808.905 5  24856882.165    24856902.516        2869.328  
      2235.574          37.000          35.000  
 109081400.136 8  84998561.607 7  20757501.641    20757517.832         121.105  
        94.379          48.000          45.000  
 114303744.606 7  89067917.448 7  21751280.891    21751296.043       -1772.477  
     -1381.344          44.000          44.000  
 110982860.055 7  86480208.488 7  21119337.229    21119351.609       -1782.641  
     -1389.094          44.000          45.000  
 117206292.862 7  91329665.497 6  22303616.030    22303635.072        2891.785  
      2253.414          47.000          40.000  
 128109106.093 6  99825353.493 6  24378355.559    24378373.358       -3323.801  
     -2590.168          37.000          38.000  
 24  1 10  3 18 27.8000000  0  6G08G10G18G23G32G15
 130623445.685 6 101784585.405 6  24856827.381    24856848.192        2868.867  
      2235.125          37.000          36.000  
 109081388.034 8  84998552.157 7  20757499.150    20757515.180         120.977  
        94.297          48.000          45.000  
 114303921.883 7  89068055.578 7  21751314.532    21751330.190       -1772.695  
     -1381.250          43.000          44.000  
 110983038.313 7  86480347.387 7  21119371.237    21119385.733       -1782.758  
     -1389.301          43.000          45.000  
 117206003.650 7  91329440.169 6  22303560.666    22303580.029        2891.980  
      2253.828          47.000          40.000  
 128109438.528 6  99825612.531 6  24378418.367    24378436.556       -3324.008  
     -2590.129          37.000          38.000  
 24  1 10  3 18 27.9000000  0  6G08G10G18G23G32G15
 130623158.763 6 101784361.862 6  24856772.782    24856793.601        2868.930  
      2235.234          37.000          36.000  
 109081375.957 8  84998542.745 7  20757496.852    20757512.882         120.922  
        94.070          48.000          45.000  
 114304099.122 7  89068193.647 7  21751348.260    21751363.908       -1772.574  
     -1380.848          44.000          44.000  
 110983216.615 7  86480486.320 7  21119405.166    21119419.662       -1782.711  
     -1388.945          44.000          45.000  
 117205714.448 7  91329214.793 6  22303505.633    22303524.990        2892.012  
      2253.359          47.000          40.000  
 128109770.846 6  99825871.496 6  24378481.605    24378499.797       -3323.707  
     -2589.906          37.000          38.000  
 24  1 10  3 18 28.0000000  0  6G08G10G18G23G32G15
 130622872.009 6 101784138.362 6  24856718.355    24856739.442        2868.262  
      2235.328          37.000          36.000  
 109081363.897 8  84998533.365 7  20757494.432    20757510.794         120.797  
        93.910          48.000          45.000  
 114304276.362 7  89068331.756 7  21751382.097    21751397.315       -1772.406  
     -1380.996          44.000          44.000  
 110983394.898 7  86480625.226 7  21119438.765    21119453.943       -1782.684  
     -1389.145          43.000          45.000  
 117205425.244 7  91328989.478 6  22303450.404    22303469.669        2891.996  
      2253.047          47.000          40.000  
 128110103.283 6  99826130.494 6  24378544.475    24378562.258       -3323.867  
     -2589.980          37.000          38.000  
 24  1 10  3 18 28.1000000  0  6G08G10G18G23G32G15
 130622585.204 6 101783914.920 6  24856663.778    24856684.875        2868.035  
      2234.094          36.000          36.000  
 109081351.891 8  84998524.019 7  20757492.148    20757508.512         120.305  
        93.582          48.000          45.000  
 114304453.636 7  89068469.894 7  21751415.831    21751431.050       -1772.633  
     -1381.387          44.000          44.000  
 110983573.193 7  86480764.171 7  21119472.693    21119487.875       -1783.016  
     -1389.648          43.000          45.000  
 117205136.039 7  91328764.121 6  22303395.370    22303414.634        2892.027  
      2253.707          47.000          40.000  
 128110435.680 6  99826389.525 6  24378607.728    24378625.516       -3324.168  
     -2590.371          37.000          38.000  
 24  1 10  3 18 28.2000000  0  7G08G24G18G23G10G32G15
 130622298.511 6 101783691.522 6  24856609.113    24856630.702        2867.613  
      2234.203          36.000          36.000  
 129613783.33036 100997844.557 6  24664683.164    24664704.190         320.328  
       249.438          36.000          40.000  
 114304630.886 7  89068608.012 7  21751449.904    21751464.522       -1772.609  
     -1381.309          44.000          44.000  
 110983751.563 7  86480903.184 7  21119507.065    21119521.074       -1783.215  
     -1389.922          43.000          45.000  
 109081339.958 8  84998514.710 7  20757490.002    20757505.910         119.809  
        93.039          48.000          45.000  
 117204846.878 7  91328538.783 6  22303340.438    22303358.995        2891.859  
      2253.469          47.000          40.000  
 128110768.147 6  99826648.552 6  24378671.041    24378688.687       -3324.324  
     -2590.145          37.000          38.000  
 24  1 10  3 18 28.3000000  0  7G08G24G18G23G10G32G15
 130622011.821 6 101783468.110 6  24856554.557    24856576.142        2867.055  
      2233.797          36.000          36.000  
 129613751.28925 100997819.619 6  24664677.067    24664698.100         320.273  
       249.469          35.000          40.000  
 114304808.204 7  89068746.201 7  21751483.647    21751498.269       -1772.836  
     -1381.742          44.000          44.000  
 110983930.053 7  86481042.259 7  21119541.031    21119555.037       -1784.125  
     -1390.586          43.000          45.000  
 109081328.108 8  84998505.475 7  20757487.747    20757503.655         119.031  
        92.227          48.000          45.000  
 117204557.746 7  91328313.513 6  22303285.418    22303303.982        2891.520  
      2252.430          47.000          39.000  
 128111100.638 6  99826907.607 6  24378734.312    24378751.951       -3324.809  
     -2590.785          37.000          38.000  
 24  1 10  3 18 28.4000000  0  7G08G24G18G23G10G32G15
 130621725.304 6 101783244.873 6  24856499.816    24856522.352        2865.809  
      2232.711          36.000          36.000  
 129613719.25825 100997794.682 6  24664670.909    24664691.674         320.832  
       249.605          34.000          40.000  
 114304985.512 7  89068884.383 7  21751517.481    21751532.226       -1773.215  
     -1381.762          44.000          44.000  
 110984108.534 7  86481181.307 7  21119574.752    21119589.002       -1785.270  
     -1390.836          43.000          45.000  
 109081316.326 7  84998496.302 7  20757485.489    20757501.196         117.621  
        91.652          47.000          45.000  
 117204268.595 7  91328088.234 6  22303230.606    22303249.052        2891.242  
      2252.801          47.000          40.000  
 128111433.165 6  99827166.734 6  24378797.402    24378814.944       -3325.043  
     -2591.051          37.000          38.000  
 24  1 10  3 18 28.5000000  0  7G08G24G18G23G10G32G15
 130621438.810 6 101783021.594 6  24856445.298    24856467.825        2864.781  
      2232.863          36.000          36.000  
 129613687.16925 100997769.694 6  24664664.803    24664685.572         320.312  
       249.539          33.000          40.000  
 114305162.802 7  89069022.508 7  21751551.218    21751565.957       -1772.875  
     -1381.535          45.000          45.000  
 110984287.050 7  86481320.408 7  21119608.723    21119622.972       -1785.258  
     -1391.207          43.000          45.000  
 109081304.598 7  84998487.188 7  20757483.257    20757498.970         117.316  
        91.262          47.000          45.000  
 117203979.462 7  91327862.918 6  22303175.586    22303194.028        2891.523  
      2253.215          47.000          40.000  
 128111765.661 6  99827425.817 6  24378860.674    24378878.214       -3325.184  
     -2591.145          37.000          38.000  
 24  1 10  3 18 28.6000000  0  7G08G24G18G23G10G32G15
 130621152.388 6 101782798.393 6  24856390.950    24856413.129        2864.348  
      2231.969          36.000          36.000  
 129613655.21825 100997744.725 6  24664658.567    24664679.373         319.828  
       249.742          33.000          40.000  
 114305340.161 7  89069160.743 7  21751584.773    21751600.200       -1773.324  
     -1381.867          45.000          45.000  
 110984465.653 7  86481459.621 7  21119642.694    21119657.274       -1785.707  
     -1391.684          43.000          45.000  
 109081292.941 7  84998478.054 7  20757481.227    20757497.021         116.430  
        90.938          47.000          44.000  
 117203690.306 7  91327637.612 6  22303120.608    22303139.646        2891.574  
      2253.172          47.000          40.000  
 128112098.236 6  99827684.955 6  24378924.008    24378941.702       -3325.445  
     -2591.426          37.000          37.000  
 24  1 10  3 18 28.7000000  0  7G08G24G18G23G10G32G15
 130620866.074 5 101782575.285 5  24856336.467    24856358.644        2863.555  
      2231.367          35.000          35.000  
 129613623.11925 100997719.742 6  24664652.458    24664673.272         321.172  
       249.848          34.000          40.000  
 114305517.484 7  89069298.865 7  21751618.517    21751633.931       -1773.414  
     -1381.820          44.000          44.000  
 110984644.272 7  86481598.776 7  21119676.684    21119691.257       -1786.301  
     -1391.719          43.000          45.000  
 109081281.303 7  84998469.007 7  20757479.012    20757494.812         116.492  
        90.746          47.000          44.000  
 117203401.093 7  91327412.222 6  22303065.573    22303084.604        2892.270  
      2253.629          46.000          40.000  
 128112430.802 6  99827944.152 6  24378987.293    24379005.000       -3325.617  
     -2591.750          38.000          37.000  
 24  1 10  3 18 28.8000000  0  7G08G24G18G23G10G32G15
 130620579.766 5 101782352.230 5  24856282.023    24856303.883        2862.957  
      2230.797          35.000          35.000  
 129613590.95125 100997694.777 6  24664646.470    24664666.909         321.281  
       249.816          33.000          39.000  
 114305694.677 7  89069436.999 7  21751651.532    21751667.485       -1771.742  
     -1381.000          44.000          44.000  
 110984822.882 7  86481737.931 7  21119710.907    21119725.396       -1786.207  
     -1391.629          43.000          45.000  
 109081269.690 7  84998459.937 7  20757476.787    20757492.175         116.090  
        90.680          47.000          44.000  
 117203111.784 7  91327186.810 6  22303010.417    22303029.899        2892.926  
      2254.211          46.000          40.000  
 128112763.405 6  99828203.320 6  24379050.656    24379068.792       -3325.957  
     -2591.598          37.000          37.000  
 24  1 10  3 18 28.9000000  0  7G08G24G18G23G10G32G15
 130620293.577 5 101782129.189 5  24856227.563    24856249.414        2861.852  
      2230.395          35.000          35.000  
 129613558.86525 100997669.735 6  24664640.364    24664660.794         321.078  
       250.340          34.000          39.000  
 114305871.941 7  89069575.091 7  21751685.264    21751701.208       -1772.480  
     -1380.711          45.000          45.000  
 110985001.516 7  86481877.124 7  21119744.900    21119759.389       -1786.164  
     -1391.953          43.000          45.000  
 109081258.077 7  84998450.901 7  20757474.577    20757489.968         116.125  
        90.359          47.000          44.000  
 117202822.439 7  91326961.336 6  22302955.357    22302974.837        2893.789  
      2254.867          46.000          41.000  
 128113096.001 6  99828462.479 6  24379113.947    24379132.081       -3325.855  
     -2591.594          38.000          37.000  
 24  1 10  3 18 29.0000000  0  7G08G24G18G23G10G32G15
 130620007.488 5 101781906.277 5  24856173.325    24856194.781        2861.082  
      2229.238          35.000          35.000  
 129613526.81925 100997644.724 6  24664634.211    24664654.506         320.328  
       250.055          32.000          39.000  
 114306049.149 7  89069713.144 7  21751718.939    21751735.071       -1772.340  
     -1380.996          44.000          45.000  
 110985180.140 7  86482016.375 7  21119779.305    21119793.606       -1786.480  
     -1392.551          43.000          45.000  
 109081246.493 7  84998441.873 7  20757472.114    20757488.310         115.891  
        90.281          47.000          44.000  
 117202532.999 7  91326735.796 6  22302900.184    22302919.562        2894.461  
      2255.543          46.000          41.000  
 128113428.712 6  99828721.707 6  24379178.072    24379195.731       -3327.082  
     -2592.273          38.000          37.000  
 24  1 10  3 18 29.1000000  0  7G08G24G18G23G10G32G15
 130619721.387 6 101781683.375 5  24856118.882    24856140.346        2860.812  
      2228.902          36.000          35.000  
 129613494.88034 100997619.719 6  24664628.157    24664648.400         318.246  
       250.113          29.000          39.000  
 114306226.323 7  89069851.249 7  21751752.654    21751768.797       -1771.582  
     -1380.648          44.000          44.000  
 110985358.877 7  86482155.644 7  21119813.317    21119827.617       -1787.027  
     -1392.383          43.000          44.000  
 109081234.908 7  84998432.837 7  20757469.910    20757486.104         115.832  
        90.367          47.000          44.000  
 117202243.494 7  91326510.239 6  22302845.093    22302864.479        2895.109  
      2255.719          46.000          41.000  
 128113761.465 6  99828980.956 6  24379241.393    24379259.042       -3327.316  
     -2592.676          38.000          37.000  
 24  1 10  3 18 29.2000000  0  6G08G10G18G23G32G15
 130619435.523 5 101781460.560 5  24856064.500    24856085.995        2859.262  
      2228.047          35.000          35.000  
 109081223.358 7  84998423.843 7  20757467.822    20757483.907         115.477  
        90.043          47.000          44.000  
 114306403.506 7  89069989.302 7  21751786.269    21751802.206       -1771.918  
     -1380.457          45.000          44.000  
 110985537.624 7  86482294.885 7  21119847.184    21119860.535       -1787.605  
     -1392.746          42.000          44.000  
 117201953.921 7  91326284.559 6  22302789.841    22302809.178        2895.559  
      2256.484          46.000          41.000  
 128114094.247 6  99829240.298 6  24379304.985    24379322.884       -3327.809  
     -2593.223          39.000          37.000  
 24  1 10  3 18 29.3000000  0  6G08G10G18G23G32G15
 130619149.550 6 101781237.784 5  24856010.081    24856031.591        2859.562  
      2227.922          36.000          35.000  
 109081211.776 7  84998414.813 7  20757465.618    20757481.702         115.727  
        90.141          47.000          45.000  
 114306580.627 7  89070127.298 7  21751819.974    21751835.906       -1771.258  
     -1380.234          45.000          44.000  
 110985716.353 7  86482434.145 7  21119881.195    21119894.544       -1787.336  
     -1392.598          42.000          44.000  
 117201664.276 7  91326058.865 6  22302734.724    22302754.061        2896.660  
      2257.301          46.000          41.000  
 128114427.052 6  99829499.642 6  24379368.315    24379386.218       -3327.980  
     -2593.230          39.000          37.000  
 24  1 10  3 18 29.4000000  0  6G08G10G18G23G32G15
 130618863.684 6 101781014.975 6  24855956.112    24855977.022        2858.824  
      2228.070          36.000          36.000  
 109081200.238 8  84998405.826 7  20757463.656    20757479.913         115.492  
        90.008          48.000          45.000  
 114306757.767 7  89070265.368 7  21751854.253    21751869.234       -1771.215  
     -1380.363          45.000          44.000  
 110985895.099 7  86482573.466 7  21119914.646    21119928.247       -1787.598  
     -1393.164          42.000          44.000  
 117201374.608 7  91325833.125 6  22302680.078    22302699.245        2896.777  
      2257.379          46.000          41.000  
 128114759.879 6  99829759.027 6  24379431.970    24379449.829       -3328.445  
     -2594.090          39.000          37.000  
 24  1 10  3 18 29.5000000  0  6G08G10G18G23G32G15
 130618577.755 6 101780792.184 5  24855901.701    24855922.614        2859.094  
      2227.777          36.000          35.000  
 109081188.624 8  84998396.789 7  20757461.446    20757477.707         116.070  
        90.426          48.000          45.000  
 114306934.916 7  89070403.395 7  21751887.964    21751902.942       -1771.512  
     -1380.344          45.000          44.000  
 110986073.861 7  86482712.745 7  21119948.664    21119962.261       -1787.574  
     -1392.684          42.000          44.000  
 117201084.882 7  91325607.354 6  22302624.945    22302644.110        2897.211  
      2257.699          47.000          41.000  
 128115092.791 6  99830018.450 6  24379495.322    24379513.182       -3328.863  
     -2594.062          40.000          37.000  
 24  1 10  3 18 29.6000000  0  6G08G10G18G23G32G15
 130618291.864 6 101780569.360 6  24855847.345    24855867.918        2858.844  
      2228.488          36.000          36.000  
 109081176.958 8  84998387.676 7  20757459.375    20757475.669         116.789  
        91.062          48.000          45.000  
 114307112.030 7  89070541.390 7  21751921.964    21751936.657       -1771.309  
     -1380.078          45.000          44.000  
 110986252.557 7  86482851.983 7  21119982.465    21119996.295       -1787.199  
     -1392.481          42.000          44.000  
 117200795.085 7  91325381.545 6  22302569.978    22302589.332        2897.910  
      2258.043          47.000          41.000  
 128115425.718 6  99830277.829 6  24379558.660    24379576.400       -3329.094  
     -2593.887          39.000          37.000  
 24  1 10  3 18 29.7000000  0  6G08G10G18G23G32G15
 130618005.894 5 101780346.544 6  24855792.927    24855813.503        2859.863  
      2227.898          35.000          36.000  
 109081165.294 8  84998378.599 7  20757457.155    20757473.452         116.824  
        90.969          48.000          45.000  
 114307289.168 7  89070679.398 7  21751955.672    21751970.360       -1771.199  
     -1380.109          45.000          44.000  
 110986431.304 7  86482991.264 7  21120016.479    21120030.309       -1787.258  
     -1392.688          42.000          44.000  
 117200505.300 7  91325155.737 7  22302514.834    22302534.188        2897.918  
      2258.109          47.000          42.000  
 128115758.646 6  99830537.210 6  24379622.014    24379639.744       -3329.332  
     -2593.953          39.000          37.000  
 24  1 10  3 18 29.8000000  0  6G08G10G18G23G32G15
 130617719.938 5 101780123.728 6  24855738.527    24855759.449        2859.273  
      2228.344          34.000          36.000  
 109081153.633 7  84998369.527 7  20757454.452    20757470.807         116.570  
        90.598          47.000          46.000  
 114307466.311 7  89070817.455 7  21751989.280    21752003.958       -1771.516  
     -1380.707          45.000          44.000  
 110986610.031 7  86483130.531 7  21120050.224    21120064.569       -1787.262  
     -1392.934          42.000          44.000  
 117200215.538 7  91324929.967 7  22302459.874    22302478.990        2897.633  
      2257.848          47.000          42.000  
 128116091.599 6  99830796.662 6  24379685.427    24379702.409       -3329.309  
     -2594.172          39.000          37.000  
 24  1 10  3 18 29.9000000  0  6G08G10G18G23G32G15
 130617434.094 5 101779900.890 6  24855684.132    24855705.030        2859.035  
      2228.105          35.000          36.000  
 109081141.977 7  84998360.479 7  20757452.234    20757468.597         116.512  
        90.488          47.000          46.000  
 114307643.507 7  89070955.519 7  21752022.999    21752037.675       -1771.738  
     -1380.504          45.000          44.000  
 110986788.761 7  86483269.848 7  21120084.236    21120098.592       -1787.309  
     -1392.977          43.000          44.000  
 117199925.795 7  91324704.164 7  22302404.738    22302423.846        2897.438  
      2257.883          47.000          42.000  
 128116424.509 6  99831056.092 6  24379748.778    24379765.765       -3329.203  
     -2594.309          38.000          37.000  
 24  1 10  3 18 30.0000000  0  6G08G10G18G23G32G15
 130617148.228 6 101779678.156 6  24855629.859    24855650.839        2858.805  
      2227.590          36.000          36.000  
 109081130.380 7  84998351.459 7  20757450.183    20757467.269         116.230  
        90.312          46.000          46.000  
 114307820.703 7  89071093.570 7  21752056.453    21752071.646       -1771.883  
     -1380.598          44.000          44.000  
 110986967.560 7  86483409.142 7  21120118.768    21120131.992       -1787.656  
     -1392.856          43.000          44.000  
 117199636.060 7  91324478.414 7  22302349.712    22302368.731        2897.383  
      2257.602          47.000          43.000  
 128116757.425 6  99831315.541 6  24379811.966    24379828.828       -3329.172  
     -2594.484          37.000          38.000  
 24  1 10  3 18 30.1000000  0  6G08G10G18G23G32G15
 130616862.328 6 101779455.419 6  24855575.454    24855596.444        2858.883  
      2227.570          36.000          36.000  
 109081118.847 7  84998342.452 7  20757447.988    20757465.070         115.680  
        89.996          47.000          46.000  
 114307997.871 7  89071231.621 7  21752090.167    21752105.359       -1771.715  
     -1380.578          45.000          44.000  
 110987146.368 7  86483548.434 7  21120152.794    21120166.008       -1787.805  
     -1393.055          43.000          45.000  
 117199346.370 7  91324252.654 7  22302294.586    22302313.599        2897.223  
      2257.754          46.000          43.000  
 128117090.277 6  99831574.919 6  24379875.306    24379892.171       -3328.859  
     -2593.832          36.000          38.000  
 24  1 10  3 18 30.2000000  0  7G08G24G18G23G10G32G15
 130616576.667 6 101779232.744 6  24855521.016    24855542.651        2856.574  
      2226.578          36.000          37.000  
 129613141.99236 100997345.213 6  24664559.747    24664581.761         321.320  
       249.727          36.000          40.000  
 114308175.031 7  89071369.697 7  21752124.020    21752139.290       -1771.504  
     -1380.481          45.000          44.000  
 110987325.229 7  86483687.817 7  21120187.361    21120200.649       -1788.594  
     -1393.512          44.000          45.000  
 109081107.392 7  84998333.539 7  20757446.129    20757463.088         114.543  
        89.203          47.000          45.000  
 117199056.594 7  91324026.842 7  22302239.037    22302257.891        2897.320  
      2257.777          45.000          43.000  
 128117423.251 6  99831834.405 6  24379938.426    24379955.634       -3329.551  
     -2594.500          37.000          38.000  
 24  1 10  3 18 30.3000000  0  7G08G24G18G23G10G32G15
 130616291.160 6 101779010.204 6  24855466.686    24855488.304        2855.363  
      2225.520          36.000          38.000  
 129613109.97226 100997320.275 6  24664553.653    24664575.671         320.359  
       249.285          36.000          40.000  
 114308352.233 7  89071507.752 7  21752157.740    21752173.004       -1771.883  
     -1380.621          45.000          44.000  
 110987504.183 7  86483827.226 7  21120221.415    21120234.694       -1789.637  
     -1394.270          44.000          45.000  
 109081096.012 7  84998324.660 7  20757443.963    20757460.920         113.742  
        88.539          46.000          45.000  
 117198766.859 7  91323801.088 7  22302183.902    22302202.759        2897.277  
      2257.688          45.000          43.000  
 128117756.283 6  99832093.915 6  24380001.800    24380019.008       -3330.617  
     -2595.184          38.000          38.000  
 24  1 10  3 18 30.4000000  0  7G08G24G18G23G10G32G15
 130616005.655 6 101778787.762 6  24855411.989    24855434.083        2855.195  
      2224.758          37.000          39.000  
 129613077.97826 100997295.313 6  24664547.378    24664569.169         320.152  
       249.699          36.000          39.000  
 114308529.386 7  89071645.785 7  21752191.686    21752205.901       -1771.711  
     -1380.453          44.000          44.000  
 110987683.110 7  86483966.641 7  21120255.628    21120269.451       -1789.438  
     -1394.477          44.000          45.000  
 109081084.661 7  84998315.826 7  20757441.928    20757458.684         113.434  
        88.262          46.000          45.000  
 117198477.045 7  91323575.267 7  22302128.643    22302147.752        2898.211  
      2258.246          45.000          43.000  
 128118089.399 6  99832353.447 6  24380065.018    24380082.717       -3330.945  
     -2595.254          38.000          37.000  
 24  1 10  3 18 30.5000000  0  7G08G24G18G23G10G32G15
 130615720.143 6 101778565.302 6  24855357.658    24855379.756        2855.117  
      2224.496          37.000          40.000  
 129613045.93726 100997270.363 6  24664541.280    24664563.076         320.492  
       249.617          36.000          39.000  
 114308706.537 7  89071783.830 7  21752225.397    21752239.613       -1771.336  
     -1380.246          44.000          44.000  
 110987862.085 7  86484106.116 7  21120289.686    21120303.512       -1789.723  
     -1394.566          45.000          45.000  
 109081073.326 7  84998306.989 7  20757439.771    20757456.526         113.398  
        88.332          46.000          45.000  
 117198187.224 7  91323349.432 7  22302073.492    22302092.601        2898.410  
      2258.586          45.000          43.000  
 128118422.476 6  99832612.964 6  24380128.400    24380146.094       -3330.766  
     -2595.137          38.000          37.000  
 24  1 10  3 18 30.6000000  0  7G08G24G18G23G10G32G15
 130615434.749 6 101778342.923 6  24855303.123    24855325.714        2854.066  
      2223.824          36.000          40.000  
 129613013.90726 100997245.408 6  24664534.779    24664556.817         320.078  
       249.426          36.000          39.000  
 114308883.711 7  89071921.881 7  21752259.143    21752272.928       -1771.734  
     -1380.664          44.000          44.000  
 110988041.138 7  86484245.661 7  21120323.766    21120337.474       -1790.453  
     -1395.242          45.000          45.000  
 109081062.040 7  84998298.194 7  20757437.389    20757454.449         112.805  
        87.902          46.000          45.000  
 117197897.418 7  91323123.594 7  22302018.274    22302037.714        2898.027  
      2258.336          44.000          43.000  
 128118755.562 6  99832872.532 6  24380191.995    24380209.788       -3330.973  
     -2595.672          39.000          36.000  
 24  1 10  3 18 30.7000000  0  7G08G24G18G23G10G32G15
 130615149.379 6 101778120.595 6  24855248.819    24855271.420        2853.523  
      2223.355          36.000          41.000  
 129612981.93126 100997220.488 6  24664528.694    24664550.732         320.000  
       249.258          37.000          40.000  
 114309060.888 7  89072059.954 7  21752292.859    21752306.647       -1771.887  
     -1380.594          44.000          44.000  
 110988220.187 7  86484385.164 7  21120357.838    21120371.542       -1790.605  
     -1395.238          45.000          45.000  
 109081050.795 7  84998289.459 7  20757435.249    20757452.316         112.566  
        87.523          46.000          44.000  
 117197607.584 7  91322897.767 7  22301963.120    22301982.565        2898.156  
      2258.258          44.000          43.000  
 128119088.765 6  99833132.146 6  24380255.402    24380273.188       -3331.594  
     -2596.090          40.000          37.000  
 24  1 10  3 18 30.8000000  0  7G08G24G18G23G10G32G15
 130614864.097 6 101777898.284 6  24855194.563    24855216.918        2853.281  
      2223.238          36.000          41.000  
 129612949.91226 100997195.543 6  24664522.617    24664545.101         320.023  
       249.543          37.000          40.000  
 114309238.097 7  89072198.025 7  21752326.307    21752340.435       -1772.082  
     -1380.777          44.000          44.000  
 110988399.259 7  86484524.709 7  21120391.602    21120405.839       -1790.738  
     -1395.406          45.000          45.000  
 109081039.585 7  84998280.710 7  20757432.913    20757449.679         111.906  
        87.375          46.000          44.000  
 117197317.868 7  91322672.023 7  22301908.122    22301927.616        2897.340  
      2257.617          43.000          43.000  
 128119421.890 6  99833391.740 6  24380318.622    24380336.201       -3331.566  
     -2595.820          40.000          37.000  
 24  1 10  3 18 30.9000000  0  7G08G24G18G23G10G32G15
 130614578.732 6 101777675.956 6  24855140.260    24855162.623        2853.414  
      2223.516          36.000          41.000  
 129612917.344 6 100997170.554 6  24664516.419    24664538.998         320.527  
       249.859          38.000          40.000  
 114309415.215 7  89072336.045 7  21752360.011    21752374.141       -1771.387  
     -1380.410          44.000          45.000  
 110988578.317 7  86484664.236 7  21120425.675    21120439.913       -1790.473  
     -1395.094          45.000          45.000  
 109081028.389 7  84998271.993 7  20757430.783    20757447.550         112.008  
        87.219          46.000          44.000  
 117197028.125 7  91322446.228 7  22301852.985    22301872.474        2896.910  
      2257.594          43.000          43.000  
 128119754.976 6  99833651.267 6  24380382.006    24380399.580       -3331.043  
     -2595.602          41.000          38.000  
 24  1 10  3 18 31.0000000  0  7G08G24G18G23G10G32G15
 130614293.343 6 101777453.559 6  24855086.045    24855108.398        2854.090  
      2223.887          36.000          41.000  
 129612885.221 6 100997145.515 6  24664510.619    24664533.102         321.332  
       250.441          38.000          41.000  
 114309592.332 7  89072474.063 7  21752393.302    21752408.870       -1771.008  
     -1379.930          44.000          45.000  
 110988757.276 7  86484803.660 7  21120459.605    21120473.868       -1789.727  
     -1394.707          45.000          46.000  
 109081017.198 7  84998263.257 7  20757428.645    20757445.026         112.023  
        87.312          46.000          43.000  
 117196738.437 7  91322220.498 7  22301798.063    22301817.419        2896.984  
      2257.266          43.000          43.000  
 128120087.933 6  99833910.724 6  24380445.326    24380463.262       -3329.516  
     -2594.742          41.000          39.000  
 24  1 10  3 18 31.1000000  0  7G08G24G18G23G10G32G15
 130614007.934 6 101777231.186 6  24855031.734    24855054.092        2853.879  
      2223.668          36.000          41.000  
 129612853.030 6 100997120.418 7  24664504.493    24664526.973         322.000  
       250.797          38.000          42.000  
 114309769.450 7  89072612.037 7  21752427.006    21752442.565       -1771.047  
     -1379.832          44.000          45.000  
 110988936.227 7  86484943.122 7  21120493.658    21120507.926       -1789.398  
     -1394.441          45.000          46.000  
 109081006.018 7  84998254.550 7  20757426.518    20757442.900         111.840  
        87.156          46.000          43.000  
 117196448.811 7  91321994.826 7  22301742.949    22301762.308        2896.094  
      2256.559          43.000          43.000  
 128120420.867 6  99834170.120 6  24380508.682    24380526.609       -3329.316  
     -2593.785          41.000          40.000  
 24  1 10  3 18 31.2000000  0  7G08G24G18G23G10G32G15
 130613722.536 6 101777008.763 7  24854977.550    24854999.539        2854.160  
      2224.133          36.000          42.000  
 129612820.729 6 100997095.262 7  24664498.472    24664521.338         322.637  
       251.492          38.000          42.000  
 114309946.497 7  89072750.011 7  21752460.470    21752476.548       -1770.449  
     -1379.512          44.000          45.000  
 110989115.078 7  86485082.505 7  21120527.528    21120541.519       -1788.566  
     -1393.816          45.000          46.000  
 109080994.819 7  84998245.820 7  20757424.254    20757440.737         112.000  
        87.219          46.000          43.000  
 117196159.271 7  91321769.208 7  22301687.797    22301706.967        2895.191  
      2256.070          43.000          42.000  
 128120753.661 7  99834429.405 6  24380571.956    24380589.703       -3328.004  
     -2593.102          42.000          40.000  
 24  1 10  3 18 31.3000000  0  7G08G24G18G23G10G32G15
 130613437.074 6 101776786.349 7  24854923.228    24854945.224        2854.551  
      2224.234          36.000          42.000  
 129612788.409 6 100997070.066 7  24664492.321    24664515.185         323.215  
       251.891          38.000          42.000  
 114310123.562 7  89072887.955 7  21752494.165    21752510.236       -1770.652  
     -1379.516          45.000          44.000  
 110989293.927 7  86485221.874 7  21120561.562    21120575.554       -1788.277  
     -1393.441          45.000          45.000  
 109080983.652 7  84998237.146 7  20757422.129    20757438.619         111.637  
        86.891          46.000          43.000  
 117195869.885 7  91321543.713 7  22301632.728    22301651.899        2894.055  
      2255.141          43.000          42.000  
 128121086.380 7  99834688.713 6  24380635.270    24380653.028       -3327.031  
     -2592.719          43.000          40.000  
