     2.11           OBSERVATION DATA    M (MIXED)           RINEX VERSION / TYPE
GPP.DLL V3.2.21                         18 - MAR - 24 07:42 PGM / RUN BY / DATE 
                                                            MARKER NAME         
                                                            MARKER NUMBER       
                                                            OBSERVER / AGENCY   
6028C00128          APX-15v3 AV         5.50                REC # / TYPE / VERS 
                    E                                       ANT # / TYPE        
 -4667996.3587  2554563.2053 -3504599.3826                  APPROX POSITION XYZ 
        0.0000       -0.0000       -0.0000                  ANTENNA: DELTA H/E/N
     1     1                                                WAVELENGTH FACT L1/2
     8    L1    L2    C1    C2    D1    D2    S1    S2      # / TYPES OF OBSERV 
     0.100                                                  INTERVAL            
  2024     1    10     3    13    0.0000000     GPS         TIME OF FIRST OBS   
  2024     1    10     3    13   59.9000000     GPS         TIME OF LAST OBS    
    18                                                      LEAP SECONDS        
     6                                                      # OF SATELLITES     
   G10   600   600   600   600   600   600   600   600      PRN / # OF OBS      
   G15   530   530   530   530   530   530   530   530      PRN / # OF OBS      
   G18   600   600   600   600   600   600   600   600      PRN / # OF OBS      
   G23   600   600   600   600   600   600   600   600      PRN / # OF OBS      
   G24   470   470   470   470   470   470   470   470      PRN / # OF OBS      
   G32   600   600   600   600   600   600   600   600      PRN / # OF OBS      
                                                            END OF HEADER       
 24  1 10  3 13  0.0000000  0  4G10G32G18G23
 109178670.012 6  85074356.387 6  20776010.834    20776027.332         514.906  
       401.480          41.000          39.000  
 118212845.663 7  92113990.836 7  22495158.026    22495178.510        3295.426  
      2567.754          45.000          43.000  
 113780055.896 7  88659848.945 7  21651625.798    21651641.125       -1380.348  
     -1075.754          47.000          47.000  
 110448629.390 7  86063925.377 7  21017675.866    21017690.467       -1435.633  
     -1118.828          44.000          45.000  
 24  1 10  3 13  0.1000000  0  4G10G32G18G23
 109178618.509 7  85074316.227 6  20776001.034    20776017.524         515.082  
       401.273          42.000          39.000  
 118212516.153 7  92113734.041 7  22495095.323    22495115.798        3295.105  
      2567.707          45.000          43.000  
 113780193.959 7  88659956.513 7  21651652.071    21651667.394       -1380.520  
     -1075.883          47.000          47.000  
 110448772.942 7  86064037.277 7  21017703.183    21017717.794       -1435.594  
     -1118.738          44.000          45.000  
 24  1 10  3 13  0.2000000  0  4G10G32G18G23
 109178567.034 7  85074276.154 6  20775991.473    20776008.043         514.969  
       401.211          43.000          39.000  
 118212186.567 7  92113477.252 7  22495032.542    22495052.892        3295.602  
      2567.625          44.000          43.000  
 113780331.998 7  88660064.092 7  21651678.385    21651693.721       -1380.520  
     -1075.652          47.000          47.000  
 110448916.549 7  86064149.165 7  21017730.479    21017745.376       -1435.777  
     -1118.656          44.000          45.000  
 24  1 10  3 13  0.3000000  0  4G10G32G18G23
 109178515.573 7  85074235.999 6  20775981.680    20775998.237         514.758  
       401.301          45.000          40.000  
 118211857.127 7  92113220.581 7  22494969.852    22494990.210        3295.016  
      2567.445          44.000          44.000  
 113780470.070 7  88660171.644 7  21651704.660    21651719.986       -1380.578  
     -1075.586          47.000          47.000  
 110449060.143 7  86064260.995 7  21017757.804    21017772.686       -1435.914  
     -1118.688          44.000          45.000  
 24  1 10  3 13  0.4000000  0  4G10G32G18G23
 109178464.125 7  85074195.919 6  20775972.069    20775988.409         514.484  
       400.766          46.000          41.000  
 118211527.609 7  92112963.773 7  22494906.857    22494927.191        3294.926  
      2567.691          44.000          44.000  
 113780608.155 7  88660279.265 7  21651730.647    21651746.425       -1380.731  
     -1076.320          47.000          47.000  
 110449203.741 7  86064372.902 7  21017785.403    21017799.968       -1436.035  
     -1119.125          44.000          45.000  
 24  1 10  3 13  0.5000000  0  4G10G32G18G23
 109178412.702 7  85074155.849 7  20775962.284    20775978.624         514.418  
       400.785          46.000          42.000  
 118211198.098 7  92112707.012 7  22494844.154    22494864.487        3295.199  
      2567.715          44.000          43.000  
 113780746.260 7  88660386.917 7  21651756.928    21651772.714       -1380.824  
     -1076.078          47.000          47.000  
 110449347.382 7  86064484.877 7  21017812.737    21017827.314       -1436.074  
     -1119.352          44.000          45.000  
 24  1 10  3 13  0.6000000  0  4G10G32G18G23
 109178361.308 7  85074115.796 7  20775952.731    20775969.108         514.125  
       400.457          47.000          42.000  
 118210868.695 7  92112450.344 7  22494781.283    22494801.720        3294.477  
      2566.676          44.000          44.000  
 113780884.388 7  88660494.478 7  21651783.252    21651798.724       -1381.141  
     -1076.066          47.000          47.000  
 110449490.986 7  86064596.807 7  21017840.127    21017854.422       -1436.191  
     -1119.512          43.000          45.000  
 24  1 10  3 13  0.7000000  0  4G10G32G18G23
 109178309.890 7  85074075.745 7  20775942.946    20775959.327         514.125  
       400.543          47.000          43.000  
 118210539.211 7  92112193.609 7  22494718.584    22494739.023        3294.605  
      2567.086          45.000          44.000  
 113781022.501 7  88660602.122 7  21651809.534    21651825.012       -1381.227  
     -1076.469          47.000          47.000  
 110449634.621 7  86064708.731 7  21017867.459    21017881.755       -1436.258  
     -1119.285          44.000          46.000  
 24  1 10  3 13  0.8000000  0  4G10G32G18G23
 109178258.498 7  85074035.695 7  20775933.401    20775949.883         514.168  
       400.730          47.000          43.000  
 118210209.743 7  92111936.892 7  22494656.162    22494676.158        3294.727  
      2567.430          45.000          44.000  
 113781160.630 7  88660709.765 8  21651836.069    21651851.127       -1381.211  
     -1076.340          47.000          48.000  
 110449778.278 7  86064820.638 7  21017894.835    21017909.029       -1436.445  
     -1119.086          44.000          45.000  
 24  1 10  3 13  0.9000000  0  4G10G32G18G23
 109178207.075 7  85073995.629 7  20775923.615    20775940.098         514.102  
       400.473          47.000          44.000  
 118209880.292 7  92111680.165 7  22494593.469    22494613.463        3294.602  
      2567.227          44.000          44.000  
 113781298.733 7  88660817.395 8  21651862.349    21651877.412       -1381.133  
     -1076.250          47.000          48.000  
 110449921.912 7  86064932.527 7  21017922.168    21017936.353       -1436.531  
     -1119.059          45.000          45.000  
 24  1 10  3 13  1.0000000  0  4G10G32G18G23
 109178155.679 7  85073955.615 7  20775913.632    20775930.279         514.082  
       400.387          47.000          44.000  
 118209550.851 7  92111423.436 7  22494530.849    22494550.790        3294.484  
      2567.262          45.000          44.000  
 113781436.873 7  88660925.037 7  21651888.816    21651903.863       -1381.246  
     -1076.309          47.000          47.000  
 110450065.555 7  86065044.456 7  21017949.557    21017963.398       -1436.391  
     -1119.320          44.000          45.000  
 24  1 10  3 13  1.1000000  0  4G10G32G18G23
 109178104.267 7  85073915.542 7  20775903.848    20775920.493         513.984  
       400.465          47.000          44.000  
 118209221.392 7  92111166.713 7  22494468.155    22494488.096        3294.535  
      2567.172          45.000          44.000  
 113781575.018 7  88661032.646 7  21651915.104    21651930.142       -1381.352  
     -1076.160          47.000          47.000  
 110450209.204 7  86065156.415 7  21017976.893    21017990.740       -1436.316  
     -1119.383          44.000          45.000  
 24  1 10  3 13  1.2000000  0  4G10G32G18G23
 109178052.900 7  85073875.494 7  20775893.871    20775910.526         513.941  
       400.629          47.000          44.000  
 118208891.952 7  92110910.044 7  22494405.301    22494425.422        3294.535  
      2566.957          45.000          44.000  
 113781713.150 7  88661140.286 7  21651941.335    21651956.742       -1381.309  
     -1076.426          47.000          47.000  
 110450352.887 7  86065268.393 7  21018003.789    21018018.305       -1436.523  
     -1119.578          44.000          45.000  
 24  1 10  3 13  1.3000000  0  4G10G32G18G23
 109178001.547 8  85073835.476 7  20775884.098    20775900.753         513.652  
       400.230          48.000          44.000  
 118208562.527 7  92110653.315 7  22494342.613    22494362.727        3294.324  
      2566.945          45.000          44.000  
 113781851.299 7  88661247.960 7  21651967.624    21651983.037       -1381.523  
     -1076.645          47.000          47.000  
 110450496.565 7  86065380.355 7  21018031.130    21018045.647       -1436.676  
     -1119.531          44.000          45.000  
 24  1 10  3 13  1.4000000  0  4G10G32G18G23
 109177950.199 8  85073795.442 7  20775874.179    20775890.836         513.535  
       400.098          48.000          44.000  
 118208233.125 7  92110396.652 7  22494280.079    22494299.875        3294.180  
      2566.781          45.000          44.000  
 113781989.464 8  88661355.595 7  21651993.861    21652008.955       -1381.566  
     -1076.461          48.000          47.000  
 110450640.223 7  86065492.277 7  21018058.624    21018073.019       -1436.664  
     -1119.547          44.000          45.000  
 24  1 10  3 13  1.5000000  0  4G10G32G18G23
 109177898.839 8  85073755.437 7  20775864.405    20775881.066         513.621  
       400.320          48.000          44.000  
 118207903.701 7  92110139.963 7  22494217.391    22494237.189        3294.145  
      2566.887          45.000          44.000  
 113782127.627 8  88661463.260 7  21652020.153    21652035.248       -1381.602  
     -1076.660          48.000          47.000  
 110450783.876 7  86065604.242 7  21018085.960    21018100.362       -1436.594  
     -1119.484          44.000          45.000  
 24  1 10  3 13  1.6000000  0  4G10G32G18G23
 109177847.487 8  85073715.428 7  20775854.571    20775870.967         513.629  
       399.992          48.000          45.000  
 118207574.296 7  92109883.265 7  22494154.770    22494174.337        3294.090  
      2566.910          45.000          44.000  
 113782265.803 8  88661570.930 7  21652046.228    21652061.394       -1381.668  
     -1076.684          48.000          47.000  
 110450927.577 7  86065716.184 7  21018113.266    21018127.434       -1436.848  
     -1119.586          44.000          44.000  
 24  1 10  3 13  1.7000000  0  4G10G32G18G23
 109177796.140 7  85073675.413 7  20775844.800    20775861.195         513.457  
       400.059          47.000          44.000  
 118207244.922 7  92109626.619 7  22494092.092    22494111.661        3293.898  
      2566.727          45.000          44.000  
 113782404.004 8  88661678.636 8  21652072.526    21652087.697       -1381.723  
     -1076.871          48.000          48.000  
 110451071.262 7  86065828.173 7  21018140.609    21018154.782       -1436.832  
     -1119.762          44.000          44.000  
 24  1 10  3 13  1.8000000  0  4G10G32G18G23
 109177744.803 8  85073635.413 7  20775835.179    20775851.348         513.461  
       400.148          48.000          45.000  
 118206915.525 7  92109369.947 7  22494029.637    22494049.393        3293.922  
      2566.727          44.000          44.000  
 113782542.189 8  88661786.302 7  21652098.908    21652114.162       -1381.863  
     -1076.598          48.000          47.000  
 110451214.950 7  86065940.090 7  21018168.053    21018182.239       -1436.863  
     -1119.484          45.000          44.000  
 24  1 10  3 13  1.9000000  0  4G10G32G18G23
 109177693.465 8  85073595.406 7  20775825.410    20775841.579         513.402  
       399.977          48.000          45.000  
 118206586.156 7  92109113.289 7  22493966.960    22493986.715        3293.820  
      2566.434          44.000          44.000  
 113782680.385 8  88661893.986 8  21652125.206    21652140.459       -1381.945  
     -1077.043          48.000          48.000  
 110451358.682 7  86066052.151 7  21018195.404    21018209.605       -1436.938  
     -1119.957          44.000          44.000  
 24  1 10  3 13  2.0000000  0  4G10G32G18G23
 109177642.143 8  85073555.414 7  20775815.323    20775831.898         513.289  
       399.945          48.000          45.000  
 118206256.771 7  92108856.632 7  22493904.053    22493924.240        3293.809  
      2566.461          44.000          44.000  
 113782818.576 8  88662001.681 8  21652151.550    21652166.556       -1381.961  
     -1076.871          48.000          48.000  
 110451502.373 7  86066164.073 7  21018222.623    21018236.969       -1437.074  
     -1119.824          44.000          44.000  
 24  1 10  3 13  2.1000000  0  4G10G32G18G23
 109177590.826 8  85073515.451 7  20775805.558    20775822.138         513.258  
       399.707          48.000          45.000  
 118205927.405 7  92108599.993 7  22493841.377    22493861.566        3293.742  
      2566.508          44.000          44.000  
 113782956.777 8  88662109.348 8  21652177.848    21652192.850       -1382.016  
     -1076.879          48.000          48.000  
 110451646.095 7  86066276.076 7  21018249.972    21018264.321       -1437.133  
     -1119.953          44.000          44.000  
 24  1 10  3 13  2.2000000  0  4G10G32G18G23
 109177539.518 8  85073475.473 7  20775795.724    20775812.055         513.168  
       399.832          48.000          45.000  
 118205598.047 7  92108343.325 7  22493778.601    22493798.697        3293.664  
      2566.457          45.000          44.000  
 113783094.989 8  88662217.045 8  21652203.860    21652219.744       -1382.106  
     -1077.106          48.000          48.000  
 110451789.822 7  86066388.069 7  21018277.104    21018292.140       -1437.215  
     -1119.703          44.000          44.000  
 24  1 10  3 13  2.3000000  0  4G10G32G18G23
 109177488.216 8  85073435.479 7  20775785.962    20775802.288         513.016  
       399.660          48.000          45.000  
 118205268.680 7  92108086.718 7  22493715.924    22493736.031        3293.656  
      2566.336          45.000          44.000  
 113783233.235 8  88662324.780 8  21652230.168    21652246.054       -1382.231  
     -1077.117          48.000          48.000  
 110451933.544 7  86066500.041 7  21018304.453    21018319.484       -1437.223  
     -1119.945          45.000          44.000  
 24  1 10  3 13  2.4000000  0  4G10G32G18G23
 109177436.934 8  85073395.521 7  20775776.234    20775792.913         512.945  
       399.641          48.000          45.000  
 118204939.331 7  92107830.072 7  22493653.361    22493673.410        3293.559  
      2566.395          45.000          44.000  
 113783371.461 8  88662432.489 8  21652256.409    21652272.483       -1382.227  
     -1077.094          48.000          48.000  
 110452077.266 7  86066612.054 7  21018331.764    21018346.597       -1437.277  
     -1120.148          45.000          44.000  
 24  1 10  3 13  2.5000000  0  4G10G32G18G23
 109177385.639 7  85073355.562 7  20775766.473    20775783.155         512.891  
       399.555          47.000          45.000  
 118204609.981 7  92107573.446 7  22493590.687    22493610.740        3293.523  
      2566.191          45.000          44.000  
 113783509.688 8  88662540.205 8  21652282.712    21652298.788       -1382.293  
     -1077.047          48.000          48.000  
 110452220.998 7  86066724.051 7  21018359.115    21018373.948       -1437.340  
     -1119.934          45.000          44.000  
 24  1 10  3 13  2.6000000  0  4G10G32G18G23
 109177334.364 7  85073315.616 7  20775756.583    20775773.993         512.957  
       399.578          47.000          45.000  
 118204280.629 7  92107316.795 7  22493527.842    22493547.821        3293.484  
      2566.480          45.000          44.000  
 113783647.934 8  88662647.919 7  21652308.871    21652324.991       -1382.352  
     -1077.117          48.000          47.000  
 110452364.751 7  86066836.067 7  21018386.337    21018400.858       -1437.309  
     -1120.113          45.000          44.000  
 24  1 10  3 13  2.7000000  0  4G10G32G18G23
 109177283.096 7  85073275.680 7  20775746.827    20775764.240         512.754  
       399.328          47.000          45.000  
 118203951.323 7  92107060.209 7  22493465.177    22493485.160        3293.293  
      2566.016          45.000          44.000  
 113783786.197 8  88662755.644 7  21652335.182    21652351.299       -1382.523  
     -1077.441          48.000          47.000  
 110452508.520 7  86066948.095 7  21018413.696    21018428.216       -1437.520  
     -1120.148          45.000          44.000  
 24  1 10  3 13  2.8000000  0  4G10G32G18G23
 109177231.852 7  85073235.743 7  20775737.255    20775754.229         512.500  
       399.160          47.000          45.000  
 118203622.038 7  92106803.591 7  22493402.446    22493422.593        3293.027  
      2565.977          45.000          44.000  
 113783924.474 8  88662863.404 7  21652361.808    21652377.365       -1382.703  
     -1077.570          48.000          47.000  
 110452652.291 7  86067060.122 7  21018441.226    21018455.356       -1437.762  
     -1120.285          45.000          44.000  
 24  1 10  3 13  2.9000000  0  4G10G32G18G23
 109177180.600 7  85073195.825 7  20775727.502    20775744.481         512.500  
       399.180          46.000          44.000  
 118203292.732 7  92106547.007 7  22493339.781    22493359.932        3293.004  
      2566.008          45.000          44.000  
 113784062.752 8  88662971.168 7  21652388.121    21652403.682       -1382.727  
     -1077.539          48.000          47.000  
 110452796.087 7  86067172.160 7  21018468.590    21018482.716       -1437.805  
     -1120.383          45.000          44.000  
 24  1 10  3 13  3.0000000  0  4G10G32G18G23
 109177129.378 7  85073155.899 7  20775717.857    20775734.278         512.508  
       399.297          47.000          44.000  
 118202963.456 7  92106290.417 7  22493277.020    22493297.333        3292.988  
      2566.020          45.000          44.000  
 113784201.033 8  88663078.906 7  21652414.412    21652430.024       -1382.773  
     -1077.500          48.000          47.000  
 110452939.870 7  86067284.204 7  21018495.873    21018510.501       -1437.676  
     -1120.375          45.000          44.000  
 24  1 10  3 13  3.1000000  0  4G10G32G18G23
 109177078.156 7  85073115.985 7  20775708.110    20775724.530         512.262  
       399.125          47.000          44.000  
 118202634.181 7  92106033.834 7  22493214.361    22493234.672        3292.770  
      2565.504          45.000          44.000  
 113784339.337 8  88663186.676 7  21652440.730    21652456.343       -1382.945  
     -1077.680          48.000          47.000  
 110453083.651 7  86067396.240 7  21018523.233    21018537.861       -1437.930  
     -1120.387          45.000          44.000  
 24  1 10  3 13  3.2000000  0  4G10G32G18G23
 109177026.956 7  85073076.080 7  20775698.366    20775714.668         512.117  
       399.105          47.000          44.000  
 118202304.925 7  92105777.284 7  22493151.816    22493171.747        3292.730  
      2566.004          45.000          44.000  
 113784477.657 8  88663294.476 8  21652467.153    21652482.543       -1383.098  
     -1077.922          48.000          48.000  
 110453227.468 7  86067508.294 7  21018550.640    21018565.437       -1438.031  
     -1120.742          45.000          45.000  
 24  1 10  3 13  3.3000000  0  4G10G32G18G23
 109176975.761 7  85073036.181 7  20775688.624    20775704.924         512.031  
       398.941          47.000          43.000  
 118201975.669 7  92105520.704 7  22493089.160    22493109.087        3292.598  
      2565.633          45.000          43.000  
 113784615.992 8  88663402.250 8  21652493.477    21652508.863       -1383.160  
     -1077.789          48.000          48.000  
 110453371.283 7  86067620.363 7  21018578.007    21018592.805       -1438.113  
     -1120.754          45.000          44.000  
 24  1 10  3 13  3.4000000  0  4G10G32G18G23
 109176924.548 7  85072996.265 7  20775678.957    20775695.481         512.121  
       399.086          47.000          43.000  
 118201646.393 7  92105264.134 7  22493026.634    22493046.532        3292.695  
      2565.590          45.000          43.000  
 113784754.299 8  88663510.020 8  21652519.726    21652535.166       -1383.188  
     -1077.777          48.000          48.000  
 110453515.077 7  86067732.429 7  21018605.620    21018620.009       -1437.984  
     -1120.523          44.000          45.000  
 24  1 10  3 13  3.5000000  0  4G10G32G18G23
 109176873.354 7  85072956.394 7  20775669.215    20775685.744         512.020  
       398.988          47.000          43.000  
 118201317.145 7  92105007.589 7  22492963.980    22492983.881        3292.605  
      2565.547          45.000          43.000  
 113784892.616 8  88663617.817 8  21652546.047    21652561.491       -1383.098  
     -1077.918          48.000          48.000  
 110453658.882 7  86067844.469 7  21018632.985    21018647.370       -1438.012  
     -1120.508          44.000          45.000  
 24  1 10  3 13  3.6000000  0  4G10G32G18G23
 109176822.178 7  85072916.500 7  20775659.360    20775676.369         511.844  
       398.730          47.000          43.000  
 118200987.909 7  92104751.023 7  22492901.407    22492921.295        3292.422  
      2565.527          45.000          43.000  
 113785030.968 8  88663725.627 8  21652572.382    21652588.187       -1383.348  
     -1077.988          48.000          48.000  
 110453802.707 7  86067956.545 7  21018660.557    21018674.849       -1438.195  
     -1120.898          44.000          45.000  
 24  1 10  3 13  3.7000000  0  4G10G32G18G23
 109176771.015 7  85072876.640 7  20775649.623    20775666.634         511.750  
       398.770          47.000          43.000  
 118200658.680 7  92104494.493 7  22492838.757    22492858.648        3292.402  
      2565.410          46.000          43.000  
 113785169.310 8  88663833.416 8  21652598.708    21652614.510       -1383.352  
     -1078.004          48.000          48.000  
 110453946.565 7  86068068.656 7  21018687.933    21018702.228       -1438.250  
     -1120.988          44.000          45.000  
 24  1 10  3 13  3.8000000  0  4G10G32G18G23
 109176719.833 7  85072836.741 7  20775640.056    20775656.906         511.742  
       398.703          47.000          44.000  
 118200329.475 7  92104237.965 7  22492776.189    22492796.251        3292.180  
      2565.230          46.000          43.000  
 113785307.664 8  88663941.219 8  21652624.965    21652640.469       -1383.520  
     -1078.109          48.000          48.000  
 110454090.405 7  86068180.718 7  21018714.953    21018729.548       -1438.406  
     -1120.688          44.000          45.000  
 24  1 10  3 13  3.9000000  0  4G10G32G18G23
 109176668.677 7  85072796.908 7  20775630.321    20775647.179         511.754  
       398.559          47.000          44.000  
 118200000.244 7  92103981.415 7  22492713.538    22492733.599        3292.262  
      2565.539          46.000          43.000  
 113785446.012 8  88664049.027 8  21652651.292    21652666.797       -1383.477  
     -1078.094          48.000          48.000  
 110454234.243 7  86068292.808 7  21018742.324    21018756.921       -1438.277  
     -1120.871          44.000          45.000  
 24  1 10  3 13  4.0000000  0  4G10G32G18G23
 109176617.549 7  85072757.054 7  20775620.686    20775637.446         511.465  
       398.488          47.000          44.000  
 118199671.050 7  92103724.878 7  22492651.176    22492670.442        3292.070  
      2565.008          46.000          43.000  
 113785584.390 8  88664156.858 8  21652677.460    21652693.123       -1383.660  
     -1078.258          48.000          48.000  
 110454378.112 7  86068404.925 7  21018769.788    21018783.942       -1438.523  
     -1121.062          44.000          45.000  
 24  1 10  3 13  4.1000000  0  4G10G32G18G23
 109176566.430 7  85072717.220 7  20775610.958    20775627.718         511.195  
       398.180          47.000          44.000  
 118199341.882 7  92103468.424 7  22492588.537    22492607.814        3291.820  
      2564.945          46.000          43.000  
 113785722.808 8  88664264.708 8  21652703.801    21652719.461       -1383.973  
     -1078.582          48.000          48.000  
 110454521.993 7  86068517.033 7  21018797.167    21018811.320       -1438.828  
     -1121.266          44.000          45.000  
 24  1 10  3 13  4.2000000  0  4G10G32G18G23
 109176515.333 7  85072677.416 7  20775600.953    20775617.943         511.160  
       398.125          47.000          44.000  
 118199012.722 7  92103211.911 7  22492526.018    22492545.311        3291.684  
      2564.750          46.000          43.000  
 113785861.215 8  88664372.557 7  21652730.193    21652746.025       -1384.086  
     -1078.574          48.000          47.000  
 110454665.898 7  86068629.165 7  21018824.606    21018838.860       -1438.852  
     -1121.234          44.000          45.000  
 24  1 10  3 13  4.3000000  0  4G10G32G18G23
 109176464.241 7  85072637.593 7  20775591.231    20775608.218         510.973  
       398.160          47.000          44.000  
 118198683.578 7  92102955.441 7  22492463.384    22492482.679        3291.551  
      2564.707          45.000          43.000  
 113785999.660 7  88664480.437 7  21652756.538    21652772.370       -1384.168  
     -1078.703          47.000          47.000  
 110454809.814 7  86068741.299 7  21018851.993    21018866.244       -1439.031  
     -1121.402          44.000          45.000  
 24  1 10  3 13  4.4000000  0  4G10G32G18G23
 109176413.173 7  85072597.790 7  20775581.669    20775598.349         510.770  
       398.066          47.000          44.000  
 118198354.458 7  92102698.978 7  22492400.481    22492420.056        3291.246  
      2564.676          45.000          43.000  
 113786138.089 8  88664588.307 7  21652783.013    21652798.893       -1384.461  
     -1078.723          48.000          47.000  
 110454953.731 7  86068853.464 7  21018879.160    21018893.918       -1439.078  
     -1121.356          44.000          45.000  
 24  1 10  3 13  4.5000000  0  4G10G32G18G23
 109176362.081 7  85072557.989 7  20775571.947    20775588.629         510.871  
       397.914          47.000          44.000  
 118198025.300 7  92102442.513 7  22492337.844    22492357.424        3291.430  
      2564.812          45.000          43.000  
 113786276.518 7  88664696.175 7  21652809.355    21652825.236       -1384.383  
     -1078.863          47.000          47.000  
 110455097.653 7  86068965.603 7  21018906.548    21018921.303       -1439.309  
     -1121.516          44.000          45.000  
 24  1 10  3 13  4.6000000  0  4G10G32G18G23
 109176311.030 7  85072518.213 7  20775562.380    20775579.142         510.750  
       397.949          47.000          44.000  
 118197696.184 7  92102186.060 7  22492274.903    22492294.897        3291.371  
      2564.520          45.000          43.000  
 113786414.989 8  88664804.080 8  21652835.846    21652851.509       -1384.387  
     -1078.766          48.000          48.000  
 110455241.576 7  86069077.739 7  21018933.959    21018949.000       -1439.231  
     -1121.535          44.000          45.000  
 24  1 10  3 13  4.7000000  0  4G10G32G18G23
 109176259.987 7  85072478.430 7  20775552.667    20775569.426         510.574  
       397.859          47.000          44.000  
 118197367.082 7  92101929.610 7  22492212.277    22492232.270        3291.121  
      2564.609          45.000          43.000  
 113786553.459 8  88664911.970 7  21652862.196    21652877.857       -1384.656  
     -1079.020          48.000          47.000  
 110455385.534 7  86069189.917 7  21018961.353    21018976.395       -1439.363  
     -1121.625          44.000          45.000  
 24  1 10  3 13  4.8000000  0  4G10G32G18G23
 109176208.961 7  85072438.665 7  20775543.098    20775559.481         510.375  
       397.336          47.000          44.000  
 118197037.977 7  92101673.170 7  22492149.517    22492169.715        3291.074  
      2564.289          45.000          43.000  
 113786691.955 8  88665019.899 7  21652888.325    21652903.769       -1384.750  
     -1079.129          48.000          47.000  
 110455529.501 7  86069302.091 7  21018988.913    21019003.477       -1439.562  
     -1121.723          44.000          45.000  
 24  1 10  3 13  4.9000000  0  4G10G32G18G23
 109176157.939 7  85072398.923 7  20775533.389    20775549.776         510.312  
       397.652          47.000          44.000  
 118196708.918 7  92101416.757 7  22492086.900    22492107.096        3290.805  
      2564.152          45.000          43.000  
 113786830.444 8  88665127.793 7  21652914.678    21652930.118       -1384.832  
     -1079.066          48.000          47.000  
 110455673.472 7  86069414.277 7  21019016.310    21019030.874       -1439.562  
     -1121.930          44.000          45.000  
 24  1 10  3 13  5.0000000  0  4G10G32G18G23
 109176106.923 7  85072359.159 7  20775523.501    20775540.315         510.215  
       397.629          47.000          44.000  
 118196379.842 7  92101160.337 7  22492024.521    22492044.476        3290.777  
      2564.277          45.000          43.000  
 113786968.943 8  88665235.717 7  21652940.838    21652956.372       -1384.953  
     -1079.289          48.000          47.000  
 110455817.454 7  86069526.465 7  21019043.545    21019058.240       -1439.758  
     -1121.820          44.000          45.000  
 24  1 10  3 13  5.1000000  0  4G10G32G18G23
 109176055.914 7  85072319.415 7  20775513.794    20775530.609         510.199  
       397.570          47.000          44.000  
 118196050.755 7  92100903.912 7  22491961.897    22491981.854        3290.867  
      2564.156          45.000          44.000  
 113787107.442 8  88665343.647 7  21652967.194    21652982.730       -1384.914  
     -1079.242          48.000          47.000  
 110455961.419 7  86069638.641 7  21019070.940    21019085.634       -1439.777  
     -1122.000          44.000          45.000  
 24  1 10  3 13  5.2000000  0  4G10G32G18G23
 109176004.920 7  85072279.692 7  20775503.794    20775520.861         510.070  
       397.207          47.000          44.000  
 118195721.714 7  92100647.521 7  22491899.346    22491919.116        3290.613  
      2564.051          44.000          44.000  
 113787245.961 7  88665451.587 7  21652993.639    21653009.184       -1385.125  
     -1079.461          47.000          47.000  
 110456105.416 7  86069750.889 7  21019098.240    21019113.117       -1439.738  
     -1121.922          44.000          45.000  
 24  1 10  3 13  5.3000000  0  4G10G32G18G23
 109175953.943 7  85072239.939 7  20775494.093    20775511.153         509.844  
       397.371          47.000          44.000  
 118195392.675 7  92100391.110 7  22491836.732    22491856.498        3290.508  
      2564.012          45.000          44.000  
 113787384.500 8  88665559.546 7  21653020.002    21653035.548       -1385.172  
     -1079.414          48.000          47.000  
 110456249.414 7  86069863.080 7  21019125.642    21019140.515       -1439.910  
     -1122.121          44.000          45.000  
 24  1 10  3 13  5.4000000  0  4G10G32G18G23
 109175902.964 7  85072200.227 7  20775484.290    20775501.346         509.805  
       397.293          47.000          44.000  
 118195063.651 7  92100134.739 7  22491773.909    22491793.663        3290.383  
      2563.723          45.000          44.000  
 113787523.028 8  88665667.469 7  21653046.769    21653062.154       -1385.371  
     -1079.629          48.000          47.000  
 110456393.424 7  86069975.285 7  21019153.086    21019167.823       -1440.027  
     -1122.121          44.000          45.000  
 24  1 10  3 13  5.5000000  0  4G10G32G18G23
 109175852.008 7  85072160.513 7  20775474.594    20775491.647         509.656  
       396.879          47.000          44.000  
 118194734.632 7  92099878.360 7  22491711.299    22491731.052        3290.266  
      2563.781          45.000          44.000  
 113787661.601 8  88665775.466 7  21653073.139    21653088.528       -1385.473  
     -1079.676          48.000          47.000  
 110456537.462 7  86070087.515 7  21019180.495    21019195.231       -1440.207  
     -1122.414          44.000          45.000  
 24  1 10  3 13  5.6000000  0  4G10G32G18G23
 109175801.073 7  85072120.842 7  20775464.972    20775481.826         509.594  
       396.941          47.000          44.000  
 118194405.641 7  92099621.986 7  22491648.718    22491668.584        3290.039  
      2563.707          45.000          44.000  
 113787800.169 8  88665883.414 7  21653099.320    21653115.179       -1385.668  
     -1079.734          48.000          47.000  
 110456681.512 7  86070199.784 7  21019207.899    21019222.828       -1440.254  
     -1122.539          44.000          45.000  
 24  1 10  3 13  5.7000000  0  4G10G32G18G23
 109175750.152 7  85072081.137 7  20775455.282    20775472.130         509.301  
       396.926          47.000          44.000  
 118194076.639 7  92099365.616 7  22491586.111    22491605.976        3290.016  
      2563.367          45.000          44.000  
 113787938.766 7  88665991.420 7  21653125.694    21653141.555       -1385.762  
     -1079.922          47.000          47.000  
 110456825.576 7  86070312.021 7  21019235.314    21019250.237       -1440.500  
     -1122.438          44.000          45.000  
 24  1 10  3 13  5.8000000  0  4G10G32G18G23
 109175699.236 7  85072041.454 7  20775445.538    20775462.447         509.215  
       396.727          47.000          44.000  
 118193747.681 7  92099109.297 7  22491523.489    22491543.864        3289.832  
      2563.500          45.000          44.000  
 113788077.362 8  88666099.423 7  21653152.006    21653167.743       -1385.914  
     -1080.012          48.000          47.000  
 110456969.627 7  86070424.267 7  21019262.679    21019277.899       -1440.656  
     -1122.543          44.000          45.000  
 24  1 10  3 13  5.9000000  0  4G10G32G18G23
 109175648.327 7  85072001.787 7  20775435.850    20775452.760         509.195  
       396.910          47.000          44.000  
 118193418.692 7  92098852.952 7  22491460.884    22491481.262        3289.820  
      2563.336          45.000          43.000  
 113788215.950 8  88666207.411 7  21653178.378    21653194.115       -1385.938  
     -1079.945          48.000          47.000  
 110457113.687 7  86070536.502 7  21019290.092    21019305.307       -1440.578  
     -1122.555          44.000          45.000  
 24  1 10  3 13  6.0000000  0  4G10G32G18G23
 109175597.436 7  85071962.137 7  20775426.103    20775443.241         509.031  
       396.523          47.000          44.000  
 118193089.753 7  92098596.631 7  22491398.109    22491418.455        3289.668  
      2563.297          45.000          43.000  
 113788354.578 8  88666315.431 7  21653204.805    21653220.120       -1386.106  
     -1080.242          48.000          47.000  
 110457257.779 7  86070648.796 7  21019317.770    21019332.754       -1440.703  
     -1122.785          44.000          45.000  
 24  1 10  3 13  6.1000000  0  4G10G32G18G23
 109175546.548 7  85071922.491 7  20775416.420    20775433.559         508.949  
       396.516          47.000          44.000  
 118192760.788 7  92098340.304 7  22491335.509    22491355.857        3289.543  
      2563.141          45.000          43.000  
 113788493.214 8  88666423.465 8  21653231.187    21653246.503       -1386.090  
     -1080.106          48.000          48.000  
 110457401.892 7  86070761.100 7  21019345.194    21019360.180       -1440.832  
     -1122.801          44.000          45.000  
 24  1 10  3 13  6.2000000  0  4G10G32G18G23
 109175495.667 7  85071882.834 7  20775407.081    20775423.804         508.855  
       396.410          47.000          44.000  
 118192431.861 7  92098083.999 7  22491273.034    22491293.038        3289.445  
      2563.219          45.000          43.000  
 113788631.839 8  88666531.491 8  21653257.480    21653272.978       -1386.258  
     -1080.332          48.000          48.000  
 110457545.956 7  86070873.355 7  21019372.671    21019387.273       -1440.863  
     -1122.734          44.000          45.000  
 24  1 10  3 13  6.3000000  0  4G10G32G18G23
 109175444.839 7  85071843.222 7  20775397.409    20775414.130         508.539  
       396.145          47.000          44.000  
 118192102.934 7  92097827.695 7  22491210.441    22491230.447        3289.324  
      2562.770          45.000          43.000  
 113788770.518 8  88666639.534 8  21653283.870    21653299.363       -1386.539  
     -1080.477          48.000          48.000  
 110457690.097 7  86070985.653 7  21019400.100    21019414.698       -1441.168  
     -1123.145          44.000          45.000  
 24  1 10  3 13  6.4000000  0  4G10G32G18G23
 109175394.026 7  85071803.635 7  20775387.513    20775404.471         508.043  
       395.844          47.000          44.000  
 118191774.081 7  92097571.431 7  22491148.238    22491167.770        3288.562  
      2562.672          45.000          43.000  
 113788909.212 8  88666747.612 8  21653310.661    21653325.725       -1387.141  
     -1080.770          48.000          48.000  
 110457834.257 7  86071098.013 7  21019427.376    21019442.090       -1441.688  
     -1123.395          44.000          45.000  
 24  1 10  3 13  6.5000000  0  4G10G32G18G23
 109175343.209 7  85071764.036 7  20775377.843    20775394.800         508.062  
       395.938          47.000          44.000  
 118191445.195 7  92097315.163 7  22491085.653    22491105.187        3288.688  
      2562.613          45.000          43.000  
 113789047.903 8  88666855.671 8  21653337.053    21653352.114       -1387.004  
     -1080.797          48.000          48.000  
 110457978.406 7  86071210.331 7  21019454.807    21019469.520       -1441.594  
     -1123.266          44.000          45.000  
 24  1 10  3 13  6.6000000  0  4G10G32G18G23
 109175292.374 7  85071724.436 7  20775368.224    20775385.090         508.316  
       396.180          47.000          44.000  
 118191116.289 7  92097058.878 7  22491023.158    22491042.568        3289.012  
      2562.781          45.000          43.000  
 113789186.585 8  88666963.752 8  21653363.334    21653378.892       -1386.793  
     -1080.602          48.000          48.000  
 110458122.543 7  86071322.664 7  21019482.313    21019497.210       -1441.254  
     -1123.098          44.000          45.000  
 24  1 10  3 13  6.7000000  0  4G10G32G18G23
 109175241.567 7  85071684.831 7  20775358.556    20775375.418         508.219  
       395.930          47.000          44.000  
 118190787.425 7  92096802.621 7  22490960.577    22490979.988        3288.852  
      2562.641          45.000          43.000  
 113789325.288 7  88667071.810 8  21653389.728    21653405.281       -1386.910  
     -1080.797          47.000          48.000  
 110458266.700 7  86071434.955 7  21019509.746    21019524.633       -1441.617  
     -1123.320          44.000          45.000  
 24  1 10  3 13  6.8000000  0  4G10G32G18G23
 109175190.750 7  85071645.239 7  20775348.925    20775365.671         508.184  
       395.887          47.000          44.000  
 118190458.528 7  92096546.331 7  22490897.951    22490917.321        3288.875  
      2562.715          45.000          43.000  
 113789463.968 7  88667179.889 8  21653415.845    21653431.628       -1386.801  
     -1080.684          47.000          48.000  
 110458410.842 7  86071547.309 7  21019537.120    21019551.649       -1441.363  
     -1123.078          44.000          45.000  
 24  1 10  3 13  6.9000000  0  4G10G32G18G23
 109175139.965 7  85071605.685 7  20775339.261    20775356.012         507.992  
       395.758          47.000          44.000  
 118190129.687 7  92096290.085 7  22490835.374    22490854.743        3288.633  
      2562.566          45.000          43.000  
 113789602.700 7  88667288.000 8  21653442.244    21653458.029       -1387.062  
     -1080.977          47.000          48.000  
 110458555.021 7  86071659.635 7  21019564.557    21019579.080       -1441.676  
     -1123.414          44.000          45.000  
 24  1 10  3 13  7.0000000  0  5G10G32G18G23G15
 109175089.175 7  85071566.099 7  20775329.752    20775346.485         507.926  
       395.633          47.000          44.000  
 118189800.841 7  92096033.844 7  22490772.641    22490792.276        3288.539  
      2562.375          45.000          43.000  
 113789741.430 8  88667396.094 8  21653468.613    21653484.630       -1387.180  
     -1080.914          48.000          48.000  
 110458699.215 7  86071771.987 7  21019591.808    21019606.643       -1441.734  
     -1123.434          44.000          45.000  
 127089082.21716  99030532.20817  24184249.610    24184267.781       -2991.938  
     -2331.488          38.000          44.000  
 24  1 10  3 13  7.1000000  0  5G10G32G18G23G15
 109175038.416 7  85071526.538 7  20775320.093    20775336.824         507.762  
       395.609          47.000          44.000  
 118189471.998 7  92095777.602 7  22490710.064    22490729.699        3288.473  
      2562.328          45.000          43.000  
 113789880.162 8  88667504.191 8  21653495.012    21653511.029       -1387.309  
     -1081.023          48.000          48.000  
 110458843.400 7  86071884.343 7  21019619.246    21019634.081       -1441.836  
     -1123.496          44.000          45.000  
 127089381.441 6  99030765.351 7  24184306.551    24184324.717       -2992.094  
     -2331.422          38.000          44.000  
 24  1 10  3 13  7.2000000  0  5G10G32G18G23G15
 109174987.654 7  85071487.004 7  20775310.363    20775326.810         507.660  
       395.453          47.000          44.000  
 118189143.200 7  92095521.402 7  22490647.551    22490667.265        3288.211  
      2562.191          45.000          43.000  
 113790018.903 8  88667612.296 8  21653521.539    21653537.085       -1387.418  
     -1081.211          48.000          48.000  
 110458987.609 7  86071996.724 7  21019646.719    21019661.362       -1442.020  
     -1123.805          44.000          45.000  
 127089680.662 6  99030998.529 7  24184363.694    24184381.896       -2992.121  
     -2331.766          38.000          44.000  
 24  1 10  3 13  7.3000000  0  5G10G32G18G23G15
 109174936.929 7  85071447.456 7  20775300.710    20775317.152         507.434  
       395.250          47.000          44.000  
 118188814.400 7  92095265.197 7  22490584.982    22490604.697        3288.137  
      2562.043          45.000          43.000  
 113790157.701 7  88667720.456 8  21653547.951    21653563.499       -1387.574  
     -1081.383          47.000          48.000  
 110459131.837 7  86072109.102 7  21019674.165    21019688.806       -1442.031  
     -1123.848          44.000          45.000  
 127089979.907 6  99031231.705 7  24184420.638    24184438.840       -2992.328  
     -2331.789          38.000          44.000  
 24  1 10  3 13  7.4000000  0  5G10G32G18G23G15
 109174886.196 7  85071407.947 7  20775291.001    20775307.613         507.395  
       395.227          47.000          44.000  
 118188485.603 7  92095008.987 7  22490522.398    22490542.097        3288.000  
      2562.016          45.000          43.000  
 113790296.470 7  88667828.607 8  21653574.491    21653589.746       -1387.773  
     -1081.488          47.000          48.000  
 110459276.064 7  86072221.487 7  21019701.915    21019716.368       -1442.277  
     -1123.930          44.000          45.000  
 127090279.147 6  99031464.892 7  24184477.215    24184495.880       -2992.344  
     -2331.828          38.000          44.000  
 24  1 10  3 13  7.5000000  0  5G10G32G18G23G15
 109174835.499 7  85071368.426 7  20775281.354    20775297.961         507.102  
       395.121          47.000          44.000  
 118188156.820 7  92094752.793 7  22490459.833    22490479.532        3287.852  
      2561.758          45.000          43.000  
 113790435.263 7  88667936.736 8  21653600.902    21653616.153       -1387.836  
     -1081.488          47.000          48.000  
 110459420.300 7  86072333.869 7  21019729.362    21019743.813       -1442.309  
     -1123.922          44.000          45.000  
 127090578.430 6  99031698.073 7  24184534.166    24184552.825       -2992.605  
     -2331.906          38.000          44.000  
 24  1 10  3 13  7.6000000  0  5G10G32G18G23G15
 109174784.790 7  85071328.922 7  20775271.501    20775288.455         507.117  
       395.219          47.000          44.000  
 118187828.055 7  92094496.626 7  22490397.279    22490416.989        3287.746  
      2561.871          45.000          43.000  
 113790574.074 7  88668044.907 8  21653627.333    21653642.522       -1387.906  
     -1081.562          47.000          48.000  
 110459564.534 7  86072446.285 7  21019756.989    21019771.313       -1442.352  
     -1124.137          44.000          45.000  
 127090877.658 6  99031931.271 7  24184590.842    24184609.431       -2992.426  
     -2332.000          39.000          44.000  
 24  1 10  3 13  7.7000000  0  5G10G32G18G23G15
 109174734.088 7  85071289.412 7  20775261.853    20775278.806         507.121  
       394.879          47.000          44.000  
 118187499.285 7  92094240.429 7  22490334.716    22490354.423        3287.750  
      2561.750          45.000          43.000  
 113790712.888 7  88668153.070 7  21653653.748    21653668.937       -1388.008  
     -1081.566          47.000          47.000  
 110459708.785 7  86072558.662 7  21019784.439    21019798.757       -1442.438  
     -1124.012          44.000          45.000  
 127091176.970 6  99032164.466 7  24184647.799    24184666.379       -2992.840  
     -2331.938          39.000          44.000  
 24  1 10  3 13  7.8000000  0  5G10G32G18G23G15
 109174683.401 7  85071249.909 7  20775252.325    20775268.808         506.949  
       395.074          47.000          44.000  
 118187170.527 7  92093984.274 7  22490271.945    22490291.844        3287.625  
      2561.812          45.000          43.000  
 113790851.684 7  88668261.220 7  21653680.035    21653695.543       -1388.090  
     -1081.746          47.000          47.000  
 110459853.047 7  86072671.091 7  21019811.578    21019825.971       -1442.481  
     -1124.098          44.000          45.000  
 127091476.263 6  99032397.660 7  24184705.112    24184723.304       -2992.758  
     -2331.961          39.000          44.000  
 24  1 10  3 13  7.9000000  0  5G10G32G18G23G15
 109174632.728 7  85071210.426 7  20775242.682    20775259.165         506.848  
       394.910          47.000          44.000  
 118186841.774 7  92093728.073 7  22490209.385    22490229.277        3287.590  
      2561.605          45.000          43.000  
 113790990.512 7  88668369.413 7  21653706.453    21653721.965       -1388.106  
     -1081.746          47.000          47.000  
 110459997.318 7  86072783.511 7  21019839.032    21019853.425       -1442.633  
     -1124.137          44.000          45.000  
 127091775.523 6  99032630.880 7  24184762.059    24184780.259       -2992.766  
     -2332.172          39.000          44.000  
 24  1 10  3 13  8.0000000  0  5G10G32G18G23G15
 109174582.060 7  85071170.944 7  20775233.282    20775249.703         506.746  
       394.863          47.000          44.000  
 118186513.046 7  92093471.936 7  22490146.877    22490166.616        3287.391  
      2561.586          45.000          43.000  
 113791129.353 7  88668477.595 7  21653732.788    21653748.658       -1388.445  
     -1081.934          47.000          47.000  
 110460141.619 7  86072895.965 7  21019866.312    21019880.981       -1442.641  
     -1124.367          44.000          45.000  
 127092074.825 6  99032864.107 7  24184819.390    24184837.325       -2992.930  
     -2332.199          38.000          44.000  
 24  1 10  3 13  8.1000000  0  5G10G32G18G23G15
 109174531.412 7  85071131.478 7  20775223.644    20775240.065         506.605  
       394.590          47.000          44.000  
 118186184.320 7  92093215.799 7  22490084.323    22490104.065        3287.332  
      2561.477          45.000          43.000  
 113791268.204 7  88668585.796 7  21653759.210    21653775.082       -1388.340  
     -1081.852          47.000          47.000  
 110460285.885 7  86073008.372 7  21019893.765    21019908.432       -1442.898  
     -1124.356          44.000          45.000  
 127092374.117 6  99033097.331 7  24184876.343    24184894.281       -2992.852  
     -2332.270          39.000          44.000  
 24  1 10  3 13  8.2000000  0  5G10G32G18G23G15
 109174480.758 7  85071092.012 7  20775214.029    20775230.701         506.488  
       394.664          47.000          44.000  
 118185855.599 7  92092959.639 7  22490021.855    22490041.860        3287.270  
      2561.473          45.000          43.000  
 113791407.060 7  88668693.985 7  21653785.704    21653801.471       -1388.481  
     -1082.082          47.000          47.000  
 110460430.195 7  86073120.815 7  21019921.219    21019936.251       -1442.887  
     -1124.367          44.000          45.000  
 127092673.437 6  99033330.562 7  24184933.208    24184950.832       -2993.047  
     -2332.223          39.000          44.000  
 24  1 10  3 13  8.3000000  0  5G10G32G18G23G15
 109174430.140 7  85071052.568 7  20775204.396    20775221.068         506.430  
       394.516          47.000          44.000  
 118185526.921 7  92092703.533 7  22489959.310    22489979.316        3287.031  
      2561.230          45.000          43.000  
 113791545.925 7  88668802.190 7  21653812.129    21653827.896       -1388.602  
     -1082.195          47.000          47.000  
 110460574.516 7  86073233.264 7  21019948.682    21019963.712       -1443.078  
     -1124.613          44.000          45.000  
 127092972.772 6  99033563.801 7  24184990.169    24185007.791       -2993.227  
     -2332.461          39.000          44.000  
 24  1 10  3 13  8.4000000  0  5G10G32G18G23G15
 109174379.522 7  85071013.126 7  20775194.506    20775211.428         506.324  
       394.383          47.000          44.000  
 118185198.240 7  92092447.418 7  22489896.631    22489916.481        3286.891  
      2561.285          45.000          43.000  
 113791684.822 7  88668910.435 7  21653838.451    21653854.198       -1388.801  
     -1082.195          47.000          47.000  
 110460718.815 7  86073345.708 7  21019976.133    21019991.180       -1443.184  
     -1124.395          44.000          45.000  
 127093272.122 6  99033797.051 7  24185047.126    24185064.769       -2993.395  
     -2332.488          39.000          44.000  
 24  1 10  3 13  8.5000000  0  5G10G32G18G23G15
 109174328.909 7  85070973.688 7  20775184.875    20775201.797         506.184  
       394.406          47.000          44.000  
 118184869.545 7  92092191.295 7  22489834.082    22489853.933        3286.871  
      2561.016          45.000          43.000  
 113791823.713 7  88669018.643 7  21653864.881    21653880.623       -1388.863  
     -1082.231          47.000          47.000  
 110460863.124 7  86073458.143 7  21020003.594    21020018.638       -1443.195  
     -1124.703          44.000          45.000  
 127093571.454 6  99034030.312 7  24185104.087    24185121.734       -2993.445  
     -2332.512          39.000          44.000  
 24  1 10  3 13  8.6000000  0  5G10G32G18G23G15
 109174278.303 7  85070934.253 7  20775174.948    20775192.135         506.102  
       394.141          47.000          44.000  
 118184540.869 7  92091935.194 7  22489771.639    22489790.836        3286.844  
      2561.215          45.000          43.000  
 113791962.616 7  88669126.879 7  21653891.407    21653907.220       -1388.867  
     -1082.309          47.000          47.000  
 110461007.490 7  86073570.665 7  21020031.066    21020046.180       -1443.231  
     -1124.707          44.000          45.000  
 127093870.817 6  99034263.565 7  24185160.890    24185179.267       -2993.461  
     -2332.531          38.000          44.000  
 24  1 10  3 13  8.7000000  0  5G10G32G18G23G15
 109174227.694 7  85070894.813 7  20775165.318    20775182.504         506.105  
       394.441          47.000          44.000  
 118184212.189 7  92091679.057 7  22489709.093    22489728.285        3286.801  
      2561.109          45.000          43.000  
 113792101.497 7  88669235.106 7  21653917.836    21653933.650       -1388.883  
     -1082.457          47.000          47.000  
 110461151.837 7  86073683.148 7  21020058.535    21020073.649       -1443.312  
     -1124.641          44.000          45.000  
 127094170.149 6  99034496.815 7  24185217.851    24185236.229       -2993.418  
     -2332.461          38.000          44.000  
 24  1 10  3 13  8.8000000  0  5G10G32G18G23G15
 109174177.111 7  85070855.397 7  20775155.926    20775172.565         505.949  
       394.195          47.000          44.000  
 118183883.531 7  92091422.961 7  22489646.559    22489666.126        3286.660  
      2560.938          45.000          43.000  
 113792240.414 7  88669343.348 7  21653944.380    21653959.912       -1389.059  
     -1082.363          47.000          47.000  
 110461296.182 7  86073795.606 7  21020085.768    21020100.769       -1443.410  
     -1124.703          44.000          45.000  
 127094469.475 6  99034730.091 7  24185274.943    24185293.338       -2993.320  
     -2332.762          38.000          44.000  
 24  1 10  3 13  8.9000000  0  5G10G32G18G23G15
 109174126.538 7  85070815.976 7  20775146.303    20775162.938         505.793  
       393.980          47.000          44.000  
 118183554.906 7  92091166.894 7  22489584.024    22489603.592        3286.453  
      2560.762          45.000          43.000  
 113792379.342 7  88669451.615 7  21653970.817    21653986.351       -1389.160  
     -1082.652          47.000          47.000  
 110461440.532 7  86073908.073 7  21020113.237    21020128.234       -1443.527  
     -1124.988          44.000          45.000  
 127094768.887 6  99034963.360 7  24185331.920    24185350.304       -2993.793  
     -2332.680          39.000          44.000  
 24  1 10  3 13  9.0000000  0  5G10G32G18G23G15
 109174075.985 7  85070776.610 7  20775137.034    20775153.270         505.688  
       393.988          47.000          44.000  
 118183226.264 7  92090910.811 7  22489521.689    22489541.265        3286.422  
      2560.754          45.000          43.000  
 113792518.277 7  88669559.854 8  21653997.404    21654012.449       -1389.387  
     -1082.680          47.000          48.000  
 110461584.916 7  86074020.603 7  21020140.931    21020155.997       -1443.637  
     -1125.020          44.000          45.000  
 127095068.279 6  99035196.647 7  24185389.150    24185406.869       -2993.852  
     -2332.801          39.000          44.000  
 24  1 10  3 13  9.1000000  0  5G10G32G18G23G15
 109174025.436 7  85070737.212 7  20775127.415    20775143.649         505.516  
       393.711          47.000          44.000  
 118182897.646 7  92090654.741 7  22489459.155    22489478.730        3286.262  
      2560.664          45.000          43.000  
 113792657.252 7  88669668.159 8  21654023.850    21654038.898       -1389.469  
     -1082.809          47.000          48.000  
 110461729.291 7  86074133.101 7  21020168.405    21020183.470       -1443.793  
     -1125.078          44.000          45.000  
 127095367.671 6  99035429.957 7  24185446.122    24185463.846       -2993.852  
     -2332.977          39.000          44.000  
 24  1 10  3 13  9.2000000  0  5G10G32G18G23G15
 109173974.903 7  85070697.847 7  20775117.932    20775133.918         505.453  
       393.773          47.000          44.000  
 118182569.041 7  92090398.685 7  22489396.819    22489416.214        3286.164  
      2560.664          45.000          43.000  
 113792796.200 7  88669776.430 8  21654050.103    21654065.823       -1389.574  
     -1082.836          47.000          48.000  
 110461873.697 7  86074245.627 7  21020195.986    21020210.637       -1443.934  
     -1125.211          44.000          45.000  
 127095667.083 6  99035663.255 7  24185502.825    24185520.952       -2994.027  
     -2333.039          39.000          44.000  
 24  1 10  3 13  9.3000000  0  5G10G32G18G23G15
 109173924.378 7  85070658.473 7  20775108.317    20775124.302         505.402  
       393.730          47.000          44.000  
 118182240.447 7  92090142.636 7  22489334.289    22489353.684        3286.031  
      2560.590          45.000          43.000  
 113792935.172 7  88669884.719 8  21654076.549    21654092.268       -1389.606  
     -1082.867          47.000          48.000  
 110462018.103 7  86074358.133 7  21020223.465    21020238.112       -1443.906  
     -1125.184          44.000          45.000  
 127095966.499 6  99035896.564 7  24185559.802    24185577.929       -2994.035  
     -2333.117          39.000          44.000  
 24  1 10  3 13  9.4000000  0  5G10G32G18G23G15
 109173873.873 7  85070619.122 7  20775098.597    20775115.005         505.215  
       393.594          47.000          44.000  
 118181911.869 7  92089886.613 7  22489271.099    22489291.575        3285.934  
      2560.227          45.000          43.000  
 113793074.170 7  88669993.042 7  21654102.999    21654118.331       -1389.809  
     -1083.106          47.000          47.000  
 110462162.506 7  86074470.656 7  21020250.937    21020265.693       -1444.148  
     -1125.441          44.000          45.000  
 127096265.919 6  99036129.892 7  24185616.702    24185635.277       -2994.211  
     -2333.297          39.000          44.000  
 24  1 10  3 13  9.5000000  0  5G10G32G18G23G15
 109173823.373 7  85070579.766 7  20775088.987    20775105.394         505.039  
       393.398          47.000          44.000  
 118181583.300 7  92089630.584 7  22489208.574    22489229.050        3285.746  
      2560.270          45.000          43.000  
 113793213.160 7  88670101.335 7  21654129.448    21654144.778       -1389.930  
     -1083.160          47.000          47.000  
 110462306.931 7  86074583.214 7  21020278.420    21020293.181       -1444.168  
     -1125.520          44.000          45.000  
 127096565.374 6  99036363.217 7  24185673.686    24185692.257       -2994.375  
     -2333.207          39.000          44.000  
 24  1 10  3 13  9.6000000  0  5G10G32G18G23G15
 109173772.904 7  85070540.454 7  20775079.329    20775095.926         504.957  
       393.383          47.000          44.000  
 118181254.739 7  92089374.551 7  22489146.028    22489166.204        3285.664  
      2560.160          45.000          43.000  
 113793352.174 7  88670209.647 7  21654156.019    21654171.057       -1390.090  
     -1083.172          47.000          47.000  
 110462451.380 7  86074695.773 7  21020306.048    21020320.661       -1444.277  
     -1125.395          44.000          45.000  
 127096864.830 6  99036596.563 7  24185730.671    24185748.798       -2994.359  
     -2333.402          39.000          44.000  
 24  1 10  3 13  9.7000000  0  5G10G32G18G23G15
 109173722.421 7  85070501.090 7  20775069.722    20775086.313         504.891  
       393.473          46.000          44.000  
 118180926.187 7  92089118.535 7  22489083.507    22489103.682        3285.582  
      2560.250          45.000          43.000  
 113793491.213 7  88670317.993 7  21654182.477    21654197.516       -1390.106  
     -1083.293          46.000          47.000  
 110462595.828 7  86074808.304 7  21020333.536    21020348.142       -1444.434  
     -1125.508          44.000          45.000  
 127097164.281 6  99036829.913 7  24185787.654    24185805.784       -2994.449  
     -2333.523          39.000          44.000  
 24  1 10  3 13  9.8000000  0  5G10G32G18G23G15
 109173671.924 7  85070461.764 7  20775059.933    20775076.631         504.832  
       393.168          46.000          44.000  
 118180597.634 7  92088862.551 7  22489020.962    22489041.239        3285.617  
      2559.934          45.000          43.000  
 113793630.240 7  88670426.345 7  21654208.769    21654224.477       -1390.156  
     -1083.316          46.000          47.000  
 110462740.271 7  86074920.874 7  21020360.913    21020375.633       -1444.340  
     -1125.676          44.000          45.000  
 127097463.733 6  99037063.260 7  24185844.380    24185862.699       -2994.449  
     -2333.520          39.000          44.000  
 24  1 10  3 13  9.9000000  0  5G10G32G18G23G15
 109173621.466 7  85070422.437 7  20775050.331    20775067.027         504.750  
       393.426          46.000          45.000  
 118180269.094 7  92088606.520 7  22488958.442    22488978.713        3285.480  
      2560.191          45.000          43.000  
 113793769.239 7  88670534.648 7  21654235.220    21654250.925       -1390.160  
     -1083.312          46.000          47.000  
 110462884.703 7  86075033.437 7  21020388.397    21020403.122       -1444.359  
     -1125.488          44.000          45.000  
 127097763.206 6  99037296.604 7  24185901.368    24185919.685       -2994.605  
     -2333.184          39.000          44.000  
 24  1 10  3 13 10.0000000  0  5G10G32G18G23G15
 109173571.017 7  85070383.118 7  20775040.473    20775057.441         504.656  
       393.184          46.000          44.000  
 118179940.586 7  92088350.543 7  22488896.273    22488916.256        3285.262  
      2559.883          45.000          43.000  
 113793908.279 7  88670642.991 7  21654261.764    21654277.227       -1390.391  
     -1083.465          46.000          47.000  
 110463029.188 7  86075145.999 7  21020415.814    21020430.509       -1444.594  
     -1125.785          44.000          45.000  
 127098062.664 6  99037529.953 7  24185958.064    24185976.764       -2994.656  
     -2333.621          38.000          44.000  
 24  1 10  3 13 10.1000000  0  5G10G32G18G23G15
 109173520.579 7  85070343.823 7  20775030.875    20775047.844         504.445  
       392.895          46.000          44.000  
 118179612.059 7  92088094.550 7  22488833.757    22488853.740        3285.250  
      2559.648          45.000          43.000  
 113794047.368 7  88670751.359 7  21654288.232    21654303.692       -1390.531  
     -1083.621          46.000          47.000  
 110463173.649 7  86075258.551 7  21020443.304    21020457.996       -1444.832  
     -1125.856          44.000          45.000  
 127098362.156 6  99037763.341 7  24186015.055    24186033.760       -2994.750  
     -2333.840          38.000          44.000  
 24  1 10  3 13 10.2000000  0  5G10G32G18G23G15
 109173470.154 7  85070304.536 7  20775021.334    20775038.281         504.355  
       392.973          46.000          44.000  
 118179283.572 7  92087838.600 7  22488771.537    22488791.164        3285.055  
      2559.797          45.000          43.000  
 113794186.423 7  88670859.707 8  21654314.615    21654330.488       -1390.629  
     -1083.645          46.000          48.000  
 110463318.162 7  86075371.182 7  21020470.710    21020485.306       -1444.805  
     -1126.039          44.000          45.000  
 127098661.671 6  99037996.714 7  24186072.168    24186091.221       -2994.949  
     -2333.699          38.000          44.000  
 24  1 10  3 13 10.3000000  0  5G10G32G18G23G15
 109173419.744 7  85070265.249 7  20775011.742    20775028.687         504.207  
       392.805          46.000          44.000  
 118178955.090 7  92087582.627 7  22488709.029    22488728.653        3284.938  
      2559.547          45.000          43.000  
 113794325.525 7  88670968.110 7  21654341.085    21654356.961       -1390.773  
     -1083.766          46.000          47.000  
 110463462.657 7  86075483.764 7  21020498.207    21020512.800       -1444.910  
     -1125.898          44.000          45.000  
 127098961.213 6  99038230.097 7  24186129.169    24186148.215       -2995.105  
     -2333.973          39.000          44.000  
 24  1 10  3 13 10.4000000  0  5G10G32G18G23G15
 109173369.345 7  85070225.972 7  20775002.448    20775019.189         504.016  
       392.648          46.000          45.000  
 118178626.623 7  92087326.682 7  22488646.438    22488666.211        3284.746  
      2559.543          45.000          43.000  
 113794464.632 7  88671076.506 8  21654367.455    21654383.229       -1390.922  
     -1083.910          46.000          48.000  
 110463607.189 7  86075596.410 7  21020525.780    21020540.410       -1445.023  
     -1126.016          44.000          45.000  
 127099260.733 6  99038463.508 7  24186186.229    24186205.310       -2995.172  
     -2334.043          39.000          44.000  
 24  1 10  3 13 10.5000000  0  5G10G32G18G23G15
 109173318.963 7  85070186.720 7  20774992.861    20775009.603         503.938  
       392.688          46.000          45.000  
 118178298.157 7  92087070.730 7  22488583.933    22488603.704        3284.723  
      2559.520          45.000          43.000  
 113794603.731 7  88671184.901 7  21654393.925    21654409.700       -1390.984  
     -1084.012          47.000          47.000  
 110463751.718 7  86075708.997 7  21020553.283    21020567.905       -1445.356  
     -1126.125          44.000          45.000  
 127099560.252 6  99038696.902 7  24186243.225    24186262.308       -2995.180  
     -2333.992          39.000          44.000  
 24  1 10  3 13 10.6000000  0  5G10G32G18G23G15
 109173268.569 7  85070147.453 7  20774983.224    20774999.788         503.945  
       392.449          46.000          45.000  
 118177969.696 7  92086814.785 7  22488521.327    22488540.731        3284.652  
      2559.352          45.000          43.000  
 113794742.836 7  88671293.279 8  21654420.559    21654436.058       -1391.055  
     -1083.918          47.000          48.000  
 110463896.238 7  86075821.625 7  21020581.066    21020595.457       -1445.164  
     -1126.223          44.000          45.000  
 127099859.785 6  99038930.325 7  24186300.154    24186319.367       -2995.262  
     -2333.984          39.000          44.000  
 24  1 10  3 13 10.7000000  0  5G10G32G18G23G15
 109173218.225 7  85070108.228 7  20774973.644    20774990.208         503.719  
       392.500          46.000          44.000  
 118177641.267 7  92086558.879 7  22488458.829    22488478.236        3284.465  
      2559.184          45.000          43.000  
 113794881.966 7  88671401.695 8  21654447.035    21654462.534       -1391.195  
     -1084.246          47.000          48.000  
 110464040.774 7  86075934.260 7  21020608.570    21020622.964       -1445.328  
     -1126.414          44.000          45.000  
 127100159.337 6  99039163.715 7  24186357.157    24186376.363       -2995.391  
     -2334.176          39.000          44.000  
 24  1 10  3 13 10.8000000  0  5G10G32G18G23G15
 109173167.877 7  85070068.993 7  20774964.305    20774980.408         503.543  
       392.352          46.000          44.000  
 118177312.846 7  92086302.953 7  22488396.481    22488415.541        3284.273  
      2559.195          45.000          43.000  
 113795021.107 7  88671510.128 7  21654473.606    21654488.710       -1391.363  
     -1084.227          47.000          47.000  
 110464185.323 7  86076046.884 7  21020636.194    21020650.437       -1445.551  
     -1126.441          44.000          45.000  
 127100458.951 6  99039397.163 7  24186413.992    24186432.912       -2995.773  
     -2334.309          38.000          44.000  
 24  1 10  3 13 10.9000000  0  5G10G32G18G23G15
 109173117.529 7  85070029.752 7  20774954.724    20774970.825         503.574  
       392.430          47.000          44.000  
 118176984.409 7  92086047.043 7  22488333.982    22488353.046        3284.391  
      2559.215          45.000          43.000  
 113795160.272 7  88671618.543 8  21654500.089    21654515.186       -1391.395  
     -1084.090          47.000          48.000  
 110464329.888 7  86076159.535 7  21020663.704    21020677.947       -1445.504  
     -1126.305          44.000          45.000  
 127100758.493 6  99039630.585 7  24186470.993    24186489.916       -2995.547  
     -2334.227          38.000          44.000  
 24  1 10  3 13 11.0000000  0  5G10G32G18G23G15
 109173067.217 7  85069990.576 7  20774945.095    20774961.515         503.340  
       392.105          47.000          44.000  
 118176656.022 7  92085791.161 7  22488271.460    22488290.697        3284.074  
      2558.871          45.000          43.000  
 113795299.451 7  88671727.007 8  21654526.495    21654541.869       -1391.590  
     -1084.574          47.000          48.000  
 110464474.470 7  86076272.193 7  21020691.037    21020705.631       -1445.750  
     -1126.719          44.000          45.000  
 127101058.106 6  99039864.021 7  24186527.992    24186546.822       -2995.934  
     -2334.324          38.000          44.000  
 24  1 10  3 13 11.1000000  0  5G10G32G18G23G15
 109173016.893 7  85069951.346 7  20774935.519    20774951.935         503.207  
       392.035          47.000          44.000  
 118176327.623 7  92085535.266 7  22488208.968    22488228.205        3283.996  
      2558.996          45.000          43.000  
 113795438.604 7  88671835.446 8  21654552.975    21654568.351       -1391.602  
     -1084.438          47.000          48.000  
 110464619.054 7  86076384.868 7  21020718.551    21020733.147       -1445.816  
     -1126.594          44.000          45.000  
 127101357.707 6  99040097.479 7  24186585.004    24186603.835       -2995.965  
     -2334.500          38.000          44.000  
 24  1 10  3 13 11.2000000  0  5G10G32G18G23G15
 109172966.584 7  85069912.145 7  20774925.672    20774942.510         503.121  
       391.965          47.000          44.000  
 118175999.232 7  92085279.373 7  22488146.118    22488166.065        3283.988  
      2558.898          45.000          43.000  
 113795577.792 7  88671943.897 7  21654579.470    21654594.836       -1391.836  
     -1084.582          47.000          47.000  
 110464763.668 7  86076497.555 7  21020745.874    21020761.042       -1445.840  
     -1126.691          44.000          45.000  
 127101657.293 6  99040330.930 7  24186642.076    24186660.885       -2995.887  
     -2334.570          38.000          44.000  
 24  1 10  3 13 11.3000000  0  5G10G32G18G23G15
 109172916.298 7  85069872.958 7  20774916.103    20774932.941         503.012  
       391.945          46.000          44.000  
 118175670.868 7  92085023.524 7  22488083.632    22488103.584        3283.762  
      2558.602          45.000          43.000  
 113795717.007 7  88672052.372 7  21654605.961    21654621.327       -1391.875  
     -1084.703          47.000          47.000  
 110464908.254 7  86076610.207 7  21020773.388    21020788.553       -1445.938  
     -1126.922          44.000          45.000  
 127101956.929 6  99040564.413 7  24186699.094    24186717.904       -2996.184  
     -2334.887          38.000          44.000  
 24  1 10  3 13 11.4000000  0  5G10G32G18G23G15
 109172866.016 7  85069833.769 7  20774906.824    20774923.323         502.867  
       391.863          46.000          44.000  
 118175342.517 7  92084767.651 7  22488021.126    22488041.050        3283.590  
      2558.637          45.000          43.000  
 113795856.207 7  88672160.850 7  21654632.208    21654648.037       -1392.008  
     -1084.754          47.000          47.000  
 110465052.878 7  86076722.919 7  21020800.628    21020815.508       -1446.137  
     -1126.852          44.000          45.000  
 127102256.534 6  99040797.873 7  24186756.107    24186774.925       -2996.078  
     -2334.570          38.000          43.000  
 24  1 10  3 13 11.5000000  0  5G10G32G18G23G15
 109172815.748 7  85069794.606 7  20774897.258    20774913.759         502.859  
       391.676          46.000          45.000  
 118175014.151 7  92084511.774 7  22487958.640    22487978.563        3283.621  
      2558.570          45.000          43.000  
 113795995.416 7  88672269.315 7  21654658.699    21654674.525       -1392.098  
     -1084.606          47.000          47.000  
 110465197.514 7  86076835.593 7  21020828.151    21020843.024       -1446.133  
     -1126.836          44.000          45.000  
 127102556.139 6  99041031.354 7  24186813.120    24186831.944       -2996.070  
     -2334.695          38.000          43.000  
 24  1 10  3 13 11.6000000  0  5G10G32G18G23G15
 109172765.490 7  85069755.434 7  20774887.390    20774904.224         502.715  
       391.648          47.000          44.000  
 118174685.819 7  92084255.922 7  22487896.481    22487916.011        3283.492  
      2558.574          45.000          43.000  
 113796134.649 7  88672377.802 7  21654684.967    21654700.800       -1392.156  
     -1084.981          47.000          47.000  
 110465342.138 7  86076948.300 7  21020855.946    21020870.384       -1446.238  
     -1127.090          44.000          45.000  
 127102855.832 6  99041264.834 7  24186870.314    24186889.118       -2996.461  
     -2334.898          38.000          44.000  
 24  1 10  3 13 11.7000000  0  5G10G32G18G23G15
 109172715.244 7  85069716.284 7  20774877.828    20774894.663         502.496  
       391.523          47.000          44.000  
 118174357.508 7  92084000.099 7  22487834.005    22487853.536        3283.301  
      2558.410          45.000          44.000  
 113796273.915 7  88672486.328 7  21654711.469    21654727.303       -1392.406  
     -1085.117          47.000          47.000  
 110465486.799 7  86077061.018 7  21020883.474    21020897.911       -1446.406  
     -1127.156          44.000          45.000  
 127103155.486 6  99041498.345 7  24186927.336    24186946.144       -2996.523  
     -2335.027          38.000          44.000  
 24  1 10  3 13 11.8000000  0  5G10G32G18G23G15
 109172665.006 7  85069677.156 7  20774868.120    20774884.835         502.453  
       391.422          47.000          44.000  
 118174029.177 7  92083744.286 7  22487771.518    22487791.017        3283.273  
      2558.180          44.000          43.000  
 113796413.152 7  88672594.817 7  21654738.340    21654753.735       -1392.406  
     -1085.008          47.000          47.000  
 110465631.437 7  86077173.729 7  21020911.013    21020925.522       -1446.535  
     -1127.172          44.000          45.000  
 127103455.145 6  99041731.853 7  24186984.531    24187002.997       -2996.664  
     -2335.016          38.000          44.000  
 24  1 10  3 13 11.9000000  0  5G10G32G18G23G15
 109172614.763 7  85069637.995 7  20774858.559    20774875.271         502.395  
       391.410          47.000          44.000  
 118173700.861 7  92083488.440 7  22487709.042    22487728.537        3283.223  
      2558.273          44.000          43.000  
 113796552.411 7  88672703.344 7  21654764.840    21654780.238       -1392.527  
     -1085.180          47.000          47.000  
 110465776.103 7  86077286.459 7  21020938.542    21020953.052       -1446.508  
     -1127.113          44.000          45.000  
 127103754.836 6  99041965.344 7  24187041.561    24187060.018       -2996.715  
     -2335.008          37.000          44.000  
 24  1 10  3 13 12.0000000  0  5G10G32G18G23G15
 109172564.550 7  85069598.859 7  20774849.082    20774865.487         502.258  
       391.430          47.000          44.000  
 118173372.582 7  92083232.635 7  22487646.322    22487665.707        3282.992  
      2558.191          44.000          44.000  
 113796691.670 7  88672811.850 8  21654791.504    21654806.822       -1392.613  
     -1085.215          47.000          48.000  
 110465920.754 7  86077399.160 7  21020966.318    21020980.684       -1446.598  
     -1127.340          44.000          45.000  
 127104054.485 6  99042198.872 7  24187098.637    24187117.290       -2996.648  
     -2335.207          38.000          44.000  
 24  1 10  3 13 12.1000000  0  5G10G32G18G23G15
 109172514.346 7  85069559.749 7  20774839.528    20774855.936         502.211  
       391.105          47.000          44.000  
 118173044.300 7  92082976.846 7  22487583.852    22487603.241        3282.891  
      2558.121          44.000          44.000  
 113796830.964 7  88672920.383 7  21654818.011    21654833.327       -1392.731  
     -1085.356          47.000          47.000  
 110466065.440 7  86077511.927 7  21020993.851    21021008.223       -1446.754  
     -1127.500          45.000          45.000  
 127104354.171 6  99042432.388 7  24187155.665    24187174.317       -2996.695  
     -2335.180          38.000          44.000  
 24  1 10  3 13 12.2000000  0  5G10G32G18G23G15
 109172464.157 7  85069520.642 7  20774830.165    20774846.331         502.023  
       391.164          47.000          44.000  
 118172716.021 7  92082721.023 7  22487521.484    22487541.102        3282.793  
      2558.012          44.000          44.000  
 113796970.261 7  88673028.943 7  21654844.659    21654859.753       -1392.840  
     -1085.426          47.000          47.000  
 110466210.144 7  86077624.656 7  21021021.333    21021036.049       -1446.856  
     -1127.379          45.000          45.000  
 127104653.856 6  99042665.928 7  24187212.693    24187231.256       -2996.848  
     -2335.379          38.000          44.000  
 24  1 10  3 13 12.3000000  0  5G10G32G18G23G15
 109172413.960 7  85069481.525 7  20774820.613    20774836.778         501.945  
       391.098          47.000          44.000  
 118172387.752 7  92082465.244 7  22487459.017    22487478.638        3282.754  
      2557.977          44.000          44.000  
 113797109.552 7  88673137.483 8  21654871.165    21654886.259       -1392.926  
     -1085.414          47.000          48.000  
 110466354.820 7  86077737.406 7  21021048.864    21021063.584       -1446.797  
     -1127.414          45.000          45.000  
 127104953.559 6  99042899.449 7  24187269.725    24187288.285       -2996.898  
     -2335.309          38.000          44.000  
 24  1 10  3 13 12.4000000  0  5G10G32G18G23G15
 109172363.751 7  85069442.412 7  20774811.293    20774827.445         502.012  
       391.078          47.000          44.000  
 118172059.474 7  92082209.432 7  22487396.462    22487415.893        3282.746  
      2557.953          45.000          44.000  
 113797248.846 7  88673246.014 8  21654897.383    21654912.990       -1392.887  
     -1085.320          47.000          48.000  
 110466499.513 7  86077850.154 7  21021076.179    21021091.462       -1446.871  
     -1127.449          44.000          45.000  
 127105253.229 6  99043132.986 7  24187326.282    24187345.426       -2996.762  
     -2335.344          38.000          44.000  
 24  1 10  3 13 12.5000000  0  5G10G32G18G23G15
 109172313.593 7  85069403.321 7  20774801.748    20774817.899         501.887  
       391.098          47.000          44.000  
 118171731.207 7  92081953.647 7  22487333.994    22487353.428        3282.691  
      2557.902          45.000          43.000  
 113797388.149 7  88673354.562 8  21654923.891    21654939.499       -1393.012  
     -1085.516          47.000          48.000  
 110466644.244 7  86077962.939 7  21021103.721    21021119.005       -1447.043  
     -1127.645          44.000          45.000  
 127105552.939 6  99043366.522 7  24187383.314    24187402.458       -2997.004  
     -2335.340          38.000          44.000  
 24  1 10  3 13 12.6000000  0  5G10G32G18G23G15
 109172263.433 7  85069364.214 7  20774791.984    20774808.638         501.645  
       390.738          47.000          44.000  
 118171402.972 7  92081697.877 7  22487271.658    22487290.864        3282.484  
      2557.703          45.000          44.000  
 113797527.493 7  88673463.148 8  21654950.228    21654965.821       -1393.219  
     -1085.715          47.000          48.000  
 110466788.963 7  86078075.695 7  21021131.447    21021146.455       -1447.082  
     -1127.676          44.000          45.000  
 127105852.689 6  99043600.097 7  24187440.480    24187459.530       -2997.230  
     -2335.738          38.000          44.000  
 24  1 10  3 13 12.7000000  0  5G10G32G18G23G15
 109172213.306 7  85069325.174 7  20774782.445    20774799.103         501.426  
       390.566          47.000          44.000  
 118171074.764 7  92081442.142 7  22487209.203    22487228.411        3282.266  
      2557.422          45.000          44.000  
 113797666.849 7  88673571.722 8  21654976.746    21654992.336       -1393.473  
     -1085.930          47.000          48.000  
 110466933.723 7  86078188.500 7  21021158.994    21021174.004       -1447.371  
     -1128.000          45.000          45.000  
 127106152.468 6  99043833.678 7  24187497.526    24187516.573       -2997.535  
     -2335.895          38.000          44.000  
 24  1 10  3 13 12.8000000  0  5G10G32G18G23G15
 109172163.168 7  85069286.109 7  20774773.193    20774789.649         501.410  
       390.645          47.000          44.000  
 118170746.555 7  92081186.389 7  22487146.965    22487165.977        3282.176  
      2557.441          45.000          44.000  
 113797806.207 7  88673680.329 8  21655003.562    21655018.766       -1393.449  
     -1085.945          47.000          48.000  
 110467078.468 7  86078301.284 7  21021186.702    21021201.484       -1447.410  
     -1127.797          44.000          45.000  
 127106452.169 6  99044067.252 7  24187554.393    24187573.497       -2997.281  
     -2335.711          38.000          44.000  
 24  1 10  3 13 12.9000000  0  5G10G32G18G23G15
 109172113.061 7  85069247.047 7  20774763.658    20774780.110         501.180  
       390.398          47.000          44.000  
 118170418.379 7  92080930.671 7  22487084.515    22487103.528        3281.953  
      2557.297          45.000          44.000  
 113797945.581 7  88673788.928 8  21655030.084    21655045.286       -1393.660  
     -1086.020          47.000          48.000  
 110467223.228 7  86078414.101 7  21021214.249    21021229.035       -1447.504  
     -1128.156          44.000          45.000  
 127106751.991 6  99044300.845 7  24187611.447    24187630.543       -2997.805  
     -2335.965          37.000          44.000  
 24  1 10  3 13 13.0000000  0  6G24G10G18G23G32G15
 129770644.95316 101120074.52716  24694532.360    24694554.232         722.988  
       563.121          41.000          41.000  
 109172062.982 7  85069208.047 7  20774753.965    20774770.500         500.938  
       390.191          47.000          44.000  
 113798085.009 7  88673897.581 8  21655056.757    21655072.375       -1393.938  
     -1086.379          47.000          48.000  
 110467368.010 7  86078526.907 7  21021241.613    21021256.693       -1447.793  
     -1128.305          44.000          45.000  
 118170090.212 7  92080674.943 7  22487021.997    22487041.382        3281.758  
      2556.934          45.000          44.000  
 127107051.788 6  99044534.440 7  24187668.637    24187687.691       -2997.773  
     -2336.012          37.000          44.000  
 24  1 10  3 13 13.1000000  0  6G24G10G18G23G32G15
 129770572.649 7 101120018.186 6  24694518.602    24694540.473         723.023  
       563.344          42.000          41.000  
 109172012.901 7  85069169.012 7  20774744.435    20774760.967         500.934  
       390.324          47.000          44.000  
 113798224.397 7  88674006.175 8  21655083.282    21655098.895       -1393.969  
     -1086.250          47.000          48.000  
 110467512.811 7  86078639.731 7  21021269.167    21021284.246       -1447.891  
     -1128.078          44.000          45.000  
 118169762.042 7  92080419.249 7  22486959.548    22486978.939        3281.750  
      2557.117          45.000          44.000  
 127107351.551 6  99044768.041 7  24187725.680    24187744.739       -2997.828  
     -2336.074          38.000          44.000  
 24  1 10  3 13 13.2000000  0  6G24G10G18G23G32G15
 129770500.382 7 101119961.859 6  24694504.920    24694527.178         722.871  
       563.293          42.000          41.000  
 109171962.830 7  85069130.008 7  20774734.930    20774751.403         500.824  
       390.086          47.000          44.000  
 113798363.816 7  88674114.813 8  21655109.758    21655125.613       -1394.082  
     -1086.363          47.000          48.000  
 110467657.606 7  86078752.557 7  21021296.557    21021311.768       -1447.930  
     -1128.402          44.000          45.000  
 118169433.904 7  92080163.548 7  22486896.957    22486916.486        3281.535  
      2557.027          45.000          43.000  
 127107651.384 6  99045001.671 7  24187783.065    24187801.504       -2998.121  
     -2336.219          37.000          44.000  
 24  1 10  3 13 13.3000000  0  6G24G10G18G23G32G15
 129770428.147 7 101119905.623 6  24694491.174    24694513.445         722.660  
       562.676          42.000          41.000  
 109171912.796 7  85069091.008 7  20774725.409    20774741.879         500.590  
       389.949          47.000          44.000  
 113798503.268 7  88674223.482 8  21655136.294    21655152.151       -1394.340  
     -1086.633          47.000          48.000  
 110467802.461 7  86078865.432 7  21021324.122    21021339.333       -1448.176  
     -1128.531          44.000          45.000  
 118169105.776 7  92079907.874 7  22486834.517    22486854.048        3281.414  
      2556.832          45.000          43.000  
 127107951.232 6  99045235.285 7  24187840.124    24187858.555       -2998.238  
     -2336.215          37.000          44.000  
 24  1 10  3 13 13.4000000  0  6G24G10G18G23G32G15
 129770355.891 7 101119849.267 6  24694477.752    24694499.979         722.570  
       563.395          42.000          41.000  
 109171862.741 7  85069051.997 7  20774715.977    20774732.719         500.547  
       390.012          47.000          44.000  
 113798642.710 7  88674332.143 8  21655162.759    21655178.148       -1394.312  
     -1086.438          47.000          48.000  
 110467947.266 7  86078978.267 7  21021351.365    21021366.904       -1448.090  
     -1128.527          44.000          45.000  
 118168777.636 7  92079652.186 7  22486772.308    22486791.700        3281.371  
      2556.809          45.000          43.000  
 127108251.021 6  99045468.945 7  24187897.203    24187915.422       -2998.125  
     -2336.473          38.000          44.000  
 24  1 10  3 13 13.5000000  0  6G24G10G18G23G32G15
 129770283.673 7 101119792.954 6  24694464.010    24694486.227         722.270  
       562.688          42.000          41.000  
 109171812.715 7  85069013.036 7  20774706.458    20774723.204         500.355  
       389.621          47.000          44.000  
 113798782.149 7  88674440.793 8  21655189.293    21655204.682       -1394.449  
     -1086.719          47.000          48.000  
 110468092.095 7  86079091.127 7  21021378.925    21021394.466       -1448.332  
     -1128.738          44.000          45.000  
 118168449.550 7  92079396.523 7  22486709.875    22486729.264        3281.102  
      2556.555          45.000          43.000  
 127108550.877 6  99045702.563 7  24187954.264    24187972.474       -2998.375  
     -2336.266          38.000          44.000  
 24  1 10  3 13 13.6000000  0  6G24G10G18G23G32G15
 129770211.470 7 101119736.712 6  24694450.285    24694472.632         722.070  
       562.535          42.000          41.000  
 109171762.698 7  85068974.056 7  20774696.612    20774713.646         500.262  
       389.680          47.000          44.000  
 113798921.625 8  88674549.484 8  21655215.647    21655230.874       -1394.586  
     -1086.844          48.000          48.000  
 110468236.947 7  86079204.005 7  21021406.521    21021421.953       -1448.500  
     -1128.746          44.000          45.000  
 118168121.457 7  92079140.845 7  22486647.293    22486666.966        3281.004  
      2556.719          45.000          43.000  
 127108850.733 6  99045936.230 7  24188011.247    24188029.249       -2998.414  
     -2336.566          38.000          44.000  
 24  1 10  3 13 13.7000000  0  6G24G10G18G23G32G15
 129770139.262 6 101119680.445 6  24694436.545    24694458.891         722.188  
       562.840          41.000          41.000  
 109171712.681 7  85068935.079 7  20774687.094    20774704.127         500.258  
       389.797          47.000          44.000  
 113799061.079 8  88674658.148 8  21655242.184    21655257.410       -1394.566  
     -1086.637          48.000          48.000  
 110468381.800 7  86079316.859 7  21021434.085    21021449.513       -1448.375  
     -1128.617          44.000          45.000  
 118167793.336 7  92078885.180 7  22486584.853    22486604.530        3281.090  
      2556.461          45.000          43.000  
 127109150.598 6  99046169.872 7  24188068.309    24188086.307       -2998.504  
     -2336.422          38.000          44.000  
 24  1 10  3 13 13.8000000  0  6G24G10G18G23G32G15
 129770067.065 6 101119624.174 6  24694422.822    24694445.196         722.094  
       562.465          41.000          41.000  
 109171662.680 7  85068896.112 7  20774677.594    20774694.783         500.129  
       389.812          47.000          44.000  
 113799200.579 8  88674766.837 8  21655268.793    21655284.250       -1394.781  
     -1086.891          48.000          48.000  
 110468526.698 7  86079429.796 7  21021461.791    21021476.453       -1448.535  
     -1128.945          44.000          45.000  
 118167465.267 7  92078629.550 7  22486522.432    22486541.813        3280.922  
      2556.543          45.000          43.000  
 127109450.458 6  99046403.523 7  24188125.511    24188143.515       -2998.594  
     -2336.621          38.000          44.000  
 24  1 10  3 13 13.9000000  0  6G24G10G18G23G32G15
 129769994.896 6 101119567.985 6  24694409.088    24694431.474         721.840  
       562.348          41.000          40.000  
 109171612.693 7  85068857.162 7  20774668.082    20774685.271         500.004  
       389.449          47.000          44.000  
 113799340.075 8  88674875.540 8  21655295.338    21655310.797       -1394.887  
     -1087.023          48.000          48.000  
 110468671.545 7  86079542.640 7  21021489.355    21021504.011       -1448.703  
     -1128.852          44.000          45.000  
 118167137.185 7  92078373.892 7  22486460.000    22486479.379        3280.793  
      2556.418          45.000          43.000  
 127109750.323 6  99046637.232 7  24188182.573    24188200.589       -2998.621  
     -2336.824          38.000          44.000  
 24  1 10  3 13 14.0000000  0  6G24G10G18G23G32G15
 129769922.726 6 101119511.739 6  24694395.082    24694417.660         721.777  
       562.254          41.000          40.000  
 109171562.715 7  85068818.219 7  20774658.525    20774675.745         499.879  
       389.402          47.000          44.000  
 113799479.585 8  88674984.264 8  21655321.980    21655337.293       -1394.945  
     -1087.059          48.000          48.000  
 110468816.443 7  86079655.551 7  21021516.818    21021531.577       -1448.770  
     -1128.992          44.000          45.000  
 118166809.130 7  92078118.277 7  22486397.503    22486417.362        3280.691  
      2556.297          45.000          44.000  
 127110050.270 6  99046870.892 7  24188239.409    24188257.651       -2999.047  
     -2336.672          38.000          44.000  
 24  1 10  3 13 14.1000000  0  6G24G10G18G23G32G15
 129769850.546 6 101119455.523 6  24694381.346    24694403.932         721.758  
       562.270          41.000          40.000  
 109171512.731 7  85068779.285 7  20774649.013    20774666.237         499.828  
       389.438          47.000          44.000  
 113799619.089 8  88675092.935 8  21655348.526    21655363.832       -1395.031  
     -1087.062          48.000          48.000  
 110468961.328 7  86079768.468 7  21021544.389    21021559.152       -1448.766  
     -1128.973          44.000          45.000  
 118166481.076 7  92077862.647 7  22486335.076    22486354.934        3280.641  
      2556.352          45.000          43.000  
 127110350.137 6  99047104.562 7  24188296.472    24188314.716       -2998.949  
     -2336.773          38.000          44.000  
 24  1 10  3 13 14.2000000  0  6G24G10G18G23G32G15
 129769778.397 7 101119399.291 6  24694367.695    24694389.723         721.715  
       562.191          42.000          40.000  
 109171462.776 7  85068740.357 7  20774639.484    20774656.285         499.695  
       389.273          47.000          44.000  
 113799758.621 8  88675201.670 7  21655374.953    21655390.558       -1395.141  
     -1087.211          48.000          47.000  
 110469106.224 7  86079881.367 7  21021571.993    21021587.052       -1448.898  
     -1129.133          44.000          45.000  
 118166153.032 7  92077607.022 7  22486272.433    22486292.750        3280.500  
      2556.258          45.000          43.000  
 127110650.029 6  99047338.256 7  24188353.461    24188372.411       -2998.832  
     -2336.828          38.000          44.000  
 24  1 10  3 13 14.3000000  0  6G24G10G18G23G32G15
 129769706.252 7 101119343.051 6  24694353.966    24694375.988         721.562  
       562.223          42.000          40.000  
 109171412.825 7  85068701.412 7  20774629.978    20774646.774         499.566  
       389.223          47.000          44.000  
 113799898.156 8  88675310.418 8  21655401.506    21655417.115       -1395.195  
     -1087.254          48.000          48.000  
 110469251.130 7  86079994.270 7  21021599.568    21021614.624       -1449.047  
     -1129.297          44.000          45.000  
 118165824.994 7  92077351.408 7  22486210.009    22486230.327        3280.457  
      2556.078          45.000          43.000  
 127110949.930 6  99047571.959 7  24188410.531    24188429.484       -2998.977  
     -2337.113          38.000          44.000  
 24  1 10  3 13 14.4000000  0  6G24G10G18G23G32G15
 129769634.141 7 101119286.870 6  24694340.455    24694362.339         721.223  
       561.938          42.000          41.000  
 109171362.912 7  85068662.539 7  20774620.613    20774637.172         499.254  
       388.988          47.000          44.000  
 113800037.717 8  88675419.158 8  21655428.126    21655443.499       -1395.688  
     -1087.656          48.000          48.000  
 110469396.069 7  86080107.202 7  21021626.891    21021642.437       -1449.395  
     -1129.488          44.000          45.000  
 118165497.002 7  92077095.843 7  22486147.485    22486167.712        3280.094  
      2555.738          45.000          43.000  
 127111249.874 6  99047805.701 7  24188467.647    24188486.723       -2999.195  
     -2337.418          38.000          44.000  
 24  1 10  3 13 14.5000000  0  6G24G10G18G23G32G15
 129769562.026 7 101119230.672 6  24694326.732    24694348.615         721.184  
       562.051          42.000          41.000  
 109171312.988 7  85068623.628 7  20774611.113    20774627.669         499.375  
       389.000          47.000          44.000  
 113800177.270 8  88675527.882 8  21655454.682    21655470.050       -1395.516  
     -1087.402          48.000          48.000  
 110469541.003 7  86080220.120 7  21021654.471    21021670.013       -1449.277  
     -1129.211          44.000          45.000  
 118165168.997 7  92076840.248 7  22486085.068    22486105.293        3280.109  
      2555.875          45.000          43.000  
 127111549.813 6  99048039.405 7  24188524.724    24188543.796       -2999.199  
     -2337.102          39.000          44.000  
 24  1 10  3 13 14.6000000  0  6G24G10G18G23G32G15
 129769489.933 7 101119174.488 7  24694312.958    24694335.519         721.098  
       561.844          43.000          42.000  
 109171263.088 7  85068584.742 7  20774601.742    20774618.345         499.160  
       388.883          47.000          44.000  
 113800316.847 8  88675636.665 8  21655481.219    21655496.944       -1395.555  
     -1087.715          48.000          48.000  
 110469685.972 7  86080333.108 7  21021682.464    21021697.583       -1449.352  
     -1129.570          45.000          45.000  
 118164841.027 7  92076584.676 7  22486022.665    22486042.817        3279.898  
      2555.629          45.000          43.000  
 127111849.753 6  99048273.129 7  24188581.621    24188601.030       -2999.309  
     -2337.203          38.000          44.000  
 24  1 10  3 13 14.7000000  0  6G24G10G18G23G32G15
 129769417.882 7 101119118.332 7  24694299.247    24694321.805         720.805  
       561.555          42.000          42.000  
 109171213.211 7  85068545.879 7  20774592.251    20774608.854         498.883  
       388.621          47.000          44.000  
 113800456.454 8  88675745.460 8  21655507.786    21655523.513       -1395.910  
     -1087.875          48.000          48.000  
 110469830.940 7  86080446.084 7  21021710.050    21021725.172       -1449.559  
     -1129.836          45.000          45.000  
 118164513.043 7  92076329.104 7  22485960.252    22485980.404        3279.805  
      2555.477          45.000          43.000  
 127112149.755 6  99048506.877 7  24188638.709    24188658.113       -2999.684  
     -2337.492          39.000          44.000  
 24  1 10  3 13 14.8000000  0  6G24G10G18G23G32G15
 129769345.773 7 101119062.144 7  24694285.424    24694308.505         720.828  
       561.496          42.000          42.000  
 109171163.340 7  85068507.014 7  20774582.534    20774599.340         498.820  
       388.688          47.000          44.000  
 113800596.047 8  88675854.219 8  21655534.568    21655550.120       -1395.996  
     -1087.828          48.000          48.000  
 110469975.879 7  86080559.008 7  21021738.366    21021752.578       -1449.633  
     -1129.578          44.000          45.000  
 118164185.076 7  92076073.568 7  22485897.982    22485917.937        3279.785  
      2555.617          45.000          43.000  
 127112449.689 6  99048740.615 7  24188695.918    24188715.007       -2999.531  
     -2337.398          38.000          44.000  
 24  1 10  3 13 14.9000000  0  6G24G10G18G23G32G15
 129769273.712 7 101119006.007 7  24694271.711    24694294.796         720.734  
       561.379          42.000          42.000  
 109171113.459 7  85068468.159 7  20774573.042    20774589.851         498.812  
       388.547          46.000          44.000  
 113800735.648 7  88675962.986 7  21655561.133    21655576.682       -1396.012  
     -1087.801          47.000          47.000  
 110470120.905 7  86080672.006 7  21021765.963    21021780.173       -1449.742  
     -1129.648          44.000          45.000  
 118163857.118 7  92075818.032 7  22485835.574    22485855.532        3279.660  
      2555.250          44.000          43.000  
 127112749.735 6  99048974.365 7  24188753.014    24188772.091       -3000.055  
     -2337.422          38.000          44.000  
 24  1 10  3 13 15.0000000  0  6G24G10G18G23G32G15
 129769201.685 7 101118949.881 7  24694258.145    24694281.027         720.582  
       561.430          42.000          42.000  
 109171063.623 7  85068429.320 7  20774563.480    20774580.358         498.617  
       388.402          46.000          44.000  
 113800875.289 7  88676071.820 7  21655587.433    21655603.175       -1396.137  
     -1088.109          47.000          47.000  
 110470265.890 7  86080784.982 7  21021793.334    21021807.372       -1449.922  
     -1129.703          44.000          45.000  
 118163529.210 7  92075562.498 7  22485773.206    22485793.371        3279.332  
      2555.301          44.000          43.000  
 127113049.685 6  99049208.125 7  24188810.429    24188828.842       -2999.680  
     -2337.695          38.000          44.000  
 24  1 10  3 13 15.1000000  0  6G24G10G18G23G32G15
 129769129.631 7 101118893.745 7  24694244.434    24694267.318         720.477  
       561.234          42.000          42.000  
 109171013.777 7  85068390.476 7  20774553.995    20774570.872         498.492  
       388.320          46.000          44.000  
 113801014.928 7  88676180.621 7  21655614.005    21655629.745       -1396.316  
     -1088.090          47.000          47.000  
 110470410.874 7  86080897.975 7  21021820.924    21021834.966       -1449.902  
     -1129.988          44.000          45.000  
 118163201.270 7  92075306.952 7  22485710.801    22485730.963        3279.332  
      2555.332          44.000          43.000  
 127113349.638 6  99049441.918 7  24188867.508    24188885.936       -2999.680  
     -2337.852          38.000          44.000  
 24  1 10  3 13 15.2000000  0  6G24G10G18G23G32G15
 129769057.613 6 101118837.639 7  24694230.737    24694253.460         720.289  
       561.133          41.000          42.000  
 109170963.938 7  85068351.654 7  20774544.472    20774561.368         498.469  
       388.223          46.000          44.000  
 113801154.576 7  88676289.429 7  21655640.657    21655656.411       -1396.383  
     -1088.133          47.000          47.000  
 110470555.906 7  86081010.969 7  21021848.187    21021862.639       -1450.035  
     -1129.957          44.000          45.000  
 118162873.364 7  92075051.439 7  22485648.489    22485668.135        3279.234  
      2555.156          44.000          43.000  
 127113649.694 6  99049675.689 7  24188924.966    24188943.252       -3000.148  
     -2337.738          38.000          44.000  
 24  1 10  3 13 15.3000000  0  6G24G10G18G23G32G15
 129768985.598 6 101118781.506 7  24694217.033    24694239.752         720.301  
       561.324          41.000          42.000  
 109170914.115 7  85068312.830 7  20774534.991    20774551.887         498.316  
       388.367          46.000          44.000  
 113801294.228 7  88676398.260 7  21655667.232    21655682.989       -1396.430  
     -1088.238          47.000          47.000  
 110470700.915 7  86081123.972 7  21021875.781    21021890.235       -1450.106  
     -1130.043          44.000          45.000  
 118162545.453 7  92074795.925 7  22485586.090    22485605.736        3279.203  
      2555.297          44.000          43.000  
 127113949.702 6  99049909.454 7  24188982.056    24189000.340       -3000.066  
     -2337.695          38.000          44.000  
 24  1 10  3 13 15.4000000  0  6G24G10G18G23G32G15
 129768913.616 6 101118725.421 7  24694203.140    24694226.235         719.949  
       560.879          41.000          42.000  
 109170864.324 7  85068274.035 7  20774525.368    20774542.451         498.125  
       387.930          46.000          44.000  
 113801433.914 7  88676507.119 7  21655693.814    21655709.565       -1396.668  
     -1088.445          47.000          47.000  
 110470845.963 7  86081237.030 7  21021903.383    21021917.947       -1450.293  
     -1130.289          44.000          45.000  
 118162217.586 7  92074540.438 7  22485523.495    22485543.617        3278.926  
      2554.879          44.000          43.000  
 127114249.755 6  99050143.273 7  24189039.529    24189057.636       -3000.363  
     -2338.086          38.000          44.000  
 24  1 10  3 13 15.5000000  0  6G24G10G18G23G32G15
 129768841.632 6 101118669.335 6  24694189.442    24694212.538         719.844  
       560.688          40.000          41.000  
 109170814.537 7  85068235.250 7  20774515.893    20774532.980         497.875  
       387.934          46.000          43.000  
 113801573.617 7  88676615.973 7  21655720.398    21655736.148       -1396.867  
     -1088.566          46.000          47.000  
 110470991.014 7  86081350.044 7  21021930.985    21021945.546       -1450.496  
     -1130.379          43.000          45.000  
 118161889.724 7  92074284.970 7  22485461.105    22485481.229        3278.688  
      2554.746          44.000          43.000  
 127114549.847 6  99050377.093 7  24189096.635    24189114.737       -3000.699  
     -2338.152          38.000          44.000  
 24  1 10  3 13 15.6000000  0  6G24G10G18G23G32G15
 129768769.681 6 101118613.284 6  24694175.688    24694198.553         719.840  
       560.824          40.000          41.000  
 109170764.750 7  85068196.445 7  20774506.693    20774523.480         497.988  
       387.934          46.000          43.000  
 113801713.290 7  88676724.804 7  21655746.993    21655762.664       -1396.848  
     -1088.441          46.000          47.000  
 110471136.079 7  86081463.063 7  21021958.707    21021973.404       -1450.539  
     -1130.231          43.000          45.000  
 118161561.836 7  92074029.465 7  22485398.710    22485419.058        3278.852  
      2554.887          44.000          43.000  
 127114849.866 6  99050610.898 7  24189153.695    24189171.374       -3000.387  
     -2338.059          38.000          44.000  
 24  1 10  3 13 15.7000000  0  6G24G10G18G23G32G15
 129768697.696 6 101118557.208 6  24694161.990    24694184.859         719.828  
       560.773          40.000          41.000  
 109170714.961 7  85068157.667 7  20774497.218    20774514.010         497.938  
       387.801          46.000          43.000  
 113801852.996 7  88676833.650 7  21655773.578    21655789.245       -1396.887  
     -1088.398          46.000          47.000  
 110471281.116 7  86081576.100 7  21021986.307    21022001.009       -1450.410  
     -1130.285          44.000          45.000  
 118161233.959 7  92073773.979 7  22485336.317    22485356.666        3278.738  
      2554.859          44.000          43.000  
 127115149.922 6  99050844.699 7  24189210.794    24189228.471       -3000.414  
     -2337.992          38.000          44.000  
 24  1 10  3 13 15.8000000  0  6G24G10G18G23G32G15
 129768625.733 6 101118501.126 6  24694148.334    24694171.085         719.703  
       560.766          40.000          41.000  
 109170665.207 7  85068118.883 7  20774487.696    20774504.851         497.816  
       387.871          47.000          43.000  
 113801992.709 7  88676942.538 7  21655800.110    21655815.829       -1396.918  
     -1088.699          46.000          47.000  
 110471426.200 7  86081689.135 7  21022013.931    21022028.738       -1450.641  
     -1130.328          44.000          45.000  
 118160906.111 7  92073518.532 7  22485274.102    22485294.362        3278.688  
      2554.602          44.000          43.000  
 127115449.989 6  99051078.496 7  24189267.426    24189285.644       -3000.625  
     -2338.141          38.000          44.000  
 24  1 10  3 13 15.9000000  0  6G24G10G18G23G32G15
 129768553.838 6 101118445.099 6  24694134.653    24694157.403         719.355  
       560.590          40.000          41.000  
 109170615.461 7  85068080.134 7  20774478.229    20774495.388         497.461  
       387.410          47.000          43.000  
 113802132.456 7  88677051.425 7  21655826.703    21655842.420       -1397.324  
     -1088.949          46.000          47.000  
 110471571.315 7  86081802.221 7  21022041.545    21022056.355       -1450.816  
     -1130.762          44.000          45.000  
 118160578.294 7  92073263.064 7  22485211.720    22485231.974        3278.324  
      2554.438          44.000          43.000  
 127115750.107 6  99051312.377 7  24189324.537    24189342.761       -3000.875  
     -2338.520          38.000          44.000  
 24  1 10  3 13 16.0000000  0  6G24G10G18G23G32G15
 129768481.888 6 101118389.029 6  24694120.649    24694143.624         719.215  
       560.309          41.000          41.000  
 109170565.728 7  85068041.364 7  20774469.101    20774485.725         497.414  
       387.469          47.000          43.000  
 113802272.173 7  88677160.303 8  21655853.313    21655869.025       -1397.363  
     -1088.883          46.000          48.000  
 110471716.412 7  86081915.288 7  21022069.125    21022083.983       -1450.926  
     -1130.574          44.000          45.000  
 118160250.480 7  92073007.620 7  22485149.613    22485169.217        3278.258  
      2554.375          45.000          43.000  
 127116050.211 6  99051546.200 7  24189381.457    24189400.206       -3000.953  
     -2338.371          39.000          44.000  
 24  1 10  3 13 16.1000000  0  6G24G10G18G23G32G15
 129768409.988 6 101118332.979 7  24694106.967    24694129.936         719.184  
       560.445          41.000          42.000  
 109170516.014 7  85068002.642 7  20774459.641    20774476.268         497.355  
       387.430          47.000          43.000  
 113802411.943 7  88677269.194 8  21655879.911    21655895.617       -1397.438  
     -1088.926          47.000          48.000  
 110471861.502 7  86082028.325 7  21022096.735    21022111.588       -1451.070  
     -1130.688          44.000          45.000  
 118159922.643 7  92072752.176 7  22485087.228    22485106.834        3278.312  
      2554.387          45.000          43.000  
 127116350.302 6  99051780.042 7  24189438.562    24189457.313       -3000.965  
     -2338.441          39.000          44.000  
 24  1 10  3 13 16.2000000  0  6G24G10G18G23G32G15
 129768338.080 6 101118276.969 7  24694093.494    24694116.429         719.188  
       560.328          41.000          42.000  
 109170466.296 7  85067963.880 7  20774450.180    20774466.841         497.164  
       387.453          47.000          43.000  
 113802551.688 7  88677378.105 8  21655906.269    21655921.816       -1397.547  
     -1089.148          46.000          48.000  
 110472006.606 7  86082141.412 7  21022124.254    21022139.087       -1451.035  
     -1130.781          44.000          45.000  
 118159594.864 7  92072496.770 7  22485024.510    22485044.259        3278.082  
      2554.324          45.000          43.000  
 127116650.448 6  99052013.907 7  24189495.420    24189514.738       -3001.113  
     -2338.535          39.000          44.000  
 24  1 10  3 13 16.3000000  0  6G24G10G18G23G32G15
 129768266.216 7 101118220.953 7  24694079.819    24694102.750         718.879  
       560.160          42.000          42.000  
 109170416.621 7  85067925.192 7  20774440.727    20774457.393         497.004  
       386.934          47.000          43.000  
 113802691.484 7  88677487.025 8  21655932.871    21655948.415       -1397.738  
     -1089.223          47.000          48.000  
 110472151.779 7  86082254.523 7  21022151.879    21022166.710       -1451.254  
     -1131.066          44.000          45.000  
 118159267.092 7  92072241.330 7  22484962.137    22484981.878        3277.781  
      2554.102          45.000          43.000  
 127116950.571 6  99052247.774 7  24189552.532    24189571.850       -3001.289  
     -2338.793          39.000          44.000  
 24  1 10  3 13 16.4000000  0  6G24G10G18G23G32G15
 129768194.354 7 101118164.953 7  24694066.386    24694088.769         718.676  
       559.953          42.000          42.000  
 109170366.955 7  85067886.482 7  20774431.003    20774447.651         496.781  
       386.953          47.000          43.000  
 113802831.303 7  88677595.979 8  21655959.501    21655975.070       -1398.012  
     -1089.473          47.000          48.000  
 110472296.918 7  86082367.632 7  21022179.537    21022194.262       -1451.516  
     -1131.250          44.000          45.000  
 118158939.318 7  92071985.948 7  22484899.701    22484919.206        3277.656  
      2553.824          45.000          43.000  
 127117250.735 6  99052481.685 7  24189610.362    24189628.622       -3001.391  
     -2338.969          39.000          44.000  
 24  1 10  3 13 16.5000000  0  6G24G10G18G23G32G15
 129768122.527 7 101118109.004 7  24694052.718    24694075.106         718.512  
       559.645          42.000          43.000  
 109170317.302 7  85067847.783 7  20774421.554    20774438.200         496.660  
       387.086          47.000          43.000  
 113802971.133 7  88677704.938 8  21655986.110    21656001.679       -1398.121  
     -1089.570          47.000          48.000  
 110472442.094 7  86082480.757 7  21022207.163    21022221.888       -1451.691  
     -1131.191          44.000          45.000  
 118158611.595 7  92071730.573 7  22484837.337    22484856.841        3277.582  
      2553.766          45.000          43.000  
 127117550.932 6  99052715.578 7  24189667.488    24189685.741       -3001.676  
     -2339.020          39.000          44.000  
 24  1 10  3 13 16.6000000  0  6G24G10G18G23G32G15
 129768050.674 7 101118052.994 7  24694039.037    24694061.506         718.441  
       559.949          42.000          43.000  
 109170267.643 7  85067809.091 7  20774412.065    20774429.017         496.590  
       386.855          47.000          43.000  
 113803110.950 7  88677813.877 8  21656012.920    21656028.447       -1398.156  
     -1089.512          47.000          48.000  
 110472587.265 7  86082593.856 7  21022234.601    21022249.649       -1451.688  
     -1131.117          44.000          45.000  
 118158283.849 7  92071475.196 7  22484774.977    22484794.733        3277.438  
      2553.957          45.000          43.000  
 127117851.091 6  99052949.486 7  24189724.333    24189742.716       -3001.582  
     -2339.066          39.000          44.000  
 24  1 10  3 13 16.7000000  0  6G24G10G18G23G32G15
 129767978.856 7 101117997.011 7  24694025.371    24694047.834         718.422  
       559.844          42.000          43.000  
 109170218.007 7  85067770.407 7  20774402.620    20774419.570         496.488  
       386.809          47.000          43.000  
 113803250.781 7  88677922.850 8  21656039.528    21656055.059       -1398.195  
     -1089.648          47.000          48.000  
 110472732.445 7  86082706.997 7  21022262.228    21022277.279       -1451.703  
     -1131.254          44.000          45.000  
 118157956.136 7  92071219.813 7  22484712.615    22484732.366        3277.344  
      2553.625          45.000          43.000  
 127118151.297 6  99053183.394 7  24189781.460    24189799.838       -3001.832  
     -2338.992          39.000          44.000  
 24  1 10  3 13 16.8000000  0  6G24G10G18G23G32G15
 129767907.046 6 101117941.101 7  24694011.612    24694034.602         718.199  
       559.312          41.000          43.000  
 109170168.395 7  85067731.748 7  20774393.413    20774410.145         496.320  
       386.816          47.000          43.000  
 113803390.644 7  88678031.834 8  21656066.276    21656081.994       -1398.441  
     -1089.801          47.000          48.000  
 110472877.664 7  86082820.173 7  21022289.862    21022304.910       -1451.832  
     -1131.574          44.000          45.000  
 118157628.410 7  92070964.474 7  22484650.345    22484669.900        3277.227  
      2553.520          45.000          43.000  
 127118451.465 6  99053417.306 7  24189838.103    24189857.110       -3001.715  
     -2339.148          39.000          44.000  
 24  1 10  3 13 16.9000000  0  6G24G10G18G23G32G15
 129767835.267 6 101117885.123 7  24693997.953    24694020.932         717.871  
       559.410          41.000          43.000  
 109170118.781 7  85067693.082 7  20774383.972    20774400.702         496.184  
       386.301          47.000          43.000  
 113803530.505 7  88678140.800 8  21656092.891    21656108.605       -1398.539  
     -1089.781          47.000          48.000  
 110473022.864 7  86082933.278 7  21022317.492    21022332.531       -1452.047  
     -1131.512          44.000          45.000  
 118157300.731 7  92070709.118 7  22484587.990    22484607.539        3277.047  
      2553.598          45.000          43.000  
 127118751.674 6  99053651.236 7  24189895.231    24189914.239       -3001.977  
     -2339.363          39.000          44.000  
 24  1 10  3 13 17.0000000  0  6G24G10G18G23G32G15
 129767763.453 6 101117829.184 7  24693984.232    24694006.982         718.082  
       559.535          41.000          43.000  
 109170069.163 7  85067654.451 7  20774374.436    20774391.338         496.266  
       386.707          47.000          43.000  
 113803670.370 7  88678249.781 8  21656119.436    21656135.016       -1398.543  
     -1089.766          47.000          48.000  
 110473168.069 7  86083046.438 7  21022345.062    21022359.846       -1452.039  
     -1131.422          44.000          45.000  
 118156973.020 7  92070453.749 7  22484525.839    22484545.262        3277.121  
      2553.484          45.000          43.000  
 127119051.878 6  99053885.158 7  24189952.327    24189971.263       -3002.012  
     -2339.195          39.000          44.000  
 24  1 10  3 13 17.1000000  0  6G24G10G18G23G32G15
 129767691.680 6 101117773.264 7  24693970.574    24693993.326         717.898  
       559.238          41.000          43.000  
 109170019.574 7  85067615.792 7  20774365.000    20774381.897         495.988  
       386.395          47.000          43.000  
 113803810.263 7  88678358.791 8  21656146.057    21656161.637       -1398.762  
     -1090.078          47.000          48.000  
 110473313.294 7  86083159.588 7  21022372.697    21022387.478       -1452.207  
     -1131.691          44.000          45.000  
 118156645.332 7  92070198.423 7  22484463.482    22484482.909        3276.914  
      2553.289          45.000          43.000  
 127119352.086 6  99054119.097 7  24190009.455    24190028.393       -3002.039  
     -2339.273          39.000          43.000  
 24  1 10  3 13 17.2000000  0  6G24G10G18G23G32G15
 129767619.919 6 101117717.344 7  24693957.036    24693979.724         717.910  
       559.422          41.000          43.000  
 109169969.982 7  85067577.154 7  20774355.539    20774372.164         495.879  
       386.262          47.000          43.000  
 113803950.149 7  88678467.803 8  21656172.661    21656187.611       -1398.840  
     -1090.129          47.000          48.000  
 110473458.541 7  86083272.770 7  21022400.258    21022414.931       -1452.344  
     -1131.754          44.000          45.000  
 118156317.682 7  92069943.116 7  22484401.062    22484420.693        3276.789  
      2553.359          45.000          43.000  
 127119652.356 6  99054353.058 7  24190066.946    24190085.263       -3002.371  
     -2339.613          39.000          43.000  
 24  1 10  3 13 17.3000000  0  6G24G10G18G23G32G15
 129767548.167 6 101117661.448 7  24693943.382    24693966.074         717.637  
       558.871          40.000          43.000  
 109169920.400 7  85067538.517 7  20774346.104    20774362.729         495.859  
       386.312          47.000          43.000  
 113804090.034 7  88678576.790 8  21656199.280    21656214.226       -1398.926  
     -1090.074          47.000          48.000  
 110473603.782 7  86083385.950 7  21022427.897    21022442.571       -1452.309  
     -1131.652          44.000          45.000  
 118155989.995 7  92069687.767 7  22484338.706    22484358.334        3276.762  
      2553.332          45.000          43.000  
 127119952.594 6  99054587.020 7  24190124.079    24190142.399       -3002.383  
     -2339.531          39.000          43.000  
 24  1 10  3 13 17.4000000  0  6G24G10G18G23G32G15
 129767476.451 6 101117605.538 7  24693929.641    24693952.131         717.293  
       559.145          40.000          42.000  
 109169870.866 7  85067499.932 7  20774336.866    20774353.611         495.742  
       386.238          47.000          43.000  
 113804229.955 7  88678685.828 8  21656225.898    21656241.488       -1398.941  
     -1090.207          47.000          48.000  
 110473749.059 7  86083499.153 7  21022455.495    21022470.552       -1452.469  
     -1132.016          44.000          45.000  
 118155662.364 7  92069432.466 7  22484276.273    22484296.088        3276.496  
      2553.016          45.000          43.000  
 127120252.824 6  99054820.943 7  24190181.516    24190199.354       -3002.293  
     -2339.398          39.000          43.000  
 24  1 10  3 13 17.5000000  0  6G24G10G18G23G32G15
 129767404.704 6 101117549.648 7  24693915.988    24693938.482         717.426  
       558.914          40.000          42.000  
 109169821.326 7  85067461.329 7  20774327.439    20774344.184         495.477  
       385.875          47.000          43.000  
 113804369.897 8  88678794.873 8  21656252.528    21656268.117       -1399.301  
     -1090.477          48.000          48.000  
 110473894.317 7  86083612.350 7  21022483.137    21022498.196       -1452.652  
     -1132.051          44.000          45.000  
 118155334.738 7  92069177.173 7  22484213.928    22484233.743        3276.352  
      2552.922          45.000          43.000  
 127120553.094 6  99055054.949 7  24190238.655    24190256.501       -3002.574  
     -2339.980          39.000          43.000  
 24  1 10  3 13 17.6000000  0  6G24G10G18G23G32G15
 129767333.025 6 101117493.794 7  24693902.043    24693924.865         717.137  
       558.645          39.000          42.000  
 109169771.804 7  85067422.713 7  20774318.007    20774334.558         495.363  
       386.098          47.000          43.000  
 113804509.836 7  88678903.926 8  21656278.955    21656294.632       -1399.293  
     -1090.445          47.000          48.000  
 110474039.619 7  86083725.567 7  21022510.693    21022526.118       -1452.742  
     -1132.086          44.000          45.000  
 118155007.124 7  92068921.909 7  22484151.765    22484171.429        3276.340  
      2552.773          45.000          43.000  
 127120853.407 6  99055288.919 7  24190295.428    24190313.591       -3002.789  
     -2339.625          39.000          43.000  
 24  1 10  3 13 17.7000000  0  6G24G10G18G23G32G15
 129767261.325 6 101117437.941 7  24693888.399    24693911.226         717.012  
       558.527          39.000          42.000  
 109169722.280 7  85067384.132 7  20774308.583    20774325.136         495.199  
       385.863          47.000          44.000  
 113804649.784 8  88679012.973 8  21656305.586    21656321.263       -1399.481  
     -1090.676          48.000          48.000  
 110474184.887 7  86083838.761 7  21022538.337    21022553.761       -1452.918  
     -1132.141          44.000          45.000  
 118154679.510 7  92068666.612 7  22484089.422    22484109.082        3276.102  
      2552.805          45.000          43.000  
 127121153.706 6  99055522.927 7  24190352.573    24190370.739       -3002.977  
     -2340.051          39.000          44.000  
 24  1 10  3 13 17.8000000  0  6G24G10G18G23G32G15
 129767189.632 6 101117382.064 6  24693874.538    24693897.471         716.918  
       558.562          39.000          41.000  
 109169672.775 7  85067345.564 7  20774299.256    20774315.584         495.129  
       385.742          47.000          43.000  
 113804789.748 8  88679122.033 8  21656332.322    21656348.084       -1399.535  
     -1090.621          48.000          48.000  
 110474330.199 7  86083951.991 7  21022566.293    21022581.593       -1452.922  
     -1132.219          44.000          45.000  
 118154351.919 7  92068411.370 7  22484026.881    22484046.851        3276.070  
      2552.531          45.000          43.000  
 127121453.992 6  99055756.919 7  24190409.544    24190427.671       -3002.918  
     -2339.934          39.000          44.000  
 24  1 10  3 13 17.9000000  0  6G24G10G18G23G32G15
 129767118.001 6 101117326.264 6  24693860.907    24693883.843         716.645  
       558.203          39.000          41.000  
 109169623.295 8  85067306.998 7  20774289.840    20774306.166         495.000  
       385.691          48.000          43.000  
 113804929.719 8  88679231.109 8  21656358.957    21656374.721       -1399.707  
     -1090.754          48.000          48.000  
 110474475.527 7  86084065.252 7  21022593.948    21022609.252       -1453.055  
     -1132.426          44.000          45.000  
 118154024.329 7  92068156.096 7  22483964.542    22483984.511        3275.922  
      2552.688          45.000          43.000  
 127121754.314 6  99055990.914 7  24190466.693    24190484.815       -3003.082  
     -2339.992          39.000          44.000  
 24  1 10  3 13 18.0000000  0  6G24G10G18G23G32G15
 129767046.338 6 101117270.411 6  24693847.332    24693870.336         716.621  
       558.379          39.000          41.000  
 109169573.842 8  85067268.449 7  20774280.406    20774296.713         494.695  
       385.402          48.000          43.000  
 113805069.747 8  88679340.219 8  21656385.807    21656401.023       -1399.945  
     -1090.965          48.000          48.000  
 110474620.863 7  86084178.484 7  21022621.785    21022636.788       -1453.324  
     -1132.422          45.000          45.000  
 118153696.772 7  92067900.866 7  22483901.960    22483922.361        3275.734  
      2552.281          45.000          43.000  
 127122054.676 6  99056224.942 7  24190523.936    24190542.076       -3003.359  
     -2340.285          39.000          44.000  
 24  1 10  3 13 18.1000000  0  6G24G10G18G23G32G15
 129766974.691 6 101117214.573 6  24693833.699    24693856.700         716.570  
       558.391          39.000          41.000  
 109169524.392 8  85067229.905 7  20774270.996    20774287.300         494.617  
       385.508          48.000          43.000  
 113805209.775 8  88679449.313 8  21656412.453    21656427.665       -1400.102  
     -1090.953          48.000          48.000  
 110474766.231 7  86084291.768 7  21022649.447    21022664.453       -1453.328  
     -1132.504          45.000          45.000  
 118153369.221 7  92067645.627 7  22483839.629    22483860.029        3275.590  
      2552.289          45.000          43.000  
 127122355.010 6  99056458.975 7  24190581.087    24190599.229       -3003.309  
     -2340.309          40.000          44.000  
 24  1 10  3 13 18.2000000  0  6G24G10G18G23G32G15
 129766903.075 6 101117158.796 6  24693820.086    24693843.438         716.250  
       557.898          40.000          41.000  
 109169474.946 8  85067191.405 7  20774261.282    20774277.836         494.488  
       385.016          48.000          44.000  
 113805349.782 8  88679558.433 8  21656439.033    21656454.204       -1400.164  
     -1091.258          48.000          48.000  
 110474911.602 7  86084405.012 7  21022677.267    21022691.975       -1453.738  
     -1132.758          45.000          45.000  
 118153041.702 7  92067390.410 7  22483777.203    22483797.733        3275.332  
      2552.121          45.000          43.000  
 127122655.355 6  99056693.045 7  24190638.155    24190656.884       -3003.379  
     -2340.535          40.000          44.000  
 24  1 10  3 13 18.3000000  0  6G24G10G18G23G32G15
 129766831.479 6 101117102.995 6  24693806.462    24693829.811         716.152  
       557.910          40.000          41.000  
 109169425.538 8  85067152.884 7  20774251.880    20774268.428         494.250  
       385.055          48.000          44.000  
 113805489.843 8  88679667.561 8  21656465.686    21656480.854       -1400.371  
     -1091.383          48.000          48.000  
 110475056.969 7  86084518.294 7  21022704.929    21022719.640       -1453.707  
     -1132.832          45.000          45.000  
 118152714.195 7  92067135.223 7  22483714.881    22483735.414        3275.234  
      2551.969          45.000          43.000  
 127122955.733 6  99056927.116 7  24190695.315    24190714.047       -3003.707  
     -2340.703          40.000          44.000  
 24  1 10  3 13 18.4000000  0  6G24G10G18G23G32G15
 129766759.918 6 101117047.205 7  24693792.719    24693816.374         715.926  
       557.922          40.000          42.000  
 109169376.126 7  85067114.393 7  20774242.532    20774258.896         494.266  
       385.137          47.000          44.000  
 113805629.900 8  88679776.698 8  21656492.588    21656507.600       -1400.492  
     -1091.387          48.000          48.000  
 110475202.350 7  86084631.584 7  21022732.688    21022747.221       -1453.738  
     -1132.926          45.000          45.000  
 118152386.669 7  92066880.013 7  22483652.929    22483673.113        3275.184  
      2551.949          46.000          44.000  
 127123256.160 6  99057161.164 7  24190752.297    24190771.282       -3003.914  
     -2340.566          40.000          44.000  
 24  1 10  3 13 18.5000000  0  6G24G10G18G23G32G15
 129766688.324 6 101116991.430 7  24693779.095    24693802.753         715.930  
       557.633          40.000          42.000  
 109169326.710 7  85067075.886 7  20774233.129    20774249.492         494.129  
       384.914          47.000          44.000  
 113805769.940 8  88679885.821 8  21656519.237    21656534.249       -1400.512  
     -1091.254          48.000          48.000  
 110475347.751 7  86084744.910 7  21022760.357    21022774.896       -1453.766  
     -1132.938          45.000          45.000  
 118152059.168 7  92066624.813 7  22483590.608    22483610.790        3275.109  
      2552.012          46.000          44.000  
 127123556.516 6  99057395.246 7  24190809.453    24190828.447       -3003.703  
     -2340.699          40.000          44.000  
 24  1 10  3 13 18.6000000  0  6G24G10G18G23G32G15
 129766616.761 6 101116935.641 7  24693765.571    24693789.449         715.730  
       557.781          40.000          42.000  
 109169277.325 7  85067037.403 7  20774223.880    20774240.282         493.949  
       384.824          47.000          44.000  
 113805910.042 8  88679995.000 8  21656545.624    21656561.146       -1400.676  
     -1091.715          48.000          48.000  
 110475493.157 7  86084858.183 7  21022787.808    21022802.785       -1454.051  
     -1133.098          45.000          45.000  
 118151731.699 7  92066369.648 7  22483528.230    22483548.875        3274.840  
      2551.750          46.000          43.000  
 127123856.910 6  99057629.319 7  24190866.718    24190885.704       -3003.816  
     -2340.852          40.000          44.000  
 24  1 10  3 13 18.7000000  0  6G24G10G18G23G32G15
 129766545.197 6 101116879.890 7  24693751.953    24693775.834         715.797  
       557.785          41.000          42.000  
 109169227.939 7  85066998.914 7  20774214.482    20774230.882         493.922  
       384.910          47.000          44.000  
 113806050.102 8  88680104.135 8  21656572.276    21656587.798       -1400.738  
     -1091.438          49.000          48.000  
 110475638.584 7  86084971.493 7  21022815.482    21022830.456       -1454.211  
     -1133.039          45.000          45.000  
 118151404.223 7  92066114.460 7  22483465.914    22483486.555        3274.816  
      2551.754          45.000          43.000  
 127124157.321 6  99057863.405 7  24190923.884    24190942.870       -3004.023  
     -2340.859          40.000          44.000  
 24  1 10  3 13 18.8000000  0  6G24G10G18G23G32G15
 129766473.642 6 101116824.122 7  24693738.836    24693762.372         715.633  
       557.617          41.000          42.000  
 109169178.567 7  85066960.443 7  20774205.040    20774221.940         493.938  
       384.785          47.000          44.000  
 113806190.203 8  88680213.300 8  21656598.811    21656614.551       -1400.797  
     -1091.523          48.000          48.000  
 110475784.003 7  86085084.804 7  21022843.295    21022858.058       -1454.094  
     -1132.938          45.000          45.000  
 118151076.757 7  92065859.315 7  22483403.708    22483424.098        3274.797  
      2551.754          45.000          44.000  
 127124457.703 6  99058097.448 7  24190981.287    24190999.713       -3004.012  
     -2340.691          40.000          44.000  
 24  1 10  3 13 18.9000000  0  6G24G10G18G23G32G15
 129766402.105 6 101116768.380 7  24693725.223    24693748.759         715.574  
       557.391          41.000          42.000  
 109169129.210 7  85066921.977 7  20774195.647    20774212.546         493.605  
       384.617          47.000          44.000  
 113806330.317 8  88680322.484 8  21656625.474    21656641.215       -1400.965  
     -1091.898          48.000          48.000  
 110475929.446 7  86085198.156 7  21022870.972    21022885.739       -1454.273  
     -1133.492          45.000          45.000  
 118150749.319 7  92065604.133 7  22483341.399    22483361.780        3274.539  
      2551.641          45.000          44.000  
 127124758.128 6  99058331.581 7  24191038.456    24191056.891       -3004.051  
     -2341.070          40.000          44.000  
 24  1 10  3 13 19.0000000  0  6G24G10G18G23G32G15
 129766330.580 6 101116712.639 7  24693711.488    24693734.771         715.324  
       557.312          41.000          42.000  
 109169079.870 7  85066883.516 7  20774186.188    20774203.076         493.523  
       384.434          47.000          44.000  
 113806470.427 8  88680431.649 8  21656652.090    21656667.671       -1401.156  
     -1091.859          48.000          48.000  
 110476074.887 7  86085311.487 7  21022898.219    21022913.486       -1454.309  
     -1133.180          45.000          45.000  
 118150421.849 7  92065348.986 7  22483278.951    22483299.330        3274.512  
      2551.531          45.000          43.000  
 127125058.581 6  99058565.678 7  24191095.818    24191114.208       -3004.297  
     -2340.879          39.000          44.000  
 24  1 10  3 13 19.1000000  0  6G24G10G18G23G32G15
 129766259.079 6 101116656.936 7  24693697.881    24693721.168         715.207  
       557.336          41.000          43.000  
 109169030.526 7  85066845.090 7  20774176.798    20774193.692         493.539  
       384.488          47.000          44.000  
 113806610.557 7  88680540.845 8  21656678.755    21656694.338       -1401.160  
     -1091.906          47.000          48.000  
 110476220.329 7  86085424.797 7  21022925.895    21022941.158       -1454.391  
     -1133.445          45.000          45.000  
 118150094.444 7  92065093.863 7  22483216.648    22483237.026        3274.383  
      2551.332          45.000          43.000  
 127125358.979 6  99058799.772 7  24191152.981    24191171.376       -3004.195  
     -2340.988          39.000          43.000  
 24  1 10  3 13 19.2000000  0  6G24G10G18G23G32G15
 129766187.577 6 101116601.216 7  24693684.486    24693707.412         715.012  
       556.883          40.000          43.000  
 109168981.225 7  85066806.664 7  20774167.455    20774184.097         493.168  
       384.109          47.000          44.000  
 113806750.721 7  88680650.064 8  21656705.560    21656721.127       -1401.473  
     -1092.184          47.000          48.000  
 110476365.819 7  86085538.176 7  21022953.769    21022968.252       -1454.734  
     -1133.617          45.000          45.000  
 118149767.031 7  92064838.728 7  22483154.093    22483174.618        3274.133  
      2551.215          45.000          43.000  
 127125659.491 6  99059033.920 7  24191210.253    24191228.354       -3004.609  
     -2341.426          39.000          43.000  
 24  1 10  3 13 19.3000000  0  6G24G10G18G23G32G15
 129766116.107 6 101116545.521 7  24693670.886    24693693.811         715.035  
       556.996          40.000          43.000  
 109168931.925 7  85066768.242 7  20774158.074    20774174.714         493.125  
       384.125          47.000          44.000  
 113806890.882 7  88680759.278 8  21656732.232    21656747.798       -1401.504  
     -1092.145          47.000          48.000  
 110476511.312 7  86085651.554 7  21022981.455    21022995.940       -1454.684  
     -1133.598          45.000          45.000  
 118149439.633 7  92064583.628 7  22483091.791    22483112.320        3274.117  
      2551.031          45.000          43.000  
 127125959.967 6  99059268.057 7  24191267.432    24191285.533       -3004.711  
     -2341.367          39.000          43.000  
 24  1 10  3 13 19.4000000  0  6G24G10G18G23G32G15
 129766044.646 6 101116489.853 7  24693656.982    24693680.435         714.836  
       556.879          41.000          42.000  
 109168882.643 7  85066729.850 7  20774148.415    20774165.494         492.871  
       383.742          47.000          44.000  
 113807031.071 8  88680868.507 8  21656759.050    21656774.372       -1401.824  
     -1092.356          48.000          48.000  
 110476656.803 7  86085764.913 7  21023009.352    21023023.600       -1455.023  
     -1133.883          45.000          45.000  
 118149112.271 7  92064328.537 7  22483029.574    22483049.922        3273.805  
      2551.043          45.000          43.000  
 127126260.493 6  99059502.219 7  24191324.604    24191342.765       -3004.992  
     -2341.617          39.000          44.000  
 24  1 10  3 13 19.5000000  0  6G24G10G18G23G32G15
 129765973.185 6 101116434.189 7  24693643.384    24693666.841         714.660  
       556.777          41.000          42.000  
 109168833.369 7  85066691.437 7  20774139.038    20774156.113         492.867  
       384.125          47.000          44.000  
 113807171.270 7  88680977.764 8  21656785.729    21656801.053       -1401.781  
     -1092.356          47.000          48.000  
 110476802.313 7  86085878.293 7  21023037.041    21023051.289       -1454.953  
     -1133.715          45.000          45.000  
 118148784.896 7  92064073.432 7  22482967.277    22482987.623        3273.918  
      2551.023          45.000          43.000  
 127126560.990 6  99059736.367 7  24191381.787    24191399.946       -3004.934  
     -2341.477          39.000          44.000  
 24  1 10  3 13 19.6000000  0  6G24G10G18G23G32G15
 129765901.767 6 101116378.530 7  24693629.973    24693652.936         714.434  
       556.523          41.000          42.000  
 109168784.120 7  85066653.088 7  20774129.682    20774146.592         492.625  
       383.598          47.000          44.000  
 113807311.478 7  88681087.015 8  21656812.293    21656828.148       -1402.000  
     -1092.648          47.000          48.000  
 110476947.837 7  86085991.716 7  21023064.507    21023078.754       -1455.109  
     -1134.094          45.000          45.000  
 118148457.562 7  92063818.356 7  22482905.112    22482925.089        3273.566  
      2550.629          45.000          43.000  
 127126861.505 6  99059970.541 7  24191438.950    24191457.313       -3005.098  
     -2341.703          39.000          44.000  
 24  1 10  3 13 19.7000000  0  6G24G10G18G23G32G15
 129765830.337 7 101116322.865 7  24693616.380    24693639.342         714.285  
       556.508          42.000          42.000  
 109168734.880 7  85066614.706 7  20774120.312    20774137.219         492.508  
       383.859          47.000          44.000  
 113807451.685 7  88681196.265 8  21656838.973    21656854.828       -1402.055  
     -1092.625          47.000          48.000  
 110477093.366 7  86086105.105 7  21023092.201    21023106.444       -1455.312  
     -1134.113          45.000          45.000  
 118148130.200 7  92063563.298 7  22482842.818    22482862.801        3273.523  
      2550.633          45.000          43.000  
 127127162.032 6  99060204.736 7  24191496.138    24191514.506       -3005.219  
     -2341.848          39.000          44.000  
 24  1 10  3 13 19.8000000  0  6G24G10G18G23G32G15
 129765758.949 6 101116267.240 7  24693603.022    24693625.836         714.109  
       556.367          41.000          42.000  
 109168685.653 7  85066576.345 7  20774111.030    20774128.030         492.477  
       383.652          47.000          44.000  
 113807591.925 7  88681305.550 8  21656865.488    21656881.360       -1402.199  
     -1092.629          47.000          48.000  
 110477238.928 7  86086218.501 7  21023119.767    21023134.262       -1455.449  
     -1134.004          45.000          45.000  
 118147802.897 7  92063308.242 7  22482780.690    22482800.428        3273.363  
      2550.695          45.000          44.000  
 127127462.570 6  99060438.906 7  24191553.164    24191571.537       -3005.125  
     -2341.754          39.000          44.000  
 24  1 10  3 13 19.9000000  0  6G24G10G18G23G32G15
 129765687.528 6 101116211.581 6  24693589.431    24693612.244         714.105  
       556.574          41.000          41.000  
 109168636.396 7  85066537.965 7  20774101.657    20774118.657         492.434  
       383.656          47.000          44.000  
 113807732.145 7  88681414.810 8  21656892.171    21656908.042       -1402.219  
     -1092.664          47.000          48.000  
 110477384.464 7  86086331.944 7  21023147.462    21023161.966       -1455.262  
     -1134.055          45.000          45.000  
 118147475.563 7  92063053.179 7  22482718.401    22482738.139        3273.340  
      2550.613          45.000          44.000  
 127127763.082 6  99060673.095 7  24191610.350    24191628.728       -3005.160  
     -2341.859          39.000          44.000  
 24  1 10  3 13 20.0000000  0  6G24G10G18G23G32G15
 129765616.130 6 101116155.951 6  24693575.774    24693598.197         714.055  
       556.438          40.000          41.000  
 109168587.170 7  85066499.587 7  20774092.305    20774109.332         492.348  
       383.711          47.000          44.000  
 113807872.386 7  88681524.076 8  21656918.764    21656934.539       -1402.238  
     -1092.609          47.000          48.000  
 110477530.010 7  86086445.353 7  21023175.416    21023190.075       -1455.258  
     -1134.055          45.000          45.000  
 118147148.222 7  92062798.103 7  22482656.266    22482675.847        3273.363  
      2550.566          45.000          44.000  
 127128063.636 6  99060907.269 7  24191667.520    24191685.720       -3005.363  
     -2341.766          39.000          44.000  
 24  1 10  3 13 20.1000000  0  6G24G10G18G23G32G15
 129765544.718 6 101116100.301 6  24693562.185    24693584.607         714.137  
       556.305          40.000          41.000  
 109168537.951 7  85066461.272 7  20774082.939    20774099.975         492.344  
       383.395          47.000          44.000  
 113808012.618 7  88681633.354 8  21656945.449    21656961.225       -1402.297  
     -1092.691          47.000          48.000  
 110477675.560 7  86086558.758 7  21023203.113    21023217.770       -1455.570  
     -1134.219          45.000          45.000  
 118146820.879 7  92062543.020 7  22482593.974    22482613.553        3273.324  
      2550.523          45.000          43.000  
 127128364.164 6  99061141.453 7  24191724.709    24191742.910       -3005.328  
     -2341.898          38.000          44.000  
 24  1 10  3 13 20.2000000  0  6G24G10G18G23G32G15
 129765473.353 6 101116044.707 7  24693548.722    24693570.687         713.969  
       556.191          41.000          42.000  
 109168488.741 7  85066422.918 7  20774073.723    20774090.437         492.184  
       383.449          47.000          44.000  
 113808152.882 7  88681742.643 8  21656972.219    21656988.134       -1402.500  
     -1092.977          47.000          48.000  
 110477821.121 7  86086672.174 7  21023230.985    21023245.499       -1455.613  
     -1134.242          45.000          45.000  
 118146493.600 7  92062288.015 7  22482531.445    22482551.387        3273.102  
      2550.348          45.000          43.000  
 127128664.722 6  99061375.660 7  24191781.872    24191800.450       -3005.434  
     -2342.121          38.000          44.000  
 24  1 10  3 13 20.3000000  0  6G24G10G18G23G32G15
 129765402.012 6 101115989.110 7  24693535.146    24693557.109         713.621  
       555.914          41.000          42.000  
 109168439.568 7  85066384.610 7  20774064.366    20774081.082         491.895  
       383.031          47.000          44.000  
 113808293.152 7  88681851.960 8  21656998.911    21657014.830       -1402.719  
     -1093.238          47.000          48.000  
 110477966.751 7  86086785.664 7  21023258.697    21023273.214       -1455.852  
     -1134.609          45.000          45.000  
 118146166.324 7  92062032.988 7  22482469.167    22482489.107        3272.855  
      2550.074          45.000          43.000  
 127128965.299 6  99061609.879 7  24191839.070    24191857.649       -3005.715  
     -2342.188          38.000          44.000  
 24  1 10  3 13 20.4000000  0  6G24G10G18G23G32G15
 129765330.683 6 101115933.535 7  24693521.565    24693543.615         713.336  
       555.680          40.000          42.000  
 109168390.417 7  85066346.283 7  20774055.130    20774071.761         491.645  
       383.172          47.000          44.000  
 113808433.459 7  88681961.277 8  21657025.642    21657041.237       -1402.922  
     -1093.320          47.000          48.000  
 110478112.340 7  86086899.097 7  21023286.402    21023301.197       -1456.070  
     -1134.527          45.000          45.000  
 118145839.078 7  92061777.988 7  22482406.496    22482426.537        3272.645  
      2549.945          45.000          43.000  
 127129265.978 6  99061844.121 7  24191896.248    24191914.986       -3006.172  
     -2342.305          38.000          44.000  
 24  1 10  3 13 20.5000000  0  6G24G10G18G23G32G15
 129765259.384 6 101115877.971 7  24693507.997    24693530.046         713.281  
       555.789          40.000          42.000  
 109168341.263 7  85066308.006 7  20774045.776    20774062.413         491.578  
       382.887          47.000          44.000  
 113808573.783 7  88682070.627 8  21657052.345    21657067.942       -1403.043  
     -1093.367          47.000          48.000  
 110478257.943 7  86087012.553 7  21023314.109    21023328.904       -1456.078  
     -1134.754          45.000          45.000  
 118145511.831 7  92061522.997 7  22482344.223    22482364.265        3272.570  
      2550.008          45.000          44.000  
 127129566.544 6  99062078.369 7  24191953.444    24191972.191       -3005.906  
     -2342.379          38.000          44.000  
 24  1 10  3 13 20.6000000  0  6G24G10G18G23G32G15
 129765188.075 6 101115822.401 7  24693494.474    24693516.483         713.152  
       555.660          40.000          42.000  
 109168292.143 7  85066269.741 7  20774036.257    20774053.107         491.418  
       382.621          47.000          44.000  
 113808714.116 7  88682179.972 8  21657079.237    21657094.754       -1403.234  
     -1093.621          47.000          48.000  
 110478403.609 7  86087126.060 7  21023341.695    21023356.334       -1456.332  
     -1134.965          45.000          45.000  
 118145184.604 7  92061268.020 7  22482282.258    22482302.357        3272.395  
      2549.859          45.000          43.000  
 127129867.170 6  99062312.622 7  24192010.393    24192029.281       -3006.172  
     -2342.688          38.000          43.000  
 24  1 10  3 13 20.7000000  0  6G24G10G18G23G32G15
 129765116.788 6 101115766.861 7  24693480.909    24693502.920         712.938  
       555.402          40.000          42.000  
 109168243.029 7  85066231.440 7  20774026.911    20774043.754         491.219  
       382.867          47.000          44.000  
 113808854.466 8  88682289.336 8  21657105.945    21657121.462       -1403.277  
     -1093.539          48.000          48.000  
 110478549.253 7  86087239.552 7  21023369.411    21023384.050       -1456.430  
     -1134.938          45.000          45.000  
 118144857.376 7  92061013.011 7  22482219.989    22482240.081        3272.234  
      2549.809          45.000          43.000  
 127130167.800 6  99062546.904 7  24192067.601    24192086.495       -3006.176  
     -2342.738          38.000          43.000  
 24  1 10  3 13 20.8000000  0  6G24G10G18G23G32G15
 129765045.523 6 101115711.316 7  24693467.153    24693489.629         712.812  
       555.543          40.000          42.000  
 109168193.929 7  85066193.208 7  20774017.685    20774034.886         491.109  
       382.504          47.000          44.000  
 113808994.807 8  88682398.700 8  21657132.627    21657147.904       -1403.461  
     -1093.664          48.000          48.000  
 110478694.924 7  86087353.056 7  21023396.865    21023411.355       -1456.520  
     -1135.047          45.000          45.000  
 118144530.194 7  92060758.090 7  22482157.986    22482177.920        3272.078  
      2549.332          45.000          43.000  
 127130468.453 6  99062781.154 7  24192124.665    24192143.459       -3006.410  
     -2342.512          38.000          43.000  
 24  1 10  3 13 20.9000000  0  6G24G10G18G23G32G15
 129764974.265 6 101115655.774 7  24693453.592    24693476.065         712.699  
       555.223          40.000          42.000  
 109168144.819 7  85066154.938 7  20774008.340    20774025.540         491.062  
       382.582          47.000          45.000  
 113809135.173 8  88682508.068 8  21657159.338    21657174.613       -1403.566  
     -1093.695          48.000          48.000  
 110478840.573 7  86087466.547 7  21023424.581    21023439.071       -1456.602  
     -1135.004          45.000          45.000  
 118144202.996 7  92060503.135 7  22482095.722    22482115.658        3272.039  
      2549.668          45.000          43.000  
 127130769.139 6  99063015.455 7  24192181.884    24192200.678       -3006.582  
     -2342.797          39.000          43.000  
 24  1 10  3 13 21.0000000  0  6G24G10G18G23G32G15
 129764903.015 6 101115600.266 7  24693440.175    24693462.493         712.594  
       555.195          40.000          42.000  
 109168095.729 7  85066116.687 7  20773999.014    20774015.964         491.000  
       382.547          47.000          45.000  
 113809275.567 7  88682617.462 8  21657185.976    21657201.461       -1403.680  
     -1093.828          47.000          48.000  
 110478986.249 7  86087580.079 7  21023452.185    21023467.023       -1456.691  
     -1135.047          45.000          45.000  
 118143875.783 7  92060248.150 7  22482033.432    22482053.505        3271.984  
      2549.539          45.000          43.000  
 127131069.772 6  99063249.717 7  24192239.506    24192258.043       -3006.582  
     -2342.805          38.000          43.000  
 24  1 10  3 13 21.1000000  0  6G24G10G18G23G32G15
 129764831.755 6 101115544.746 7  24693426.614    24693448.935         712.609  
       555.211          40.000          42.000  
 109168046.656 7  85066078.441 7  20773989.675    20774006.624         490.863  
       382.418          47.000          45.000  
 113809415.921 7  88682726.841 8  21657212.684    21657228.172       -1403.660  
     -1093.816          47.000          48.000  
 110479131.924 7  86087693.581 7  21023479.906    21023494.741       -1456.785  
     -1135.148          45.000          45.000  
 118143548.612 7  92059993.204 7  22481971.173    22481991.244        3271.801  
      2549.660          45.000          43.000  
 127131370.454 6  99063484.010 7  24192296.724    24192315.260       -3006.660  
     -2342.871          39.000          44.000  
 24  1 10  3 13 21.2000000  0  6G24G10G18G23G32G15
 129764760.525 6 101115489.246 7  24693412.974    24693435.577         712.551  
       555.332          41.000          42.000  
 109167997.593 7  85066040.202 7  20773980.238    20773997.247         490.801  
       382.391          47.000          45.000  
 113809556.326 7  88682836.235 8  21657239.356    21657254.864       -1403.863  
     -1093.973          47.000          48.000  
 110479277.645 7  86087807.133 7  21023507.816    21023522.292       -1456.773  
     -1135.312          44.000          45.000  
 118143221.467 7  92059738.285 7  22481908.553    22481928.936        3271.754  
      2549.266          45.000          43.000  
 127131671.129 6  99063718.303 7  24192353.972    24192372.867       -3006.590  
     -2342.961          39.000          44.000  
 24  1 10  3 13 21.3000000  0  6G24G10G18G23G32G15
 129764689.320 6 101115433.741 7  24693399.424    24693422.022         712.137  
       554.621          41.000          42.000  
 109167948.563 7  85066002.000 7  20773970.907    20773987.918         490.461  
       382.020          47.000          45.000  
 113809696.743 7  88682945.655 8  21657266.076    21657281.586       -1404.070  
     -1094.211          47.000          48.000  
 110479423.370 7  86087920.694 7  21023535.546    21023550.025       -1457.160  
     -1135.555          44.000          45.000  
 118142894.329 7  92059483.406 7  22481846.300    22481866.692        3271.504  
      2549.004          45.000          43.000  
 127131971.829 6  99063952.618 7  24192411.193    24192430.090       -3006.926  
     -2343.102          39.000          44.000  
 24  1 10  3 13 21.4000000  0  6G24G10G18G23G32G15
 129764618.125 6 101115378.284 7  24693385.774    24693408.369         712.066  
       554.754          41.000          42.000  
 109167899.539 7  85065963.789 7  20773961.531    20773978.445         490.379  
       382.102          47.000          45.000  
 113809837.184 7  88683055.098 8  21657292.825    21657308.289       -1404.199  
     -1094.234          47.000          48.000  
 110479569.081 7  86088034.229 7  21023563.524    21023578.251       -1457.227  
     -1135.496          45.000          45.000  
 118142567.205 7  92059228.485 7  22481783.863    22481804.391        3271.383  
      2549.195          45.000          43.000  
 127132272.601 6  99064186.947 7  24192468.092    24192487.120       -3007.180  
     -2343.336          38.000          44.000  
 24  1 10  3 13 21.5000000  0  6G24G10G18G23G32G15
 129764546.901 6 101115322.793 7  24693372.221    24693394.818         712.105  
       554.719          41.000          42.000  
 109167850.518 7  85065925.612 7  20773952.203    20773969.122         490.344  
       381.984          47.000          45.000  
 113809977.607 7  88683164.502 8  21657319.546    21657335.007       -1404.270  
     -1094.207          47.000          48.000  
 110479714.832 7  86088147.791 7  21023591.260    21023605.984       -1457.289  
     -1135.559          45.000          45.000  
 118142240.084 7  92058973.573 7  22481721.614    22481742.139        3271.273  
      2548.953          45.000          43.000  
 127132573.302 6  99064421.271 7  24192525.314    24192544.344       -3007.195  
     -2343.172          38.000          44.000  
 24  1 10  3 13 21.6000000  0  6G24G10G18G23G32G15
 129764475.726 6 101115267.356 7  24693358.935    24693381.756         711.957  
       554.430          41.000          42.000  
 109167801.507 7  85065887.407 7  20773942.728    20773959.316         490.195  
       381.926          47.000          45.000  
 113810118.049 7  88683273.955 8  21657346.232    21657361.307       -1404.320  
     -1094.434          47.000          48.000  
 110479860.561 7  86088261.358 7  21023618.889    21023633.727       -1457.328  
     -1135.594          45.000          45.000  
 118141912.960 7  92058718.697 7  22481659.474    22481679.676        3271.195  
      2548.871          45.000          43.000  
 127132874.023 6  99064655.620 7  24192582.586    24192601.762       -3007.207  
     -2343.461          38.000          44.000  
 24  1 10  3 13 21.7000000  0  6G24G10G18G23G32G15
 129764404.574 6 101115211.918 7  24693345.395    24693368.217         711.750  
       554.375          41.000          42.000  
 109167752.509 7  85065849.237 7  20773933.404    20773949.994         490.074  
       381.613          47.000          45.000  
 113810258.514 7  88683383.417 8  21657372.962    21657388.038       -1404.488  
     -1094.535          47.000          48.000  
 110480006.330 7  86088374.937 7  21023646.628    21023661.464       -1457.445  
     -1135.770          45.000          45.000  
 118141585.878 7  92058463.822 7  22481597.232    22481617.433        3271.137  
      2548.898          45.000          43.000  
 127133174.768 6  99064889.961 7  24192639.816    24192658.991       -3007.348  
     -2343.449          38.000          44.000  
 24  1 10  3 13 21.8000000  0  6G24G10G18G23G32G15
 129764333.410 6 101115156.459 7  24693331.798    24693354.689         711.652  
       554.547          41.000          42.000  
 109167703.534 7  85065811.064 7  20773924.366    20773940.875         489.902  
       381.711          47.000          45.000  
 113810398.979 7  88683492.844 8  21657399.934    21657414.996       -1404.660  
     -1094.531          47.000          48.000  
 110480152.113 7  86088488.534 7  21023673.964    21023689.455       -1457.672  
     -1135.812          45.000          45.000  
 118141258.797 7  92058208.946 7  22481535.171    22481555.057        3270.859  
      2548.500          45.000          43.000  
 127133475.505 6  99065124.313 7  24192696.864    24192715.823       -3007.301  
     -2343.480          38.000          44.000  
 24  1 10  3 13 21.9000000  0  6G24G10G18G23G32G15
 129764262.292 6 101115101.042 7  24693318.265    24693341.156         711.379  
       554.223          41.000          42.000  
 109167654.573 7  85065772.911 7  20773915.049    20773931.558         489.711  
       381.594          47.000          45.000  
 113810539.488 7  88683602.347 8  21657426.672    21657441.738       -1404.859  
     -1094.832          47.000          48.000  
 110480297.872 7  86088602.101 7  21023701.701    21023717.189       -1457.727  
     -1136.039          45.000          45.000  
 118140931.728 7  92057954.087 7  22481472.931    22481492.818        3270.777  
      2548.672          45.000          43.000  
 127133776.300 6  99065358.688 7  24192754.104    24192773.060       -3007.605  
     -2343.723          38.000          44.000  
 24  1 10  3 13 22.0000000  0  6G24G10G18G23G32G15
 129764191.164 6 101115045.618 7  24693304.738    24693327.621         711.363  
       554.113          40.000          42.000  
 109167605.611 7  85065734.772 7  20773905.841    20773922.259         489.770  
       381.582          47.000          45.000  
 113810679.967 7  88683711.800 8  21657453.404    21657468.905       -1404.848  
     -1094.723          47.000          48.000  
 110480443.656 7  86088715.707 7  21023729.521    21023744.808       -1457.797  
     -1135.934          45.000          45.000  
 118140604.656 7  92057699.234 7  22481410.653    22481430.752        3270.723  
      2548.477          45.000          43.000  
 127134077.092 6  99065593.035 7  24192811.530    24192830.040       -3007.785  
     -2343.359          38.000          44.000  
 24  1 10  3 13 22.1000000  0  6G24G10G18G23G32G15
 129764120.089 6 101114990.217 7  24693291.212    24693314.091         711.133  
       554.016          40.000          42.000  
 109167556.696 7  85065696.637 7  20773896.533    20773912.946         489.367  
       381.328          47.000          45.000  
 113810820.495 7  88683821.301 8  21657480.146    21657495.646       -1405.117  
     -1094.957          47.000          48.000  
 110480589.497 7  86088829.345 7  21023757.273    21023772.560       -1458.023  
     -1136.375          45.000          45.000  
 118140277.634 7  92057444.399 7  22481348.422    22481368.519        3270.477  
      2548.297          45.000          43.000  
 127134377.825 6  99065827.437 7  24192868.758    24192887.283       -3007.598  
     -2344.016          39.000          44.000  
 24  1 10  3 13 22.2000000  0  6G24G10G18G23G32G15
 129764049.019 6 101114934.855 7  24693277.555    24693300.556         710.816  
       553.820          40.000          42.000  
 109167507.769 7  85065658.524 7  20773886.957    20773903.522         489.297  
       380.992          47.000          44.000  
 113810961.045 7  88683930.831 8  21657506.735    21657522.660       -1405.215  
     -1095.125          47.000          48.000  
 110480735.293 7  86088942.962 7  21023785.244    21023800.361       -1458.164  
     -1136.449          44.000          45.000  
 118139950.614 7  92057189.603 7  22481286.216    22481306.350        3270.332  
      2548.207          45.000          43.000  
 127134678.674 6  99066061.858 7  24192926.179    24192944.547       -3008.000  
     -2344.043          38.000          44.000  
 24  1 10  3 13 22.3000000  0  6G24G10G18G23G32G15
 129763977.954 6 101114879.455 7  24693264.032    24693287.026         710.762  
       553.957          40.000          42.000  
 109167458.851 7  85065620.404 7  20773877.648    20773894.212         489.223  
       381.148          47.000          45.000  
 113811101.580 7  88684040.340 8  21657533.478    21657549.403       -1405.309  
     -1095.102          47.000          48.000  
 110480881.155 7  86089056.627 7  21023813.001    21023828.119       -1458.219  
     -1136.340          44.000          45.000  
 118139623.595 7  92056934.759 7  22481223.986    22481244.115        3270.184  
      2548.238          45.000          43.000  
 127134979.498 6  99066296.240 7  24192983.424    24193001.786       -3008.156  
     -2343.863          38.000          44.000  
 24  1 10  3 13 22.4000000  0  6G24G10G18G23G32G15
 129763906.869 6 101114824.072 7  24693250.279    24693273.048         710.836  
       553.906          40.000          42.000  
 109167409.943 7  85065582.304 7  20773868.396    20773885.142         489.188  
       381.246          47.000          45.000  
 113811242.123 7  88684149.849 8  21657560.238    21657576.068       -1405.379  
     -1095.027          47.000          48.000  
 110481026.966 7  86089170.233 7  21023840.724    21023855.542       -1458.336  
     -1136.305          44.000          45.000  
 118139296.593 7  92056679.973 7  22481161.690    22481181.698        3270.223  
      2548.090          45.000          43.000  
 127135280.275 6  99066530.646 7  24193040.707    24193059.545       -3007.992  
     -2344.004          38.000          44.000  
 24  1 10  3 13 22.5000000  0  6G24G10G18G23G32G15
 129763835.797 6 101114768.685 7  24693236.754    24693259.522         710.746  
       553.551          40.000          42.000  
 109167361.063 7  85065544.206 7  20773859.094    20773875.838         489.000  
       380.953          47.000          45.000  
 113811382.694 7  88684259.376 8  21657586.988    21657602.816       -1405.523  
     -1095.402          47.000          48.000  
 110481172.840 7  86089283.884 7  21023868.483    21023883.297       -1458.445  
     -1136.453          44.000          45.000  
 118138969.613 7  92056425.161 7  22481099.467    22481119.470        3269.902  
      2547.910          45.000          43.000  
 127135581.174 6  99066765.057 7  24193097.966    24193116.791       -3008.371  
     -2344.156          38.000          44.000  
 24  1 10  3 13 22.6000000  0  6G24G10G18G23G32G15
 129763764.762 6 101114713.361 7  24693223.244    24693246.129         710.512  
       553.492          40.000          42.000  
 109167312.196 7  85065506.127 7  20773849.733    20773866.594         488.816  
       380.742          47.000          45.000  
 113811523.276 7  88684368.935 8  21657613.935    21657629.267       -1405.758  
     -1095.520          47.000          48.000  
 110481318.709 7  86089397.588 7  21023896.092    21023911.143       -1458.445  
     -1136.668          44.000          45.000  
 118138642.636 7  92056170.383 7  22481037.433    22481057.290        3269.797  
      2547.891          45.000          43.000  
 127135881.977 6  99066999.486 7  24193155.301    24193174.346       -3008.273  
     -2344.316          38.000          44.000  
 24  1 10  3 13 22.7000000  0  6G24G10G18G23G32G15
 129763693.783 6 101114658.021 7  24693209.737    24693232.614         710.152  
       553.371          40.000          42.000  
 109167263.347 7  85065468.051 7  20773840.437    20773857.295         488.555  
       380.594          47.000          45.000  
 113811663.881 7  88684478.495 8  21657640.691    21657656.022       -1405.945  
     -1095.738          47.000          48.000  
 110481464.619 7  86089511.265 7  21023923.858    21023938.904       -1458.887  
     -1137.008          44.000          45.000  
 118138315.695 7  92055915.637 7  22480975.218    22480995.078        3269.664  
      2547.465          45.000          44.000  
 127136182.897 6  99067233.943 7  24193212.564    24193231.603       -3008.738  
     -2344.578          38.000          44.000  
 24  1 10  3 13 22.8000000  0  6G24G10G18G23G32G15
 129763622.754 6 101114602.691 7  24693196.080    24693219.102         710.164  
       553.094          41.000          42.000  
 109167214.488 7  85065430.018 7  20773831.061    20773848.062         488.578  
       380.641          47.000          45.000  
 113811804.488 7  88684588.057 8  21657667.174    21657682.778       -1405.926  
     -1095.559          47.000          48.000  
 110481610.493 7  86089624.916 7  21023951.648    21023966.588       -1458.887  
     -1136.656          44.000          45.000  
 118137988.725 7  92055660.848 7  22480913.037    22480932.505        3269.605  
      2547.523          45.000          44.000  
 127136483.749 6  99067468.395 7  24193269.861    24193288.584       -3008.527  
     -2344.422          38.000          44.000  
 24  1 10  3 13 22.9000000  0  6G24G10G18G23G32G15
 129763551.746 6 101114547.375 7  24693182.568    24693205.593         710.305  
       553.445          41.000          42.000  
 109167165.650 7  85065391.924 7  20773821.768    20773838.759         488.520  
       380.695          47.000          45.000  
 113811945.103 7  88684697.628 8  21657693.933    21657709.537       -1406.012  
     -1095.625          47.000          48.000  
 110481756.381 7  86089738.622 7  21023979.410    21023994.357       -1458.789  
     -1136.949          44.000          45.000  
 118137661.772 7  92055406.089 7  22480850.820    22480870.290        3269.539  
      2547.711          45.000          44.000  
 127136784.609 6  99067702.847 7  24193327.113    24193345.840       -3008.656  
     -2344.543          38.000          44.000  
 24  1 10  3 13 23.0000000  0  6G24G10G18G23G32G15
 129763480.786 6 101114492.081 7  24693168.846    24693192.090         709.832  
       552.906          41.000          42.000  
 109167116.831 7  85065353.927 7  20773812.329    20773829.441         488.348  
       380.191          47.000          45.000  
 113812085.735 7  88684807.203 8  21657720.725    21657736.288       -1406.301  
     -1095.852          47.000          48.000  
 110481902.326 7  86089852.332 7  21024007.237    21024021.868       -1459.180  
     -1137.102          44.000          45.000  
 118137334.858 7  92055151.347 7  22480788.563    22480808.345        3269.383  
      2547.430          45.000          44.000  
 127137085.523 6  99067937.310 7  24193384.313    24193403.044       -3008.961  
     -2344.766          38.000          44.000  
 24  1 10  3 13 23.1000000  0  6G24G10G18G23G32G15
 129763409.816 6 101114436.772 7  24693155.341    24693178.583         709.652  
       552.875          41.000          42.000  
 109167068.040 7  85065315.898 7  20773803.045    20773820.154         488.074  
       380.145          47.000          45.000  
 113812226.400 7  88684916.814 8  21657747.493    21657763.056       -1406.438  
     -1096.145          47.000          48.000  
 110482048.257 7  86089966.047 7  21024035.007    21024049.638       -1459.211  
     -1137.176          44.000          45.000  
 118137007.956 7  92054896.615 7  22480726.356    22480746.137        3269.059  
      2547.246          45.000          44.000  
 127137386.459 6  99068171.801 7  24193441.579    24193460.309       -3009.078  
     -2344.848          38.000          43.000  
 24  1 10  3 13 23.2000000  0  6G24G10G18G23G32G15
 129763338.849 6 101114381.509 7  24693141.750    24693164.954         709.637  
       552.617          40.000          42.000  
 109167019.262 7  85065277.857 7  20773793.950    20773810.848         487.922  
       380.258          47.000          45.000  
 113812367.076 7  88685026.436 8  21657774.380    21657789.944       -1406.547  
     -1096.121          47.000          48.000  
 110482194.206 7  86090079.759 7  21024063.147    21024077.259       -1459.375  
     -1137.246          43.000          45.000  
 118136681.083 7  92054641.907 7  22480664.029    22480683.981        3269.012  
      2546.984          45.000          43.000  
 127137687.400 6  99068406.295 7  24193498.924    24193517.762       -3009.262  
     -2344.887          39.000          44.000  
 24  1 10  3 13 23.3000000  0  6G24G10G18G23G32G15
 129763267.909 6 101114326.241 7  24693128.251    24693151.457         709.523  
       552.785          40.000          42.000  
 109166970.486 7  85065239.861 7  20773784.668    20773801.569         487.863  
       380.059          47.000          45.000  
 113812507.731 7  88685136.033 8  21657801.146    21657816.709       -1406.648  
     -1096.117          47.000          48.000  
 110482340.135 7  86090193.484 7  21024090.916    21024105.032       -1459.461  
     -1137.387          44.000          45.000  
 118136354.204 7  92054387.200 7  22480601.826    22480621.779        3268.793  
      2546.980          45.000          43.000  
 127137988.335 6  99068640.771 7  24193556.190    24193575.023       -3009.238  
     -2344.855          38.000          44.000  
 24  1 10  3 13 23.4000000  0  6G24G10G18G23G32G15
 129763197.019 6 101114270.984 7  24693114.808    24693137.916         709.211  
       552.590          40.000          42.000  
 109166921.718 7  85065201.884 7  20773775.669    20773791.857         487.750  
       380.051          47.000          45.000  
 113812648.427 7  88685245.668 8  21657827.825    21657843.053       -1406.770  
     -1096.383          47.000          48.000  
 110482486.125 7  86090307.237 7  21024118.846    21024132.796       -1459.496  
     -1137.367          44.000          45.000  
 118136027.315 7  92054132.484 7  22480539.590    22480559.676        3268.797  
      2547.051          45.000          43.000  
 127138289.221 6  99068875.283 7  24193613.673    24193632.013       -3009.074  
     -2345.062          38.000          44.000  
 24  1 10  3 13 23.5000000  0  6G24G10G18G23G32G15
 129763126.115 6 101114215.718 7  24693101.315    24693124.419         709.184  
       552.598          40.000          42.000  
 109166872.974 8  85065163.890 7  20773766.394    20773782.579         487.633  
       379.883          48.000          44.000  
 113812789.116 7  88685355.305 8  21657854.598    21657869.828       -1406.856  
     -1096.328          47.000          48.000  
 110482632.081 7  86090420.983 7  21024146.620    21024160.574       -1459.695  
     -1137.559          44.000          45.000  
 118135700.487 7  92053877.827 7  22480477.397    22480497.487        3268.672  
      2546.910          45.000          43.000  
 127138590.257 6  99069109.793 7  24193670.958    24193689.282       -3009.738  
     -2345.031          38.000          44.000  
 24  1 10  3 13 23.6000000  0  6G24G10G18G23G32G15
 129763055.245 6 101114160.467 7  24693087.876    24693111.075         708.941  
       552.492          40.000          42.000  
 109166824.238 8  85065125.921 7  20773757.174    20773773.533         487.441  
       379.777          48.000          45.000  
 113812929.833 7  88685464.956 8  21657881.336    21657896.856       -1406.961  
     -1096.453          47.000          48.000  
 110482778.083 7  86090534.728 7  21024174.247    21024188.586       -1459.742  
     -1137.340          44.000          45.000  
 118135373.646 7  92053623.123 7  22480415.357    22480434.926        3268.422  
      2546.680          45.000          43.000  
 127138891.223 6  99069344.294 7  24193728.496    24193746.347       -3009.625  
     -2345.070          38.000          44.000  
 24  1 10  3 13 23.7000000  0  6G24G10G18G23G32G15
 129762984.350 6 101114105.252 7  24693074.385    24693097.591         708.914  
       552.352          40.000          42.000  
 109166775.518 8  85065087.947 7  20773747.903    20773764.259         487.332  
       379.617          48.000          44.000  
 113813070.555 7  88685574.599 8  21657908.115    21657923.632       -1407.211  
     -1096.566          47.000          48.000  
 110482924.079 7  86090648.493 7  21024202.029    21024216.369       -1460.008  
     -1137.820          44.000          45.000  
 118135046.816 7  92053368.473 7  22480353.164    22480372.738        3268.398  
      2546.707          45.000          43.000  
 127139192.208 6  99069578.862 7  24193785.772    24193803.631       -3009.746  
     -2345.527          39.000          44.000  
 24  1 10  3 13 23.8000000  0  6G24G10G18G23G32G15
 129762913.475 6 101114050.001 7  24693061.164    24693084.223         708.750  
       552.301          40.000          42.000  
 109166726.806 8  85065049.974 7  20773738.493    20773755.228         487.180  
       379.570          48.000          44.000  
 113813211.313 7  88685684.279 8  21657934.978    21657950.565       -1407.270  
     -1096.672          47.000          48.000  
 110483070.100 7  86090762.274 7  21024229.691    21024244.585       -1460.016  
     -1137.688          44.000          45.000  
 118134719.987 7  92053113.781 7  22480291.079    22480310.680        3268.293  
      2546.656          45.000          43.000  
 127139493.174 6  99069813.391 7  24193842.895    24193860.874       -3009.734  
     -2345.402          39.000          44.000  
 24  1 10  3 13 23.9000000  0  6G24G10G18G23G32G15
 129762842.610 6 101113994.788 7  24693047.679    24693070.740         708.797  
       552.379          41.000          42.000  
 109166678.092 8  85065012.033 7  20773729.223    20773745.962         487.160  
       379.555          48.000          44.000  
 113813352.028 7  88685793.936 8  21657961.755    21657977.344       -1407.246  
     -1096.582          47.000          48.000  
 110483216.077 7  86090876.030 7  21024257.470    21024272.366       -1459.957  
     -1137.680          44.000          45.000  
 118134393.155 7  92052859.105 7  22480228.885    22480248.486        3268.270  
      2546.664          45.000          43.000  
 127139794.149 6  99070047.933 7  24193900.169    24193918.151       -3009.746  
     -2345.398          39.000          44.000  
 24  1 10  3 13 24.0000000  0  6G24G10G18G23G32G15
 129762771.745 6 101113939.532 7  24693034.608    24693057.191         708.719  
       552.367          41.000          42.000  
 109166629.390 8  85064974.084 7  20773719.987    20773736.249         487.066  
       379.453          48.000          45.000  
 113813492.785 7  88685903.605 8  21657988.454    21658004.088       -1407.492  
     -1096.734          47.000          48.000  
 110483362.139 7  86090989.851 7  21024284.921    21024299.959       -1460.070  
     -1137.781          44.000          45.000  
 118134066.360 7  92052604.468 7  22480166.698    22480186.308        3268.145  
      2546.508          45.000          43.000  
 127140095.169 6  99070282.476 7  24193957.209    24193975.288       -3009.926  
     -2345.457          39.000          44.000  
 24  1 10  3 13 24.1000000  0  6G24G10G18G23G32G15
 129762700.918 6 101113884.404 7  24693021.130    24693043.728         708.578  
       551.848          41.000          42.000  
 109166580.731 8  85064936.173 7  20773710.727    20773726.991         486.859  
       379.211          48.000          45.000  
 113813633.571 7  88686013.300 8  21658015.245    21658030.876       -1407.676  
     -1097.012          47.000          48.000  
 110483508.182 7  86091103.633 7  21024312.712    21024327.745       -1460.414  
     -1138.098          44.000          45.000  
 118133739.583 7  92052349.831 7  22480104.515    22480124.123        3267.945  
      2546.254          45.000          43.000  
 127140396.190 6  99070517.043 7  24194014.491    24194032.572       -3010.172  
     -2345.734          40.000          44.000  
 24  1 10  3 13 24.2000000  0  6G24G10G18G23G32G15
 129762630.101 6 101113829.214 7  24693007.825    24693030.047         708.367  
       551.918          41.000          42.000  
 109166532.085 8  85064898.260 7  20773701.603    20773717.733         486.598  
       378.895          48.000          45.000  
 113813774.352 7  88686123.013 8  21658042.043    21658057.482       -1407.832  
     -1097.277          47.000          48.000  
 110483654.241 7  86091217.457 7  21024340.654    21024355.738       -1460.547  
     -1138.312          44.000          45.000  
 118133412.847 7  92052095.233 7  22480042.300    22480062.073        3267.617  
      2546.035          45.000          43.000  
 127140697.267 6  99070751.634 7  24194071.870    24194089.869       -3010.410  
     -2345.879          40.000          44.000  
 24  1 10  3 13 24.3000000  0  6G24G10G18G23G32G15
 129762559.282 7 101113774.012 7  24692994.349    24693016.566         708.137  
       551.688          42.000          42.000  
 109166483.448 8  85064860.359 7  20773692.347    20773708.477         486.469  
       379.051          48.000          45.000  
 113813915.180 7  88686232.753 8  21658068.842    21658084.282       -1407.984  
     -1097.242          47.000          48.000  
 110483800.331 7  86091331.284 7  21024368.454    21024383.535       -1460.672  
     -1138.258          44.000          45.000  
 118133086.093 7  92051840.601 7  22479980.121    22479999.889        3267.504  
      2546.109          45.000          43.000  
 127140998.308 6  99070986.207 7  24194129.156    24194147.155       -3010.500  
     -2345.715          39.000          44.000  
 24  1 10  3 13 24.4000000  0  6G24G10G18G23G32G15
 129762488.496 7 101113718.891 7  24692980.895    24693002.847         708.008  
       551.414          42.000          42.000  
 109166434.822 8  85064822.471 7  20773683.040    20773699.552         486.422  
       378.816          48.000          45.000  
 113814055.990 8  88686342.477 8  21658095.637    21658111.351       -1408.191  
     -1097.414          48.000          48.000  
 110483946.399 7  86091445.092 7  21024396.360    21024411.399       -1460.867  
     -1138.395          44.000          45.000  
 118132759.370 7  92051586.038 7  22479917.666    22479937.847        3267.375  
      2545.914          45.000          43.000  
 127141299.391 6  99071220.806 7  24194186.380    24194204.696       -3010.633  
     -2345.887          39.000          44.000  
 24  1 10  3 13 24.5000000  0  6G24G10G18G23G32G15
 129762417.734 6 101113663.728 7  24692967.429    24692989.376         707.742  
       551.477          41.000          42.000  
 109166386.211 8  85064784.604 7  20773673.789    20773690.305         486.203  
       378.805          48.000          45.000  
 113814196.837 8  88686452.223 8  21658122.439    21658138.152       -1408.203  
     -1097.348          48.000          48.000  
 110484092.500 7  86091558.959 7  21024424.162    21024439.206       -1460.856  
     -1138.500          44.000          45.000  
 118132432.646 7  92051331.438 7  22479855.493    22479875.671        3267.258  
      2545.922          45.000          43.000  
 127141600.492 6  99071455.430 7  24194243.678    24194261.994       -3010.832  
     -2346.156          39.000          43.000  
 24  1 10  3 13 24.6000000  0  6G24G10G18G23G32G15
 129762346.976 6 101113608.602 7  24692954.128    24692975.648         707.703  
       551.500          41.000          42.000  
 109166337.601 7  85064746.706 7  20773664.594    20773681.284         486.117  
       378.699          47.000          45.000  
 113814337.669 8  88686561.971 8  21658149.465    21658165.141       -1408.367  
     -1097.477          48.000          48.000  
 110484238.628 7  86091672.824 7  21024451.688    21024466.982       -1461.031  
     -1138.457          44.000          45.000  
 118132105.944 7  92051076.854 7  22479793.730    22479813.390        3267.199  
      2545.898          45.000          43.000  
 127141901.565 6  99071690.051 7  24194301.072    24194319.126       -3010.754  
     -2346.156          39.000          43.000  
 24  1 10  3 13 24.7000000  0  6G24G10G18G23G32G15
 129762276.245 6 101113553.458 7  24692940.669    24692962.181         707.637  
       551.578          41.000          42.000  
 109166289.005 7  85064708.858 7  20773655.346    20773672.041         486.121  
       378.688          47.000          45.000  
 113814478.520 7  88686671.710 8  21658176.268    21658191.940       -1408.328  
     -1097.336          47.000          48.000  
 110484384.727 7  86091786.664 7  21024479.489    21024494.783       -1461.062  
     -1138.492          44.000          45.000  
 118131779.218 7  92050822.286 7  22479731.556    22479751.222        3267.098  
      2545.668          45.000          43.000  
 127142202.636 6  99071924.676 7  24194358.363    24194376.424       -3010.750  
     -2346.172          39.000          43.000  
 24  1 10  3 13 24.8000000  0  6G24G10G18G23G32G15
 129762205.498 6 101113498.351 7  24692927.136    24692948.739         707.426  
       550.816          41.000          42.000  
 109166240.433 7  85064670.998 7  20773646.252    20773662.490         485.895  
       378.617          47.000          45.000  
 113814619.379 8  88686781.474 8  21658202.987    21658218.488       -1408.559  
     -1097.648          48.000          48.000  
 110484530.836 7  86091900.506 7  21024507.215    21024522.561       -1461.035  
     -1138.590          44.000          45.000  
 118131452.549 7  92050567.736 7  22479669.439    22479689.129        3267.074  
      2545.688          45.000          43.000  
 127142503.726 6  99072159.263 7  24194415.675    24194433.455       -3010.859  
     -2345.961          39.000          43.000  
 24  1 10  3 13 24.9000000  0  6G24G10G18G23G32G15
 129762134.812 6 101113443.262 6  24692913.684    24692935.286         707.258  
       551.070          40.000          41.000  
 109166191.849 7  85064633.132 7  20773637.006    20773653.243         485.844  
       378.500          47.000          45.000  
 113814760.243 7  88686891.247 8  21658229.792    21658245.296       -1408.594  
     -1097.742          47.000          48.000  
 110484676.980 7  86092014.401 7  21024535.025    21024550.375       -1461.199  
     -1138.723          44.000          45.000  
 118131125.863 7  92050313.182 7  22479607.273    22479626.964        3266.941  
      2545.367          45.000          43.000  
 127142804.835 6  99072393.912 7  24194472.974    24194490.759       -3010.977  
     -2346.402          39.000          43.000  
 24  1 10  3 13 25.0000000  0  6G24G10G18G23G32G15
 129762064.097 6 101113388.134 6  24692899.939    24692922.042         707.074  
       551.098          40.000          41.000  
 109166143.308 8  85064595.325 7  20773627.660    20773644.135         485.652  
       378.273          48.000          44.000  
 113814901.138 7  88687001.031 8  21658256.744    21658271.832       -1408.816  
     -1097.832          47.000          48.000  
 110484823.130 7  86092128.292 7  21024563.133    21024577.884       -1461.395  
     -1138.973          44.000          45.000  
 118130799.191 7  92050058.603 7  22479544.930    22479564.816        3266.645  
      2545.391          45.000          43.000  
 127143105.988 6  99072628.566 7  24194530.352    24194548.079       -3011.242  
     -2346.504          39.000          43.000  
 24  1 10  3 13 25.1000000  0  6G24G10G18G23G32G15
 129761993.441 6 101113333.074 6  24692886.493    24692908.595         706.879  
       550.602          39.000          41.000  
 109166094.771 8  85064557.488 7  20773618.424    20773634.895         485.473  
       378.156          48.000          44.000  
 113815042.055 7  88687110.832 8  21658283.560    21658298.647       -1408.961  
     -1098.023          47.000          48.000  
 110484969.304 7  86092242.187 7  21024590.950    21024605.698       -1461.637  
     -1139.055          44.000          45.000  
 118130472.545 7  92049804.088 7  22479482.771    22479502.661        3266.598  
      2545.332          45.000          43.000  
 127143407.123 6  99072863.229 7  24194587.656    24194605.386       -3011.305  
     -2346.555          39.000          43.000  
 24  1 10  3 13 25.2000000  0  6G24G10G18G23G32G15
 129761922.729 6 101113277.996 6  24692873.014    24692895.059         706.965  
       550.816          40.000          41.000  
 109166046.240 8  85064519.679 7  20773608.837    20773625.178         485.293  
       378.164          48.000          44.000  
 113815182.952 7  88687220.621 8  21658310.223    21658325.709       -1409.066  
     -1098.035          47.000          48.000  
 110485115.478 7  86092356.092 7  21024618.828    21024633.476       -1461.633  
     -1138.961          44.000          45.000  
 118130145.919 7  92049549.578 7  22479420.624    22479440.359        3266.410  
      2545.094          45.000          43.000  
 127143708.284 6  99073097.894 7  24194644.996    24194662.912       -3011.461  
     -2346.664          39.000          43.000  
 24  1 10  3 13 25.3000000  0  6G24G10G18G23G32G15
 129761852.077 6 101113222.925 6  24692859.569    24692881.610         706.695  
       550.613          40.000          41.000  
 109165997.730 8  85064481.879 7  20773599.606    20773615.946         485.273  
       377.898          48.000          44.000  
 113815323.899 7  88687330.446 8  21658337.045    21658352.529       -1409.231  
     -1098.164          47.000          48.000  
 110485261.667 7  86092469.998 7  21024646.647    21024661.293       -1461.840  
     -1139.098          44.000          45.000  
 118129819.318 7  92049295.093 7  22479358.474    22479378.211        3266.312  
      2544.934          45.000          43.000  
 127144009.427 6  99073332.563 7  24194702.302    24194720.221       -3011.516  
     -2346.691          39.000          44.000  
 24  1 10  3 13 25.4000000  0  6G24G10G18G23G32G15
 129761781.428 6 101113167.862 6  24692846.180    24692868.343         706.695  
       550.715          41.000          41.000  
 109165949.246 8  85064444.084 7  20773590.489    20773606.818         485.039  
       377.824          48.000          44.000  
 113815464.859 7  88687440.282 8  21658363.743    21658379.337       -1409.402  
     -1098.356          47.000          48.000  
 110485407.885 7  86092583.930 7  21024674.752    21024689.140       -1461.910  
     -1139.231          44.000          45.000  
 118129492.699 7  92049040.577 7  22479296.141    22479316.142        3266.168  
      2544.930          45.000          43.000  
 127144310.641 6  99073567.247 7  24194759.566    24194778.088       -3011.766  
     -2346.781          39.000          44.000  
 24  1 10  3 13 25.5000000  0  6G24G10G18G23G32G15
 129761710.800 6 101113112.868 6  24692832.740    24692854.913         706.469  
       550.211          41.000          41.000  
 109165900.767 8  85064406.311 7  20773581.264    20773597.594         484.859  
       377.684          48.000          44.000  
 113815605.829 7  88687550.131 8  21658390.569    21658406.163       -1409.543  
     -1098.492          47.000          48.000  
 110485554.105 7  86092697.907 7  21024702.577    21024716.974       -1462.051  
     -1139.465          44.000          46.000  
 118129166.109 7  92048786.079 7  22479233.993    22479253.991        3265.996  
      2544.906          45.000          43.000  
 127144611.854 6  99073801.945 7  24194816.885    24194835.404       -3011.996  
     -2347.027          39.000          44.000  
 24  1 10  3 13 25.6000000  0  6G24G10G18G23G32G15
 129761640.167 6 101113057.815 6  24692819.275    24692841.429         706.402  
       550.297          41.000          41.000  
 109165852.309 8  85064368.572 7  20773572.332    20773588.440         484.750  
       377.648          48.000          44.000  
 113815746.794 7  88687659.980 8  21658417.597    21658433.364       -1409.613  
     -1098.543          47.000          48.000  
 110485700.344 7  86092811.814 7  21024730.093    21024745.291       -1462.387  
     -1139.391          44.000          46.000  
 118128839.532 7  92048531.616 7  22479171.746    22479191.950        3265.867  
      2544.867          45.000          43.000  
 127144913.033 6  99074036.646 7  24194874.463    24194892.626       -3011.855  
     -2347.012          39.000          44.000  
 24  1 10  3 13 25.7000000  0  6G24G10G18G23G32G15
 129761569.554 6 101113002.776 6  24692805.838    24692827.988         706.180  
       550.191          41.000          41.000  
 109165803.850 8  85064330.798 7  20773563.110    20773579.215         484.645  
       377.566          48.000          44.000  
 113815887.785 7  88687769.839 8  21658444.427    21658460.193       -1409.809  
     -1098.477          47.000          48.000  
 110485846.567 7  86092925.778 7  21024757.918    21024773.122       -1462.344  
     -1139.695          44.000          46.000  
 118128512.981 7  92048277.158 7  22479109.605    22479129.809        3265.738  
      2544.613          45.000          43.000  
 127145214.250 6  99074271.352 7  24194931.783    24194949.944       -3012.004  
     -2347.059          38.000          44.000  
 24  1 10  3 13 25.8000000  0  6G24G10G18G23G32G15
 129761498.946 6 101112947.773 6  24692792.379    24692814.392         706.031  
       550.188          41.000          41.000  
 109165755.400 8  85064293.062 7  20773553.726    20773569.726         484.566  
       377.477          48.000          44.000  
 113816028.789 7  88687879.711 8  21658471.001    21658486.892       -1409.852  
     -1098.703          47.000          48.000  
 110485992.829 7  86093039.728 7  21024785.626    21024801.255       -1462.481  
     -1139.606          44.000          46.000  
 118128186.406 7  92048022.685 7  22479047.483    22479067.336        3265.672  
      2544.523          45.000          43.000  
 127145515.470 6  99074506.079 7  24194989.197    24195006.587       -3012.191  
     -2347.215          38.000          44.000  
 24  1 10  3 13 25.9000000  0  6G24G10G18G23G32G15
 129761428.403 6 101112892.806 6  24692778.955    24692800.968         705.988  
       550.094          41.000          41.000  
 109165706.985 7  85064255.326 7  20773544.513    20773560.510         484.430  
       377.348          47.000          44.000  
 113816169.800 7  88687989.599 8  21658497.834    21658513.728       -1410.023  
     -1098.844          47.000          48.000  
 110486139.083 7  86093153.701 7  21024813.457    21024829.088       -1462.457  
     -1139.648          44.000          46.000  
 118127859.892 7  92047768.279 7  22478985.350    22479005.207        3265.492  
      2544.320          45.000          43.000  
 127145816.717 6  99074740.794 7  24195046.522    24195063.907       -3012.301  
     -2347.188          38.000          44.000  
 24  1 10  3 13 26.0000000  0  6G24G10G18G23G32G15
 129761357.834 6 101112837.791 6  24692765.534    24692787.462         705.719  
       549.910          41.000          41.000  
 109165658.558 7  85064217.605 7  20773535.392    20773551.494         484.285  
       377.234          47.000          44.000  
 113816310.843 7  88688099.488 8  21658524.658    21658540.759       -1410.207  
     -1098.918          47.000          48.000  
 110486285.362 7  86093267.678 7  21024841.442    21024856.438       -1462.664  
     -1139.633          44.000          46.000  
 118127533.353 7  92047513.821 7  22478923.298    22478942.777        3265.289  
      2544.391          45.000          43.000  
 127146117.987 6  99074975.564 7  24195103.868    24195121.139       -3012.430  
     -2347.582          38.000          44.000  
 24  1 10  3 13 26.1000000  0  6G24G10G18G23G32G15
 129761287.263 6 101112782.829 6  24692752.104    24692774.040         705.602  
       549.492          41.000          41.000  
 109165610.153 7  85064179.877 7  20773526.181    20773542.280         484.168  
       377.168          47.000          44.000  
 113816451.856 7  88688209.377 8  21658551.492    21658567.595       -1410.273  
     -1099.039          47.000          48.000  
 110486431.651 7  86093381.672 7  21024869.279    21024884.277       -1462.828  
     -1140.113          44.000          45.000  
 118127206.839 7  92047259.387 7  22478861.164    22478880.641        3265.234  
      2544.316          45.000          43.000  
 127146419.255 6  99075210.313 7  24195161.197    24195178.467       -3012.625  
     -2347.602          39.000          43.000  
 24  1 10  3 13 26.2000000  0  6G24G10G18G23G32G15
 129761216.727 6 101112727.854 6  24692738.783    24692760.708         705.477  
       549.758          40.000          41.000  
 109165561.771 7  85064142.153 7  20773516.458    20773533.146         483.930  
       377.129          47.000          44.000  
 113816592.939 7  88688319.302 8  21658578.308    21658594.354       -1410.449  
     -1099.133          47.000          48.000  
 110486577.956 7  86093495.676 7  21024897.183    21024912.329       -1462.906  
     -1139.965          44.000          46.000  
 118126880.347 7  92047004.994 7  22478798.839    22478818.446        3265.191  
      2544.160          45.000          43.000  
 127146720.541 6  99075445.085 7  24195218.374    24195235.917       -3012.641  
     -2347.617          39.000          43.000  
 24  1 10  3 13 26.3000000  0  6G24G10G18G23G32G15
 129761146.207 6 101112672.910 6  24692725.364    24692747.291         705.363  
       549.496          40.000          41.000  
 109165513.402 7  85064104.481 7  20773507.254    20773523.946         483.805  
       376.770          47.000          44.000  
 113816733.988 7  88688429.213 8  21658605.149    21658621.195       -1410.586  
     -1099.305          47.000          48.000  
 110486724.291 7  86093609.724 7  21024925.030    21024940.180       -1463.062  
     -1140.137          44.000          45.000  
 118126553.866 7  92046750.560 7  22478736.712    22478756.310        3264.926  
      2544.074          45.000          43.000  
 127147021.827 6  99075679.860 7  24195275.706    24195293.252       -3012.812  
     -2347.836          39.000          43.000  
 24  1 10  3 13 26.4000000  0  6G24G10G18G23G32G15
 129761075.771 6 101112617.994 6  24692711.710    24692734.020         704.887  
       549.250          39.000          41.000  
 109165465.056 7  85064066.807 7  20773498.093    20773514.582         483.590  
       376.789          47.000          44.000  
 113816875.086 7  88688539.176 8  21658632.054    21658647.612       -1410.734  
     -1099.453          47.000          48.000  
 110486870.614 7  86093723.729 7  21024952.991    21024968.061       -1463.191  
     -1140.266          44.000          45.000  
 118126227.401 7  92046496.201 7  22478674.588    22478694.803        3264.672  
      2543.770          45.000          43.000  
 127147323.146 6  99075914.677 7  24195332.874    24195350.503       -3012.922  
     -2347.918          39.000          43.000  
 24  1 10  3 13 26.5000000  0  6G24G10G18G23G32G15
 129761005.289 6 101112563.078 6  24692698.298    24692720.609         704.863  
       549.168          39.000          41.000  
 109165416.722 7  85064029.140 7  20773488.895    20773505.383         483.508  
       376.629          47.000          44.000  
 113817016.194 7  88688649.119 8  21658658.906    21658674.461       -1410.961  
     -1099.527          47.000          48.000  
 110487016.975 7  86093837.760 7  21024980.843    21024995.908       -1463.406  
     -1140.473          44.000          45.000  
 118125900.948 7  92046241.814 7  22478612.466    22478632.679        3264.668  
      2543.629          45.000          43.000  
 127147624.452 6  99076149.440 7  24195390.210    24195407.835       -3012.984  
     -2347.957          39.000          43.000  
 24  1 10  3 13 26.6000000  0  6G24G10G18G23G32G15
 129760934.813 6 101112508.172 6  24692684.809    24692707.294         704.816  
       549.012          39.000          41.000  
 109165368.398 7  85063991.492 7  20773479.746    20773496.454         483.301  
       376.426          47.000          44.000  
 113817157.304 7  88688759.068 8  21658685.836    21658701.366       -1411.086  
     -1099.598          47.000          48.000  
 110487163.328 7  86093951.817 7  21025008.552    21025023.496       -1463.562  
     -1140.391          44.000          45.000  
 118125574.536 7  92045987.462 7  22478550.547    22478570.743        3264.363  
      2543.621          45.000          43.000  
 127147925.823 6  99076384.271 7  24195447.622    24195465.237       -3013.418  
     -2348.168          39.000          43.000  
 24  1 10  3 13 26.7000000  0  6G24G10G18G23G32G15
 129760864.335 6 101112453.266 6  24692671.397    24692693.886         704.770  
       549.184          40.000          41.000  
 109165320.089 7  85063953.841 7  20773470.554    20773487.260         483.230  
       376.535          47.000          44.000  
 113817298.442 7  88688869.054 8  21658712.694    21658728.226       -1411.125  
     -1099.672          47.000          48.000  
 110487309.682 7  86094065.843 7  21025036.402    21025051.343       -1463.496  
     -1140.328          44.000          45.000  
 118125248.078 7  92045733.088 7  22478488.424    22478508.622        3264.426  
      2543.637          45.000          43.000  
 127148227.132 6  99076619.068 7  24195504.959    24195522.577       -3013.176  
     -2347.906          39.000          44.000  
 24  1 10  3 13 26.8000000  0  6G24G10G18G23G32G15
 129760793.883 6 101112398.362 6  24692657.913    24692680.353         704.648  
       549.000          40.000          41.000  
 109165271.778 7  85063916.205 7  20773461.290    20773478.397         483.223  
       376.328          47.000          44.000  
 113817439.548 7  88688979.002 8  21658739.889    21658754.905       -1411.133  
     -1099.652          47.000          48.000  
 110487456.058 7  86094179.907 7  21025064.327    21025079.456       -1463.695  
     -1140.500          44.000          45.000  
 118124921.674 7  92045478.744 7  22478426.538    22478446.759        3264.293  
      2543.516          45.000          43.000  
 127148528.453 6  99076853.874 7  24195562.103    24195580.255       -3013.336  
     -2348.031          39.000          44.000  
 24  1 10  3 13 26.9000000  0  6G24G10G18G23G32G15
 129760723.469 6 101112343.493 6  24692644.513    24692666.953         704.332  
       548.688          40.000          41.000  
 109165223.510 7  85063878.598 7  20773452.105    20773469.213         482.926  
       376.012          47.000          44.000  
 113817580.735 8  88689089.023 8  21658766.756    21658781.773       -1411.461  
     -1100.055          48.000          48.000  
 110487602.484 7  86094294.013 7  21025092.191    21025107.322       -1463.856  
     -1140.930          44.000          45.000  
 118124595.273 7  92045224.403 7  22478364.426    22478384.646        3264.012  
      2543.203          45.000          43.000  
 127148829.838 6  99077088.706 7  24195619.455    24195637.603       -3013.648  
     -2348.320          39.000          43.000  
 24  1 10  3 13 27.0000000  0  6G24G10G18G23G32G15
 129760653.045 6 101112288.639 6  24692631.331    24692653.588         704.273  
       548.551          40.000          41.000  
 109165175.231 7  85063840.965 7  20773443.183    20773459.780         482.797  
       376.164          47.000          44.000  
 113817721.897 7  88689199.009 8  21658793.540    21658808.617       -1411.676  
     -1099.988          47.000          48.000  
 110487748.875 7  86094408.090 7  21025120.189    21025134.907       -1464.047  
     -1140.965          44.000          45.000  
 118124268.898 7  92044970.096 7  22478302.100    22478322.456        3263.910  
      2543.293          45.000          43.000  
 127149131.247 6  99077323.551 7  24195676.623    24195694.924       -3013.816  
     -2348.473          38.000          43.000  
 24  1 10  3 13 27.1000000  0  6G24G10G18G23G32G15
 129760582.644 6 101112233.755 6  24692617.934    24692640.185         704.148  
       548.844          40.000          41.000  
 109165126.984 7  85063803.365 7  20773434.002    20773450.598         482.578  
       375.938          47.000          44.000  
 113817863.069 7  88689309.019 7  21658820.404    21658835.482       -1411.695  
     -1100.121          47.000          47.000  
 110487895.297 7  86094522.171 7  21025148.052    21025162.767       -1464.121  
     -1140.918          44.000          45.000  
 118123942.559 7  92044715.802 7  22478240.000    22478260.355        3263.742  
      2543.070          45.000          43.000  
 127149432.664 6  99077558.399 7  24195733.981    24195752.276       -3014.023  
     -2348.457          38.000          43.000  
 24  1 10  3 13 27.2000000  0  6G24G10G18G23G32G15
 129760512.251 6 101112178.934 6  24692604.507    24692627.180         703.980  
       548.465          40.000          41.000  
 109165078.727 7  85063765.777 7  20773424.749    20773440.848         482.652  
       376.086          47.000          44.000  
 113818004.258 8  88689419.043 7  21658847.389    21658862.578       -1411.719  
     -1100.160          48.000          47.000  
 110488041.723 7  86094636.269 7  21025176.088    21025190.514       -1464.184  
     -1140.758          44.000          45.000  
 118123616.156 7  92044461.466 7  22478177.872    22478197.751        3263.785  
      2543.129          45.000          43.000  
 127149734.049 6  99077793.258 7  24195791.278    24195809.787       -3013.922  
     -2348.602          37.000          43.000  
 24  1 10  3 13 27.3000000  0  6G24G10G18G23G32G15
 129760441.853 6 101112124.084 6  24692591.111    24692613.785         704.027  
       548.352          40.000          41.000  
 109165030.473 7  85063728.165 7  20773415.566    20773431.663         482.582  
       376.031          47.000          44.000  
 113818145.433 8  88689529.053 7  21658874.254    21658889.443       -1411.785  
     -1100.152          48.000          47.000  
 110488188.141 7  86094750.348 7  21025203.950    21025218.373       -1464.227  
     -1140.934          44.000          45.000  
 118123289.805 7  92044207.163 7  22478115.769    22478135.648        3263.688  
      2543.020          45.000          43.000  
 127150035.439 6  99078028.118 7  24195848.631    24195867.142       -3013.832  
     -2348.504          37.000          43.000  
 24  1 10  3 13 27.4000000  0  6G24G10G18G23G32G15
 129760371.450 6 101112069.203 7  24692577.800    24692600.125         703.996  
       548.656          40.000          42.000  
 109164982.234 7  85063690.592 7  20773406.168    20773422.698         482.496  
       375.840          47.000          44.000  
 113818286.626 7  88689639.073 7  21658900.919    21658916.210       -1411.856  
     -1100.164          47.000          47.000  
 110488334.581 7  86094864.476 7  21025231.645    21025246.330       -1464.152  
     -1141.023          44.000          45.000  
 118122963.460 7  92043952.863 7  22478053.894    22478073.287        3263.617  
      2543.188          45.000          43.000  
 127150336.835 6  99078262.969 7  24195905.750    24195924.534       -3013.949  
     -2348.668          38.000          43.000  
 24  1 10  3 13 27.5000000  0  6G24G10G18G23G32G15
 129760301.075 6 101112014.383 7  24692564.408    24692586.737         703.754  
       548.344          40.000          42.000  
 109164934.015 7  85063652.994 7  20773396.992    20773413.517         482.316  
       375.828          47.000          44.000  
 113818427.835 7  88689749.090 7  21658927.790    21658943.077       -1412.062  
     -1100.332          47.000          47.000  
 110488481.014 7  86094978.588 7  21025259.510    21025274.197       -1464.328  
     -1141.156          44.000          45.000  
 118122637.108 7  92043698.573 7  22477991.792    22478011.187        3263.441  
      2542.895          45.000          44.000  
 127150638.236 6  99078497.840 7  24195963.105    24195981.892       -3014.039  
     -2348.664          38.000          43.000  
 24  1 10  3 13 27.6000000  0  6G24G10G18G23G32G15
 129760230.755 6 101111959.583 7  24692551.112    24692573.566         703.617  
       548.035          41.000          42.000  
 109164885.815 7  85063615.454 7  20773387.562    20773404.138         482.133  
       375.523          47.000          44.000  
 113818569.100 7  88689859.178 7  21658954.547    21658970.024       -1412.246  
     -1100.629          47.000          47.000  
 110488627.505 7  86095092.724 7  21025287.090    21025301.969       -1464.648  
     -1141.430          44.000          45.000  
 118122310.811 7  92043444.306 7  22477929.684    22477949.358        3263.258  
      2542.688          45.000          44.000  
 127150939.673 6  99078732.732 7  24196020.638    24196039.209       -3014.250  
     -2348.969          38.000          43.000  
 24  1 10  3 13 27.7000000  0  6G24G10G18G23G32G15
 129760160.414 6 101111904.795 7  24692537.727    24692560.186         703.387  
       547.938          41.000          42.000  
 109164837.649 7  85063577.922 7  20773378.397    20773394.972         481.836  
       375.320          47.000          44.000  
 113818710.357 8  88689969.240 7  21658981.427    21658996.903       -1412.477  
     -1100.844          48.000          47.000  
 110488773.980 7  86095206.866 7  21025314.963    21025329.844       -1464.816  
     -1141.523          44.000          45.000  
 118121984.527 7  92043190.063 7  22477867.594    22477887.269        3262.945  
      2542.434          45.000          44.000  
 127151241.156 6  99078967.646 7  24196078.009    24196096.577       -3014.445  
     -2349.145          38.000          44.000  
 24  1 10  3 13 27.8000000  0  6G24G10G18G23G32G15
 129760090.107 6 101111849.980 7  24692524.371    24692547.666         703.273  
       548.023          41.000          42.000  
 109164789.481 7  85063540.380 7  20773369.309    20773385.827         481.773  
       375.242          47.000          44.000  
 113818851.620 8  88690079.324 7  21659008.293    21659023.833       -1412.586  
     -1100.832          48.000          47.000  
 110488920.489 7  86095321.033 7  21025342.702    21025357.904       -1464.926  
     -1141.648          44.000          45.000  
 118121658.251 7  92042935.820 7  22477805.475    22477825.048        3262.855  
      2542.359          45.000          44.000  
 127151542.632 6  99079202.558 7  24196135.292    24196153.913       -3014.680  
     -2349.242          38.000          43.000  
 24  1 10  3 13 27.9000000  0  6G24G10G18G23G32G15
 129760019.796 6 101111795.210 7  24692510.992    24692534.291         703.121  
       547.648          41.000          42.000  
 109164741.330 7  85063502.854 7  20773360.146    20773376.663         481.621  
       375.207          47.000          44.000  
 113818992.899 8  88690189.405 7  21659035.177    21659050.716       -1412.738  
     -1100.906          48.000          47.000  
 110489067.009 7  86095435.189 7  21025370.584    21025385.782       -1465.051  
     -1141.566          44.000          45.000  
 118121331.966 7  92042681.575 7  22477743.385    22477762.959        3262.848  
      2542.383          45.000          44.000  
 127151844.089 6  99079437.470 7  24196192.657    24196211.281       -3014.523  
     -2349.148          38.000          43.000  
 24  1 10  3 13 28.0000000  0  6G24G10G18G23G32G15
 129759949.542 6 101111740.471 7  24692497.443    24692520.665         702.902  
       547.668          41.000          42.000  
 109164693.192 7  85063465.350 7  20773351.243    20773367.520         481.465  
       375.043          47.000          44.000  
 113819134.200 8  88690299.509 7  21659062.004    21659077.269       -1412.898  
     -1101.027          48.000          47.000  
 110489213.539 7  86095549.379 7  21025398.710    21025413.778       -1465.035  
     -1141.688          44.000          45.000  
 118121005.719 7  92042427.368 7  22477680.888    22477700.894        3262.672  
      2542.238          45.000          44.000  
 127152145.585 6  99079672.429 7  24196250.264    24196268.645       -3014.738  
     -2349.543          38.000          43.000  
 24  1 10  3 13 28.1000000  0  6G24G10G18G23G32G15
 129759879.257 6 101111685.701 7  24692484.068    24692507.290         702.793  
       547.301          40.000          42.000  
 109164645.079 7  85063427.845 7  20773342.088    20773358.361         481.316  
       374.941          47.000          44.000  
 113819275.527 8  88690409.626 7  21659088.897    21659104.160       -1413.043  
     -1101.156          48.000          47.000  
 110489360.093 7  86095663.572 7  21025426.598    21025441.665       -1465.273  
     -1141.938          44.000          45.000  
 118120679.503 7  92042173.163 7  22477618.811    22477638.815        3262.484  
      2542.082          45.000          44.000  
 127152447.108 6  99079907.359 7  24196307.642    24196326.018       -3015.074  
     -2349.434          38.000          44.000  
 24  1 10  3 13 28.2000000  0  6G24G10G18G23G32G15
 129759809.012 6 101111630.974 7  24692470.349    24692493.449         702.664  
       547.477          40.000          42.000  
 109164596.980 7  85063390.388 7  20773333.185    20773348.924         481.137  
       374.730          47.000          44.000  
 113819416.837 8  88690519.745 7  21659116.038    21659130.857       -1413.160  
     -1101.352          48.000          47.000  
 110489506.636 7  86095777.781 7  21025454.336    21025469.095       -1465.520  
     -1142.031          44.000          45.000  
 118120353.273 7  92041918.971 7  22477556.966    22477577.262        3262.266  
      2542.043          45.000          43.000  
 127152748.664 6  99080142.326 7  24196364.847    24196383.438       -3015.336  
     -2349.578          37.000          44.000  
 24  1 10  3 13 28.3000000  0  6G24G10G18G23G32G15
 129759738.806 6 101111576.264 7  24692456.990    24692480.088         702.375  
       547.090          40.000          42.000  
 109164548.901 7  85063352.923 7  20773324.036    20773339.775         480.969  
       374.703          47.000          44.000  
 113819558.200 8  88690629.901 7  21659142.938    21659157.758       -1413.336  
     -1101.441          48.000          47.000  
 110489653.213 7  86095891.951 7  21025482.229    21025496.976       -1465.656  
     -1142.133          44.000          45.000  
 118120027.076 7  92041664.786 7  22477494.893    22477515.187        3262.145  
      2541.820          45.000          43.000  
 127153050.228 6  99080377.277 7  24196422.232    24196440.815       -3015.484  
     -2349.633          37.000          44.000  
 24  1 10  3 13 28.4000000  0  6G24G10G18G23G32G15
 129759668.599 6 101111521.523 7  24692443.825    24692466.329         702.262  
       547.125          39.000          42.000  
 109164500.829 7  85063315.443 7  20773314.802    20773330.841         480.770  
       374.613          47.000          44.000  
 113819699.558 8  88690740.041 7  21659169.509    21659184.859       -1413.562  
     -1101.527          48.000          47.000  
 110489799.801 7  86096006.198 7  21025510.100    21025524.908       -1465.824  
     -1142.231          44.000          45.000  
 118119700.887 7  92041410.613 7  22477432.993    22477453.295        3261.945  
      2541.727          45.000          43.000  
 127153351.779 6  99080612.269 7  24196479.373    24196498.398       -3015.418  
     -2349.832          37.000          44.000  
 24  1 10  3 13 28.5000000  0  6G24G10G18G23G32G15
 129759598.415 6 101111466.834 7  24692430.469    24692452.973         701.988  
       547.082          38.000          42.000  
 109164452.770 7  85063278.008 7  20773305.657    20773321.699         480.727  
       374.555          47.000          44.000  
 113819840.946 8  88690850.214 7  21659196.415    21659211.764       -1413.594  
     -1101.547          48.000          47.000  
 110489946.401 7  86096120.448 7  21025537.997    21025552.809       -1465.742  
     -1142.379          44.000          45.000  
 118119374.698 7  92041156.446 7  22477370.921    22477391.225        3261.867  
      2541.578          45.000          43.000  
 127153653.310 6  99080847.239 7  24196536.753    24196555.780       -3015.566  
     -2349.672          37.000          44.000  
 24  1 10  3 13 28.6000000  0  6G24G10G18G23G32G15
 129759528.239 6 101111412.139 7  24692417.092    24692439.061         701.945  
       547.066          38.000          42.000  
 109164404.711 7  85063240.549 7  20773296.675    20773312.871         480.602  
       374.281          47.000          44.000  
 113819982.294 8  88690960.349 7  21659223.461    21659238.989       -1413.664  
     -1101.715          48.000          47.000  
 110490092.987 7  86096234.648 7  21025565.970    21025580.698       -1465.969  
     -1142.207          44.000          45.000  
 118119048.541 7  92040902.286 7  22477308.926    22477328.454        3261.801  
      2541.625          46.000          43.000  
 127153954.917 6  99081082.243 7  24196593.990    24196613.382       -3015.633  
     -2349.984          37.000          44.000  
 24  1 10  3 13 28.7000000  0  6G24G10G18G23G32G15
 129759458.078 6 101111357.456 7  24692403.741    24692425.707         701.707  
       546.602          38.000          42.000  
 109164356.713 7  85063203.155 7  20773287.542    20773303.739         480.375  
       374.137          47.000          44.000  
 113820123.744 8  88691070.589 8  21659250.378    21659265.910       -1413.969  
     -1101.984          48.000          48.000  
 110490239.617 7  86096348.911 7  21025593.872    21025608.602       -1466.137  
     -1142.684          43.000          46.000  
 118118722.403 7  92040648.159 7  22477246.864    22477266.393        3261.445  
      2541.141          45.000          43.000  
 127154256.508 6  99081317.239 7  24196651.381    24196670.770       -3015.902  
     -2350.121          37.000          44.000  
 24  1 10  3 13 28.8000000  0  6G24G10G18G23G32G15
 129759387.940 6 101111302.806 7  24692390.089    24692412.244         701.539  
       546.523          38.000          42.000  
 109164308.697 7  85063165.751 7  20773278.459    20773294.378         480.215  
       373.969          47.000          44.000  
 113820265.146 8  88691180.759 8  21659277.395    21659292.487       -1414.106  
     -1101.902          48.000          48.000  
 110490386.259 7  86096463.189 7  21025621.777    21025636.862       -1466.309  
     -1142.731          43.000          45.000  
 118118396.267 7  92040394.017 7  22477184.857    22477204.267        3261.434  
      2541.398          45.000          43.000  
 127154558.142 6  99081552.277 7  24196708.866    24196728.091       -3016.156  
     -2350.258          38.000          44.000  
 24  1 10  3 13 28.9000000  0  6G24G10G18G23G32G15
 129759317.814 6 101111248.152 7  24692376.745    24692398.897         701.430  
       546.621          38.000          42.000  
 109164260.699 7  85063128.342 7  20773269.326    20773285.243         480.074  
       374.133          47.000          44.000  
 113820406.578 8  88691290.969 8  21659304.309    21659319.401       -1414.164  
     -1102.055          48.000          48.000  
 110490532.900 7  86096577.447 7  21025649.682    21025664.764       -1466.395  
     -1142.645          43.000          45.000  
 118118070.168 7  92040139.924 7  22477122.802    22477142.214        3261.262  
      2541.137          45.000          43.000  
 127154859.726 6  99081787.298 7  24196766.256    24196785.485       -3015.961  
     -2350.199          37.000          44.000  
 24  1 10  3 13 29.0000000  0  6G24G10G18G23G32G15
 129759247.641 6 101111193.505 6  24692363.329    24692385.778         701.535  
       546.570          39.000          41.000  
 109164212.684 7  85063090.931 7  20773259.993    20773276.349         480.164  
       374.156          47.000          44.000  
 113820548.006 8  88691401.175 8  21659330.940    21659346.557       -1414.238  
     -1102.106          48.000          48.000  
 110490679.567 7  86096691.739 7  21025677.584    21025692.684       -1466.312  
     -1142.633          43.000          45.000  
 118117744.043 7  92039885.799 7  22477060.641    22477080.248        3261.223  
      2541.109          45.000          43.000  
 127155161.348 6  99082022.316 7  24196823.770    24196842.645       -3016.098  
     -2350.242          37.000          44.000  
 24  1 10  3 13 29.1000000  0  6G24G10G18G23G32G15
 129759177.524 6 101111138.842 6  24692349.986    24692372.429         701.371  
       546.449          40.000          41.000  
 109164164.711 7  85063053.547 7  20773250.864    20773267.219         479.883  
       373.875          47.000          44.000  
 113820689.453 8  88691511.393 8  21659357.857    21659373.473       -1414.340  
     -1102.129          48.000          48.000  
 110490826.208 7  86096805.995 7  21025705.489    21025720.586       -1466.562  
     -1142.738          44.000          45.000  
 118117417.957 7  92039631.707 7  22476998.589    22477018.196        3261.148  
      2541.156          45.000          43.000  
 127155462.962 6  99082257.343 7  24196881.165    24196900.040       -3016.219  
     -2350.312          37.000          44.000  
 24  1 10  3 13 29.2000000  0  6G24G10G18G23G32G15
 129759107.410 6 101111084.282 7  24692336.495    24692359.292         701.340  
       546.062          40.000          42.000  
 109164116.739 7  85063016.177 7  20773241.806    20773258.101         479.762  
       373.750          47.000          44.000  
 113820830.920 8  88691621.619 8  21659384.918    21659400.438       -1414.562  
     -1102.332          48.000          48.000  
 110490972.912 7  86096920.305 7  21025733.468    21025748.486       -1466.703  
     -1142.957          44.000          45.000  
 118117091.848 7  92039377.589 7  22476936.486    22476956.474        3260.953  
      2540.910          45.000          43.000  
 127155764.628 6  99082492.404 7  24196938.976    24196957.546       -3016.379  
     -2350.422          37.000          43.000  
 24  1 10  3 13 29.3000000  0  6G24G10G18G23G32G15
 129759037.331 6 101111029.654 6  24692323.160    24692345.952         701.078  
       546.230          41.000          41.000  
 109164068.802 7  85062978.804 7  20773232.684    20773248.974         479.582  
       373.594          47.000          44.000  
 113820972.416 8  88691731.879 8  21659411.844    21659427.365       -1414.711  
     -1102.562          48.000          48.000  
 110491119.609 7  86097034.616 7  21025761.384    21025776.402       -1466.852  
     -1143.164          44.000          45.000  
 118116765.799 7  92039123.520 7  22476874.441    22476894.428        3260.723  
      2540.836          45.000          44.000  
 127156066.268 6  99082727.463 7  24196996.376    24197014.950       -3016.480  
     -2350.727          38.000          43.000  
 24  1 10  3 13 29.4000000  0  6G24G10G18G23G32G15
 129758967.250 6 101110975.065 6  24692309.964    24692332.472         700.766  
       545.789          41.000          41.000  
 109164020.874 7  85062941.452 7  20773223.688    20773240.102         479.375  
       373.445          47.000          44.000  
 113821113.915 8  88691842.134 8  21659439.020    21659454.048       -1414.969  
     -1102.645          48.000          48.000  
 110491266.349 7  86097148.960 7  21025789.308    21025804.357       -1467.062  
     -1143.102          44.000          45.000  
 118116439.743 7  92038869.471 7  22476812.285    22476832.238        3260.680  
      2540.539          45.000          44.000  
 127156367.996 6  99082962.551 7  24197053.754    24197072.306       -3016.859  
     -2350.688          38.000          44.000  
 24  1 10  3 13 29.5000000  0  6G24G10G18G23G32G15
 129758897.189 6 101110920.486 6  24692296.632    24692319.143         700.723  
       545.781          41.000          41.000  
 109163972.980 7  85062904.155 7  20773214.574    20773230.994         479.242  
       373.297          47.000          44.000  
 113821255.419 8  88691952.419 8  21659465.947    21659480.981       -1414.945  
     -1102.738          48.000          48.000  
 110491413.055 7  86097263.290 7  21025817.225    21025832.278       -1467.156  
     -1143.422          44.000          46.000  
 118116113.715 7  92038615.431 7  22476750.244    22476770.199        3260.348  
      2540.438          45.000          44.000  
 127156669.686 6  99083197.628 7  24197111.164    24197129.715       -3016.930  
     -2350.938          38.000          44.000  
 24  1 10  3 13 29.6000000  0  6G24G10G18G23G32G15
 129758827.132 6 101110865.895 6  24692283.441    24692306.187         700.785  
       546.055          41.000          41.000  
 109163925.053 7  85062866.805 7  20773205.267    20773222.052         479.180  
       373.293          47.000          44.000  
 113821396.942 8  88692062.689 8  21659492.605    21659507.910       -1415.074  
     -1102.582          48.000          48.000  
 110491559.754 7  86097377.585 7  21025845.242    21025860.299       -1467.234  
     -1143.238          44.000          46.000  
 118115787.657 7  92038361.341 7  22476688.268    22476708.491        3260.473  
      2540.750          45.000          44.000  
 127156971.376 6  99083432.728 7  24197168.722    24197187.519       -3016.930  
     -2350.969          39.000          44.000  
 24  1 10  3 13 29.7000000  0  6G24G10G18G23G32G15
 129758757.103 6 101110811.309 7  24692270.115    24692292.856         700.410  
       545.805          41.000          42.000  
 109163877.156 7  85062829.460 7  20773196.152    20773212.932         479.066  
       373.410          47.000          44.000  
 113821538.450 8  88692172.940 8  21659519.533    21659534.834       -1415.188  
     -1102.781          48.000          48.000  
 110491706.505 7  86097491.944 7  21025873.168    21025888.227       -1467.219  
     -1143.387          44.000          45.000  
 118115461.652 7  92038107.319 7  22476626.231    22476646.457        3260.344  
      2540.371          45.000          44.000  
 127157273.062 6  99083667.798 7  24197226.131    24197244.925       -3016.859  
     -2350.820          39.000          43.000  
 24  1 10  3 13 29.8000000  0  6G24G10G18G23G32G15
 129758687.077 6 101110756.745 7  24692256.868    24692280.008         700.422  
       545.723          41.000          42.000  
 109163829.267 7  85062792.158 7  20773187.195    20773204.080         478.953  
       373.117          47.000          44.000  
 113821680.006 8  88692283.262 8  21659546.439    21659561.901       -1415.258  
     -1102.969          48.000          48.000  
 110491853.250 7  86097606.305 7  21025900.827    21025916.397       -1467.281  
     -1143.543          44.000          45.000  
 118115135.670 7  92037853.301 7  22476564.300    22476584.517        3260.125  
      2540.406          45.000          44.000  
 127157574.759 6  99083902.911 7  24197283.527    24197302.046       -3016.984  
     -2351.070          39.000          43.000  
 24  1 10  3 13 29.9000000  0  6G24G10G18G23G32G15
 129758617.073 6 101110702.181 7  24692243.547    24692266.683         700.016  
       545.324          41.000          42.000  
 109163781.403 7  85062754.859 7  20773178.087    20773194.972         478.797  
       372.883          47.000          44.000  
 113821821.585 7  88692393.572 8  21659573.380    21659588.840       -1415.559  
     -1103.082          47.000          48.000  
 110492000.036 7  86097720.675 7  21025928.759    21025944.327       -1467.656  
     -1143.711          44.000          45.000  
 118114809.671 7  92037599.287 7  22476502.265    22476522.484        3259.848  
      2540.023          45.000          43.000  
 127157876.514 6  99084138.038 7  24197340.949    24197359.466       -3017.242  
     -2351.273          39.000          44.000  
 24  1 10  3 13 30.0000000  0  6G24G10G18G23G32G15
 129758547.091 6 101110647.657 7  24692229.980    24692253.641         699.953  
       545.355          40.000          42.000  
 109163733.560 7  85062717.594 7  20773168.858    20773185.106         478.656  
       372.797          47.000          44.000  
 113821963.149 7  88692503.878 8  21659600.374    21659615.778       -1415.648  
     -1103.086          47.000          48.000  
 110492146.829 7  86097835.051 7  21025956.490    21025971.751       -1467.715  
     -1143.684          44.000          45.000  
 118114483.695 7  92037345.268 7  22476440.077    22476460.411        3259.836  
      2539.914          45.000          43.000  
 127158178.289 6  99084373.169 7  24197398.234    24197417.380       -3017.531  
     -2351.344          38.000          44.000  
 24  1 10  3 13 30.1000000  0  6G24G10G18G23G32G15
 129758477.091 6 101110593.165 7  24692216.659    24692240.333         700.016  
       545.215          40.000          42.000  
 109163685.725 7  85062680.318 7  20773159.755    20773176.002         478.457  
       372.672          47.000          43.000  
 113822104.750 7  88692614.209 8  21659627.320    21659642.722       -1415.863  
     -1103.418          47.000          48.000  
 110492293.609 7  86097949.416 7  21025984.421    21025999.680       -1467.945  
     -1144.008          44.000          45.000  
 118114157.742 7  92037091.303 7  22476378.050    22476398.390        3259.652  
      2539.816          45.000          43.000  
 127158480.054 6  99084608.307 7  24197455.658    24197474.803       -3017.582  
     -2351.461          38.000          44.000  
 24  1 10  3 13 30.2000000  0  6G24G10G18G23G32G15
 129758407.193 6 101110538.646 7  24692203.233    24692227.043         699.516  
       545.125          40.000          42.000  
 109163637.920 7  85062643.074 7  20773150.737    20773166.891         478.207  
       372.449          47.000          43.000  
 113822246.359 7  88692724.567 8  21659654.470    21659669.383       -1416.047  
     -1103.590          47.000          48.000  
 110492440.450 7  86098063.832 7  21026012.802    21026027.645       -1468.121  
     -1144.094          44.000          45.000  
 118113831.835 7  92036837.341 7  22476315.993    22476336.385        3259.359  
      2539.684          45.000          43.000  
 127158781.855 6  99084843.472 7  24197513.409    24197532.170       -3017.770  
     -2351.711          38.000          44.000  
 24  1 10  3 13 30.3000000  0  6G24G10G18G23G32G15
 129758337.271 6 101110484.167 7  24692189.927    24692213.738         699.395  
       544.922          40.000          42.000  
 109163590.117 7  85062605.823 7  20773141.640    20773157.794         478.051  
       372.457          47.000          43.000  
 113822387.993 7  88692834.937 7  21659681.422    21659696.337       -1416.113  
     -1103.504          47.000          47.000  
 110492587.287 7  86098178.286 7  21026040.744    21026055.596       -1468.094  
     -1144.145          44.000          45.000  
 118113505.888 7  92036583.354 7  22476253.967    22476274.359        3259.379  
      2539.609          45.000          43.000  
 127159083.643 6  99085078.640 7  24197570.837    24197589.600       -3017.848  
     -2351.695          39.000          44.000  
 24  1 10  3 13 30.4000000  0  6G24G10G18G23G32G15
 129758267.354 6 101110429.660 7  24692176.528    24692199.982         699.297  
       545.004          40.000          43.000  
 109163542.328 7  85062568.569 7  20773132.421    20773148.720         478.047  
       372.406          47.000          43.000  
 113822529.607 7  88692945.298 7  21659708.331    21659723.335       -1416.195  
     -1103.625          47.000          47.000  
 110492734.099 7  86098292.661 7  21026068.963    21026083.911       -1468.320  
     -1144.145          44.000          45.000  
 118113179.983 7  92036329.414 7  22476191.809    22476211.727        3259.242  
      2539.473          45.000          43.000  
 127159385.419 6  99085313.807 7  24197628.170    24197646.624       -3017.727  
     -2351.480          39.000          43.000  
 24  1 10  3 13 30.5000000  0  6G24G10G18G23G32G15
 129758197.411 6 101110375.187 7  24692163.219    24692186.679         699.320  
       544.754          40.000          43.000  
 109163494.540 7  85062531.343 7  20773123.327    20773139.629         477.914  
       372.344          47.000          43.000  
 113822671.258 7  88693055.646 7  21659735.286    21659750.283       -1416.324  
     -1103.691          47.000          47.000  
 110492880.962 7  86098407.105 7  21026096.910    21026111.859       -1468.363  
     -1144.281          44.000          45.000  
 118112854.092 7  92036075.462 7  22476129.794    22476149.709        3259.129  
      2539.500          45.000          43.000  
 127159687.230 6  99085548.966 7  24197685.602    24197704.052       -3018.020  
     -2351.695          39.000          43.000  
 24  1 10  3 13 30.6000000  0  6G24G10G18G23G32G15
 129758127.536 6 101110320.715 7  24692150.383    24692173.384         699.008  
       544.605          39.000          43.000  
 109163446.790 7  85062494.112 7  20773114.045    20773130.420         477.664  
       372.105          47.000          43.000  
 113822812.928 7  88693166.050 7  21659762.011    21659777.010       -1416.543  
     -1104.035          47.000          47.000  
 110493027.823 7  86098521.540 7  21026124.974    21026139.454       -1468.555  
     -1144.297          44.000          45.000  
 118112528.190 7  92035821.531 7  22476067.582    22476087.626        3258.973  
      2539.328          45.000          43.000  
 127159989.080 6  99085784.180 7  24197743.043    24197761.611       -3018.270  
     -2351.926          40.000          43.000  
 24  1 10  3 13 30.7000000  0  6G24G10G18G23G32G15
 129758057.684 6 101110266.273 7  24692137.091    24692160.089         698.793  
       544.504          39.000          42.000  
 109163399.032 7  85062456.926 7  20773104.957    20773121.338         477.680  
       371.957          47.000          43.000  
 113822954.607 7  88693276.452 7  21659788.972    21659803.972       -1416.660  
     -1103.910          47.000          47.000  
 110493174.684 7  86098635.982 7  21026152.920    21026167.401       -1468.688  
     -1144.438          44.000          45.000  
 118112202.327 7  92035567.600 7  22476005.572    22476025.614        3258.793  
      2539.344          45.000          43.000  
 127160290.917 6  99086019.370 7  24197800.480    24197819.047       -3018.250  
     -2351.984          40.000          43.000  
 24  1 10  3 13 30.8000000  0  6G24G10G18G23G32G15
 129757987.828 6 101110211.821 7  24692124.157    24692146.846         698.777  
       544.445          39.000          42.000  
 109163351.314 7  85062419.741 7  20773096.057    20773111.960         477.387  
       371.867          47.000          43.000  
 113823096.297 7  88693386.863 7  21659815.825    21659831.177       -1416.820  
     -1104.129          47.000          47.000  
 110493321.609 7  86098750.456 7  21026181.114    21026195.342       -1468.856  
     -1144.641          44.000          45.000  
 118111876.468 7  92035313.685 7  22475943.540    22475963.605        3258.676  
      2539.055          45.000          43.000  
 127160592.785 6  99086254.583 7  24197857.799    24197876.614       -3018.484  
     -2352.176          40.000          43.000  
 24  1 10  3 13 30.9000000  0  6G24G10G18G23G32G15
 129757917.966 6 101110157.397 7  24692110.863    24692133.555         698.617  
       544.301          39.000          42.000  
 109163303.590 7  85062382.533 7  20773086.975    20773102.874         477.312  
       371.875          47.000          43.000  
 113823238.000 7  88693497.264 7  21659842.790    21659858.138       -1416.965  
     -1104.258          47.000          47.000  
 110493468.488 7  86098864.914 7  21026209.064    21026223.293       -1468.852  
     -1144.527          44.000          45.000  
 118111550.622 7  92035059.778 7  22475881.533    22475901.599        3258.473  
      2539.125          45.000          43.000  
 127160894.627 6  99086489.800 7  24197915.237    24197934.056       -3018.512  
     -2352.258          39.000          43.000  
 24  1 10  3 13 31.0000000  0  6G24G10G18G23G32G15
 129757848.117 6 101110102.982 7  24692097.563    24692120.102         698.539  
       544.137          40.000          42.000  
 109163255.894 7  85062345.357 7  20773078.164    20773094.116         477.129  
       371.801          47.000          43.000  
 113823379.721 7  88693607.719 7  21659869.673    21659885.191       -1417.039  
     -1104.266          47.000          47.000  
 110493615.416 7  86098979.402 7  21026236.656    21026251.635       -1469.125  
     -1144.898          44.000          45.000  
 118111224.831 7  92034805.917 7  22475819.670    22475839.689        3258.277  
      2538.824          45.000          43.000  
 127161196.494 6  99086725.034 7  24197973.071    24197991.354       -3018.703  
     -2352.359          39.000          43.000  
 24  1 10  3 13 31.1000000  0  6G24G10G18G23G32G15
 129757778.310 6 101110048.578 7  24692084.279    24692106.816         698.309  
       544.137          40.000          42.000  
 109163208.192 7  85062308.207 7  20773069.087    20773085.043         477.051  
       371.613          47.000          43.000  
 113823521.455 7  88693718.135 7  21659896.644    21659912.156       -1417.215  
     -1104.344          47.000          47.000  
 110493762.330 7  86099093.864 7  21026264.613    21026279.588       -1469.090  
     -1144.625          44.000          45.000  
 118110898.992 7  92034552.031 7  22475757.665    22475777.688        3258.422  
      2538.824          45.000          43.000  
 127161498.433 6  99086960.268 7  24198030.528    24198048.800       -3018.930  
     -2352.281          39.000          43.000  
 24  1 10  3 13 31.2000000  0  6G24G10G18G23G32G15
 129757708.495 6 101109994.169 7  24692070.861    24692092.787         698.324  
       544.109          40.000          42.000  
 109163160.499 7  85062271.048 7  20773059.957    20773076.500         477.039  
       371.621          47.000          43.000  
 113823663.185 7  88693828.598 7  21659923.958    21659939.475       -1417.234  
     -1104.422          47.000          47.000  
 110493909.273 7  86099208.380 7  21026292.450    21026307.500       -1469.152  
     -1144.883          44.000          45.000  
 118110573.205 7  92034298.160 7  22475695.545    22475715.737        3258.203  
      2538.781          45.000          43.000  
 127161800.262 6  99087195.480 7  24198087.933    24198106.015       -3018.621  
     -2352.184          39.000          43.000  
 24  1 10  3 13 31.3000000  0  6G24G10G18G23G32G15
 129757638.686 6 101109939.795 7  24692057.577    24692079.508         698.066  
       543.777          40.000          42.000  
 109163112.838 7  85062233.921 7  20773050.887    20773067.433         476.816  
       371.273          47.000          43.000  
 113823804.932 7  88693939.024 7  21659950.931    21659966.442       -1417.484  
     -1104.582          47.000          47.000  
 110494056.207 7  86099322.861 7  21026320.411    21026335.457       -1469.418  
     -1145.102          44.000          45.000  
 118110247.386 7  92034044.272 7  22475633.544    22475653.735        3258.027  
      2538.621          45.000          43.000  
 127162102.219 6  99087430.760 7  24198145.394    24198163.473       -3019.105  
     -2352.676          39.000          43.000  
 24  1 10  3 13 31.4000000  0  6G24G10G18G23G32G15
 129757568.911 6 101109885.438 6  24692044.549    24692065.741         697.973  
       543.586          40.000          41.000  
 109163065.196 8  85062196.779 7  20773041.649    20773058.199         476.578  
       371.277          48.000          43.000  
 113823946.723 7  88694049.525 7  21659977.976    21659993.819       -1417.594  
     -1104.758          47.000          47.000  
 110494203.155 7  86099437.393 7  21026348.358    21026363.622       -1469.473  
     -1145.164          44.000          45.000  
 118109921.611 7  92033790.425 7  22475571.629    22475591.696        3257.789  
      2538.301          45.000          43.000  
 127162404.086 6  99087666.028 7  24198202.462    24198220.944       -3018.977  
     -2352.684          39.000          43.000  
 24  1 10  3 13 31.5000000  0  6G24G10G18G23G32G15
 129757499.166 6 101109831.099 6  24692031.277    24692052.471         697.699  
       543.391          41.000          41.000  
 109163017.586 8  85062159.682 7  20773032.589    20773049.139         476.320  
       370.984          48.000          43.000  
 113824088.508 7  88694159.996 7  21660004.957    21660020.797       -1417.852  
     -1104.953          47.000          47.000  
 110494350.169 7  86099551.955 7  21026376.334    21026391.599       -1469.758  
     -1145.570          44.000          45.000  
 118109595.864 7  92033536.601 7  22475509.641    22475529.709        3257.488  
      2538.137          45.000          43.000  
 127162706.096 6  99087901.317 7  24198259.933    24198278.404       -3019.555  
     -2352.727          38.000          43.000  
 24  1 10  3 13 31.6000000  0  6G24G10G18G23G32G15
 129757429.452 6 101109776.777 6  24692018.042    24692039.392         697.453  
       543.336          41.000          41.000  
 109162969.972 7  85062122.585 7  20773023.583    20773040.041         476.164  
       371.008          47.000          43.000  
 113824230.347 7  88694270.531 7  21660031.862    21660047.431       -1418.098  
     -1105.106          47.000          47.000  
 110494497.176 7  86099666.504 7  21026404.270    21026418.980       -1469.992  
     -1145.477          44.000          45.000  
 118109270.145 7  92033282.793 7  22475447.784    22475467.946        3257.453  
      2538.223          45.000          43.000  
 127163008.062 6  99088136.625 7  24198317.528    24198335.962       -3019.582  
     -2353.098          38.000          43.000  
 24  1 10  3 13 31.7000000  0  6G24G10G18G23G32G15
 129757359.714 6 101109722.403 6  24692004.771    24692026.114         697.305  
       543.449          41.000          41.000  
 109162922.375 7  85062085.500 7  20773014.526    20773030.984         476.039  
       370.891          47.000          43.000  
 113824372.162 7  88694381.026 7  21660058.848    21660074.415       -1418.129  
     -1105.074          47.000          47.000  
 110494644.191 7  86099781.038 7  21026432.246    21026446.950       -1470.059  
     -1145.547          44.000          45.000  
 118108944.439 7  92033028.989 7  22475385.804    22475405.964        3257.289  
      2537.906          45.000          43.000  
 127163310.040 6  99088371.936 7  24198374.992    24198393.427       -3019.609  
     -2353.031          39.000          43.000  
 24  1 10  3 13 31.8000000  0  6G24G10G18G23G32G15
 129757290.016 6 101109668.122 6  24691991.360    24692013.249         697.242  
       543.062          41.000          41.000  
 109162874.805 7  85062048.443 7  20773005.435    20773021.684         475.910  
       370.742          47.000          43.000  
 113824514.013 7  88694491.556 7  21660086.029    21660101.111       -1418.379  
     -1105.246          46.000          47.000  
 110494791.226 7  86099895.616 7  21026460.093    21026474.634       -1470.207  
     -1145.926          44.000          45.000  
 118108618.723 7  92032775.200 7  22475323.815    22475344.181        3257.121  
      2537.906          45.000          43.000  
 127163612.051 6  99088607.256 7  24198432.205    24198450.801       -3019.871  
     -2353.340          39.000          43.000  
 24  1 10  3 13 31.9000000  0  6G24G10G18G23G32G15
 129757220.295 6 101109613.780 6  24691978.092    24691999.978         697.039  
       543.102          41.000          41.000  
 109162827.239 7  85062011.362 7  20772996.383    20773012.629         475.719  
       370.441          47.000          43.000  
 113824655.878 7  88694602.106 7  21660113.025    21660128.108       -1418.504  
     -1105.469          46.000          47.000  
 110494938.273 7  86100010.218 7  21026488.075    21026502.621       -1470.410  
     -1145.820          44.000          45.000  
 118108293.056 7  92032521.418 7  22475261.842    22475282.205        3256.941  
      2537.742          45.000          43.000  
 127163914.027 6  99088842.571 7  24198489.670    24198508.267       -3019.840  
     -2353.180          39.000          43.000  
 24  1 10  3 13 32.0000000  0  6G24G10G18G23G32G15
 129757150.642 6 101109559.526 6  24691964.846    24691987.096         696.949  
       543.004          41.000          41.000  
 109162779.699 7  85061974.315 7  20772987.274    20773003.503         475.547  
       370.551          47.000          43.000  
 113824797.746 7  88694712.661 7  21660139.873    21660155.029       -1418.617  
     -1105.395          46.000          47.000  
 110495085.332 7  86100124.773 7  21026516.106    21026530.894       -1470.488  
     -1145.809          44.000          45.000  
 118107967.385 7  92032267.653 7  22475199.869    22475220.015        3256.820  
      2537.746          45.000          43.000  
 127164216.081 6  99089077.924 7  24198547.375    24198565.626       -3020.234  
     -2353.598          38.000          43.000  
 24  1 10  3 13 32.1000000  0  6G24G10G18G23G32G15
 129757080.986 6 101109505.240 6  24691951.591    24691973.838         696.648  
       542.684          41.000          41.000  
 109162732.162 7  85061937.268 7  20772978.228    20772994.456         475.461  
       370.480          47.000          43.000  
 113824939.639 7  88694823.209 7  21660166.875    21660182.026       -1418.785  
     -1105.621          46.000          47.000  
 110495232.402 7  86100239.401 7  21026544.093    21026558.887       -1470.547  
     -1146.098          44.000          45.000  
 118107641.721 7  92032013.901 7  22475137.897    22475158.046        3256.695  
      2537.434          45.000          43.000  
 127164518.110 6  99089313.276 7  24198604.849    24198623.101       -3020.297  
     -2353.465          39.000          43.000  
 24  1 10  3 13 32.2000000  0  6G24G10G18G23G32G15
 129757011.335 6 101109450.988 6  24691938.383    24691960.722         696.535  
       542.695          40.000          41.000  
 109162684.651 7  85061900.255 7  20772969.453    20772985.816         475.230  
       370.199          47.000          43.000  
 113825081.543 7  88694933.797 7  21660193.948    21660209.283       -1418.856  
     -1105.723          46.000          47.000  
 110495379.501 7  86100354.015 7  21026571.975    21026586.877       -1470.812  
     -1146.141          44.000          45.000  
 118107316.084 7  92031760.164 7  22475075.970    22475095.823        3256.582  
      2537.660          45.000          44.000  
 127164820.188 6  99089548.627 7  24198662.458    24198680.482       -3020.512  
     -2353.512          38.000          43.000  
 24  1 10  3 13 32.3000000  0  6G24G10G18G23G32G15
 129756941.703 6 101109396.709 7  24691925.133    24691947.467         696.469  
       542.648          40.000          42.000  
 109162637.137 7  85061863.216 7  20772960.411    20772976.770         475.227  
       370.383          47.000          43.000  
 113825223.451 7  88695044.357 7  21660220.953    21660236.282       -1419.062  
     -1105.766          46.000          47.000  
 110495526.557 7  86100468.600 7  21026599.959    21026614.860       -1470.766  
     -1146.254          44.000          45.000  
 118106990.432 7  92031506.390 7  22475014.000    22475033.848        3256.465  
      2537.438          45.000          44.000  
 127165122.204 6  99089783.988 7  24198719.930    24198737.960       -3020.270  
     -2353.602          38.000          43.000  
 24  1 10  3 13 32.4000000  0  6G24G10G18G23G32G15
 129756872.089 6 101109342.466 7  24691911.675    24691934.243         696.293  
       542.383          40.000          42.000  
 109162589.647 7  85061826.210 7  20772951.296    20772967.475         475.051  
       369.988          47.000          43.000  
 113825365.369 7  88695154.960 7  21660248.091    21660262.808       -1419.098  
     -1105.938          46.000          47.000  
 110495673.687 7  86100583.242 7  21026628.223    21026643.067       -1470.969  
     -1146.297          44.000          45.000  
 118106664.833 7  92031252.697 7  22474952.033    22474972.089        3256.270  
      2537.199          45.000          44.000  
 127165424.271 6  99090019.357 7  24198777.169    24198795.705       -3020.590  
     -2353.785          38.000          43.000  
 24  1 10  3 13 32.5000000  0  6G24G10G18G23G32G15
 129756802.471 6 101109288.200 7  24691898.427    24691920.991         696.102  
       542.555          40.000          42.000  
 109162542.154 7  85061789.223 7  20772942.258    20772958.443         474.957  
       370.066          47.000          43.000  
 113825507.306 7  88695265.553 7  21660275.101    21660289.816       -1419.211  
     -1105.883          46.000          47.000  
 110495820.812 7  86100697.895 7  21026656.220    21026671.067       -1471.055  
     -1146.371          44.000          45.000  
 118106339.217 7  92030998.958 7  22474890.070    22474910.124        3256.254  
      2537.371          45.000          43.000  
 127165726.332 6  99090254.758 7  24198834.649    24198853.192       -3020.480  
     -2353.879          38.000          43.000  
 24  1 10  3 13 32.6000000  0  6G24G10G18G23G32G15
 129756732.905 6 101109234.002 7  24691885.392    24691907.654         696.051  
       542.219          40.000          42.000  
 109162494.677 7  85061752.222 7  20772933.106    20772949.727         474.828  
       369.828          47.000          43.000  
 113825649.258 7  88695376.162 7  21660302.075    21660317.141       -1419.434  
     -1106.023          46.000          47.000  
 110495967.920 7  86100812.525 7  21026684.135    21026699.318       -1471.207  
     -1146.492          44.000          45.000  
 118106013.602 7  92030745.236 7  22474828.272    22474848.522        3256.035  
      2537.027          44.000          43.000  
 127166028.423 6  99090490.139 7  24198892.174    24198910.456       -3020.824  
     -2353.879          38.000          43.000  
 24  1 10  3 13 32.7000000  0  6G24G10G18G23G32G15
 129756663.310 6 101109179.766 7  24691872.148    24691894.409         696.016  
       542.254          40.000          42.000  
 109162447.215 7  85061715.245 7  20772924.075    20772940.697         474.707  
       369.891          47.000          43.000  
 113825791.211 7  88695486.770 7  21660329.087    21660344.152       -1419.504  
     -1106.188          46.000          47.000  
 110496115.076 7  86100927.185 7  21026712.138    21026727.319       -1471.227  
     -1146.422          44.000          45.000  
 118105688.027 7  92030491.532 7  22474766.317    22474786.565        3255.875  
      2536.887          45.000          43.000  
 127166330.501 6  99090725.546 7  24198949.658    24198967.945       -3020.754  
     -2353.930          38.000          44.000  
 24  1 10  3 13 32.8000000  0  6G24G10G18G23G32G15
 129756593.743 6 101109125.547 7  24691858.918    24691881.066         695.824  
       542.172          41.000          42.000  
 109162399.777 7  85061678.261 7  20772915.368    20772931.423         474.535  
       369.695          47.000          43.000  
 113825933.187 7  88695597.415 7  21660356.167    21660371.212       -1419.606  
     -1106.348          46.000          47.000  
 110496262.216 7  86101041.844 7  21026740.208    21026754.734       -1471.469  
     -1146.652          44.000          45.000  
 118105362.443 7  92030237.828 7  22474704.298    22474724.459        3255.941  
      2537.113          44.000          43.000  
 127166632.642 6  99090960.943 7  24199006.669    24199024.775       -3021.090  
     -2354.125          38.000          44.000  
 24  1 10  3 13 32.9000000  0  6G24G10G18G23G32G15
 129756524.185 6 101109071.355 7  24691845.682    24691867.832         695.660  
       542.008          41.000          42.000  
 109162352.346 7  85061641.305 7  20772906.342    20772922.398         474.461  
       369.488          47.000          43.000  
 113826075.166 7  88695708.039 8  21660383.185    21660398.227       -1419.781  
     -1106.414          46.000          48.000  
 110496409.371 7  86101156.503 7  21026768.211    21026782.735       -1471.500  
     -1146.711          44.000          45.000  
 118105036.912 7  92029984.184 7  22474642.352    22474662.517        3255.594  
      2536.680          44.000          43.000  
 127166934.735 6  99091196.366 7  24199064.155    24199082.268       -3021.004  
     -2354.184          38.000          44.000  
 24  1 10  3 13 33.0000000  0  6G24G10G18G23G32G15
 129756454.651 6 101109017.160 7  24691832.715    24691854.996         695.406  
       541.867          41.000          42.000  
 109162304.943 7  85061604.363 7  20772897.150    20772913.017         474.223  
       369.492          47.000          43.000  
 113826217.169 7  88695818.697 8  21660410.012    21660425.220       -1419.859  
     -1106.508          46.000          48.000  
 110496556.567 7  86101271.208 7  21026796.542    21026811.255       -1471.656  
     -1146.941          44.000          45.000  
 118104711.370 7  92029730.501 7  22474580.387    22474600.057        3255.367  
      2536.637          45.000          43.000  
 127167236.884 6  99091431.795 7  24199121.504    24199140.020       -3021.238  
     -2354.270          38.000          44.000  
 24  1 10  3 13 33.1000000  0  6G24G10G18G23G32G15
 129756385.128 6 101108963.035 6  24691819.486    24691841.778         695.387  
       541.426          41.000          41.000  
 109162257.523 7  85061567.415 7  20772888.126    20772903.994         474.125  
       369.344          47.000          43.000  
 113826359.185 7  88695929.359 8  21660437.036    21660452.245       -1420.020  
     -1106.602          46.000          48.000  
 110496703.754 7  86101385.900 7  21026824.550    21026839.264       -1471.762  
     -1146.902          44.000          45.000  
 118104385.836 7  92029476.866 7  22474518.440    22474538.116        3255.520  
      2536.691          44.000          43.000  
 127167539.052 6  99091667.235 7  24199179.004    24199197.517       -3021.492  
     -2354.441          38.000          44.000  
 24  1 10  3 13 33.2000000  0  6G24G10G18G23G32G15
 129756315.634 6 101108908.854 6  24691806.402    24691827.945         695.164  
       541.625          41.000          41.000  
 109162210.133 7  85061530.492 7  20772879.155    20772895.242         474.043  
       369.246          47.000          43.000  
 113826501.229 7  88696040.032 8  21660464.043    21660479.022       -1420.227  
     -1106.824          46.000          48.000  
 110496850.926 7  86101500.591 7  21026852.252    21026867.304       -1471.941  
     -1146.930          44.000          45.000  
 118104060.324 7  92029223.191 7  22474456.669    22474476.128        3255.223  
      2536.445          44.000          43.000  
 127167841.227 6  99091902.679 7  24199236.702    24199255.757       -3021.621  
     -2354.527          38.000          44.000  
 24  1 10  3 13 33.3000000  0  6G24G10G18G23G32G15
 129756246.108 6 101108854.693 6  24691793.172    24691814.718         695.086  
       541.414          41.000          41.000  
 109162162.768 7  85061493.573 7  20772870.142    20772886.226         473.832  
       369.203          47.000          43.000  
 113826643.256 7  88696150.714 8  21660491.070    21660506.052       -1420.301  
     -1106.906          46.000          48.000  
 110496998.151 7  86101615.288 7  21026880.268    21026895.315       -1472.043  
     -1147.184          44.000          45.000  
 118103734.815 7  92028969.586 7  22474394.727    22474414.194        3255.211  
      2536.160          44.000          43.000  
 127168143.399 6  99092138.143 7  24199294.203    24199313.259       -3021.562  
     -2354.586          38.000          44.000  
 24  1 10  3 13 33.4000000  0  6G24G10G18G23G32G15
 129756176.623 6 101108800.575 6  24691779.715    24691801.572         695.078  
       541.512          41.000          41.000  
 109162115.391 7  85061456.667 7  20772861.056    20772876.846         473.801  
       369.035          47.000          43.000  
 113826785.316 7  88696261.401 8  21660518.376    21660533.638       -1420.375  
     -1106.898          46.000          48.000  
 110497145.370 7  86101730.031 7  21026908.142    21026922.812       -1472.074  
     -1147.215          44.000          45.000  
 118103409.331 7  92028715.931 7  22474332.446    22474352.304        3254.941  
      2536.438          44.000          43.000  
 127168445.543 6  99092373.616 7  24199351.855    24199370.694       -3021.578  
     -2354.680          38.000          44.000  
 24  1 10  3 13 33.5000000  0  6G24G10G18G23G32G15
 129756107.164 6 101108746.398 6  24691766.497    24691788.342         694.742  
       541.559          41.000          41.000  
 109162068.038 7  85061419.780 7  20772852.045    20772867.838         473.691  
       369.020          47.000          43.000  
 113826927.375 7  88696372.100 8  21660545.409    21660560.672       -1420.527  
     -1106.906          46.000          48.000  
 110497292.596 7  86101844.749 7  21026936.158    21026950.828       -1472.129  
     -1147.137          44.000          45.000  
 118103083.836 7  92028462.287 7  22474270.506    22474290.361        3254.867  
      2536.398          44.000          43.000  
 127168747.695 6  99092609.085 7  24199409.353    24199428.198       -3021.562  
     -2354.812          38.000          43.000  
 24  1 10  3 13 33.6000000  0  6G24G10G18G23G32G15
 129756037.713 6 101108692.322 6  24691753.125    24691775.417         694.727  
       540.945          41.000          41.000  
 109162020.704 7  85061382.870 7  20772842.959    20772858.668         473.457  
       368.996          47.000          43.000  
 113827069.451 7  88696482.804 8  21660572.438    21660587.714       -1420.723  
     -1107.254          46.000          48.000  
 110497439.859 7  86101959.489 7  21026964.439    21026978.778       -1472.477  
     -1147.375          44.000          45.000  
 118102758.383 7  92028208.703 7  22474208.699    22474228.723        3254.793  
      2535.926          45.000          43.000  
 127169049.936 6  99092844.563 7  24199467.071    24199485.438       -3022.008  
     -2354.762          38.000          43.000  
 24  1 10  3 13 33.7000000  0  6G24G10G18G23G32G15
 129755968.273 6 101108638.207 6  24691739.911    24691762.202         694.516  
       541.004          41.000          40.000  
 109161973.396 7  85061346.018 7  20772833.957    20772849.668         473.246  
       368.582          47.000          43.000  
 113827211.555 7  88696593.544 8  21660599.479    21660614.758       -1420.887  
     -1107.481          46.000          48.000  
 110497587.136 7  86102074.240 7  21026992.465    21027006.801       -1472.648  
     -1147.719          44.000          45.000  
 118102432.954 7  92027955.109 7  22474146.772    22474166.793        3254.465  
      2535.789          44.000          43.000  
 127169352.188 6  99093080.085 7  24199524.587    24199542.955       -3022.266  
     -2355.230          38.000          43.000  
 24  1 10  3 13 33.8000000  0  6G24G10G18G23G32G15
 129755898.851 6 101108584.111 6  24691726.653    24691748.889         694.281  
       540.898          41.000          40.000  
 109161926.098 7  85061309.189 7  20772824.917    20772840.682         473.109  
       368.492          46.000          43.000  
 113827353.689 7  88696704.302 8  21660626.292    21660641.728       -1421.055  
     -1107.371          46.000          48.000  
 110497734.414 7  86102189.045 7  21027020.468    21027035.002       -1472.590  
     -1147.656          44.000          45.000  
 118102107.535 7  92027701.547 7  22474085.066    22474104.550        3254.305  
      2535.660          44.000          43.000  
 127169654.389 6  99093315.590 7  24199582.001    24199599.929       -3022.137  
     -2355.070          37.000          43.000  
 24  1 10  3 13 33.9000000  0  6G24G10G18G23G32G15
 129755829.433 6 101108529.991 6  24691713.444    24691735.672         694.285  
       541.176          41.000          41.000  
 109161878.802 7  85061272.310 7  20772815.917    20772831.676         473.051  
       368.637          47.000          43.000  
 113827495.802 7  88696815.020 8  21660653.335    21660668.767       -1421.137  
     -1107.363          46.000          48.000  
 110497881.696 7  86102303.768 7  21027048.494    21027063.019       -1472.852  
     -1147.621          44.000          45.000  
 118101782.111 7  92027447.964 7  22474023.140    22474042.622        3254.383  
      2535.902          44.000          43.000  
 127169956.646 6  99093551.100 7  24199639.518    24199657.443       -3022.371  
     -2355.105          37.000          44.000  
 24  1 10  3 13 34.0000000  0  6G24G10G18G23G32G15
 129755760.049 6 101108475.943 6  24691699.998    24691722.653         694.117  
       540.660          40.000          41.000  
 109161831.532 7  85061235.475 7  20772806.563    20772822.969         472.930  
       368.465          47.000          44.000  
 113827637.936 7  88696925.779 8  21660680.078    21660695.768       -1421.215  
     -1107.656          46.000          48.000  
 110498029.023 7  86102418.582 7  21027076.241    21027091.378       -1472.910  
     -1147.820          44.000          45.000  
 118101456.698 7  92027194.409 7  22473961.184    22473980.905        3254.168  
      2535.516          44.000          43.000  
 127170258.847 6  99093786.604 7  24199696.861    24199715.088       -3022.180  
     -2355.164          37.000          44.000  
 24  1 10  3 13 34.1000000  0  6G24G10G18G23G32G15
 129755690.677 6 101108421.865 6  24691686.797    24691709.447         693.781  
       540.762          40.000          41.000  
 109161784.264 7  85061198.656 7  20772797.568    20772813.978         472.695  
       368.160          47.000          44.000  
 113827780.086 7  88697036.552 8  21660707.128    21660722.820       -1421.488  
     -1107.703          46.000          48.000  
 110498176.310 7  86102533.342 7  21027104.268    21027119.403       -1473.113  
     -1147.922          44.000          45.000  
 118101131.307 7  92026940.845 7  22473899.265    22473918.982        3253.961  
      2535.523          45.000          43.000  
 127170561.097 6  99094022.152 7  24199754.377    24199772.611       -3022.465  
     -2355.367          36.000          44.000  
 24  1 10  3 13 34.2000000  0  6G24G10G18G23G32G15
 129755621.323 6 101108367.825 6  24691673.662    24691696.281         693.812  
       540.688          40.000          41.000  
 109161737.018 7  85061161.819 7  20772788.812    20772805.123         472.621  
       368.273          47.000          44.000  
 113827922.251 7  88697147.317 8  21660734.291    21660749.777       -1421.516  
     -1107.684          46.000          48.000  
 110498323.637 7  86102648.152 7  21027132.281    21027147.613       -1473.133  
     -1148.035          44.000          45.000  
 118100805.928 7  92026687.297 7  22473837.284    22473857.141        3253.879  
      2535.426          45.000          43.000  
 127170863.370 6  99094257.697 7  24199811.929    24199830.157       -3022.562  
     -2355.410          36.000          44.000  
 24  1 10  3 13 34.3000000  0  6G24G10G18G23G32G15
 129755552.021 6 101108313.795 6  24691660.474    24691683.086         693.418  
       540.160          41.000          41.000  
 109161689.791 7  85061125.025 7  20772779.825    20772796.137         472.371  
       367.996          47.000          44.000  
 113828064.441 7  88697258.128 8  21660761.348    21660776.838       -1421.766  
     -1108.094          47.000          48.000  
 110498470.986 7  86102762.965 7  21027160.320    21027175.651       -1473.301  
     -1148.242          44.000          45.000  
 118100480.585 7  92026433.790 7  22473775.374    22473795.232        3253.633  
      2535.156          45.000          43.000  
 127171165.690 6  99094493.257 7  24199869.459    24199887.683       -3022.992  
     -2355.590          37.000          44.000  
 24  1 10  3 13 34.4000000  0  6G24G10G18G23G32G15
 129755482.634 6 101108259.756 6  24691647.270    24691669.717         693.504  
       540.281          41.000          41.000  
 109161642.573 7  85061088.238 7  20772770.964    20772787.200         472.305  
       367.918          47.000          44.000  
 113828206.631 7  88697368.924 8  21660788.461    21660803.856       -1421.848  
     -1108.000          47.000          48.000  
 110498618.339 7  86102877.785 7  21027188.376    21027203.473       -1473.492  
     -1148.086          44.000          45.000  
 118100155.248 7  92026180.281 7  22473713.699    22473732.979        3253.492  
      2535.082          45.000          43.000  
 127171468.031 6  99094728.820 7  24199927.172    24199944.859       -3023.066  
     -2355.508          38.000          44.000  
 24  1 10  3 13 34.5000000  0  6G24G10G18G23G32G15
 129755413.335 6 101108205.764 6  24691634.083    24691656.532         693.441  
       540.113          41.000          41.000  
 109161595.362 7  85061051.444 7  20772761.980    20772778.215         472.172  
       368.000          47.000          44.000  
 113828348.846 7  88697479.741 8  21660815.524    21660830.919       -1421.965  
     -1108.125          47.000          48.000  
 110498765.712 7  86102992.613 7  21027216.420    21027231.515       -1473.613  
     -1148.312          45.000          45.000  
 118099829.899 7  92025926.787 7  22473651.787    22473671.073        3253.488  
      2535.098          45.000          43.000  
 127171770.364 6  99094964.382 7  24199984.704    24200002.385       -3023.238  
     -2355.754          38.000          44.000  
 24  1 10  3 13 34.6000000  0  6G24G10G18G23G32G15
 129755344.018 6 101108151.751 6  24691620.830    24691643.341         693.199  
       539.965          41.000          41.000  
 109161548.185 7  85061014.684 7  20772752.956    20772769.402         471.961  
       367.660          47.000          44.000  
 113828491.073 7  88697590.561 8  21660842.885    21660857.982       -1422.195  
     -1108.293          47.000          48.000  
 110498913.115 7  86103107.495 7  21027244.572    21027259.375       -1473.703  
     -1148.617          44.000          45.000  
 118099504.600 7  92025673.297 7  22473589.564    22473609.160        3253.188  
      2534.840          45.000          43.000  
 127172072.727 6  99095199.994 7  24200042.250    24200060.198       -3023.402  
     -2355.949          38.000          44.000  
 24  1 10  3 13 34.7000000  0  6G24G10G18G23G32G15
 129755274.764 6 101108097.779 6  24691607.651    24691630.161         692.914  
       539.730          41.000          41.000  
 109161501.020 7  85060977.928 7  20772743.981    20772760.426         471.770  
       367.453          47.000          44.000  
 113828633.342 7  88697701.419 8  21660869.958    21660885.055       -1422.430  
     -1108.434          47.000          48.000  
 110499060.518 7  86103222.347 7  21027272.621    21027287.423       -1473.930  
     -1148.676          45.000          45.000  
 118099179.288 7  92025419.799 7  22473527.659    22473547.253        3253.082  
      2534.633          45.000          43.000  
 127172375.109 6  99095435.588 7  24200099.791    24200117.732       -3023.578  
     -2355.926          38.000          44.000  
 24  1 10  3 13 34.8000000  0  6G24G10G18G23G32G15
 129755205.480 6 101108043.817 6  24691594.350    24691617.124         692.965  
       539.922          41.000          41.000  
 109161453.853 7  85060941.172 7  20772734.904    20772751.012         471.691  
       367.527          47.000          44.000  
 113828775.594 7  88697812.259 8  21660897.020    21660912.240       -1422.449  
     -1108.410          47.000          48.000  
 110499207.938 7  86103337.213 7  21027300.557    21027315.209       -1474.031  
     -1148.723          45.000          45.000  
 118098854.012 7  92025166.340 7  22473465.707    22473485.645        3252.926  
      2534.730          45.000          43.000  
 127172677.451 6  99095671.198 7  24200157.637    24200175.833       -3023.531  
     -2356.180          38.000          44.000  
 24  1 10  3 13 34.9000000  0  6G24G10G18G23G32G15
 129755136.240 6 101107989.837 6  24691581.174    24691603.941         692.566  
       539.469          41.000          41.000  
 109161406.733 7  85060904.479 7  20772725.937    20772742.051         471.469  
       367.223          47.000          44.000  
 113828917.887 7  88697923.157 8  21660924.098    21660939.323       -1422.664  
     -1108.680          47.000          48.000  
 110499355.367 7  86103452.078 7  21027328.612    21027343.260       -1474.270  
     -1148.895          45.000          45.000  
 118098528.758 7  92024912.889 7  22473403.813    22473423.750        3252.742  
      2534.332          45.000          43.000  
 127172979.851 6  99095906.817 7  24200215.182    24200233.374       -3023.824  
     -2356.184          39.000          44.000  
 24  1 10  3 13 35.0000000  0  6G24G10G18G23G32G15
 129755066.997 6 101107935.900 6  24691567.982    24691590.191         692.500  
       539.488          41.000          41.000  
 109161359.592 7  85060867.721 7  20772716.818    20772732.863         471.406  
       367.254          47.000          44.000  
 113829060.161 7  88698034.003 8  21660951.086    21660966.314       -1422.734  
     -1108.656          46.000          48.000  
 110499502.781 7  86103566.974 7  21027356.469    21027371.452       -1474.211  
     -1148.848          45.000          45.000  
 118098203.505 7  92024659.450 7  22473341.716    22473361.842        3252.668  
      2534.484          45.000          44.000  
 127173282.246 6  99096142.459 7  24200272.867    24200290.654       -3023.855  
     -2356.359          39.000          44.000  
 24  1 10  3 13 35.1000000  0  6G24G10G18G23G32G15
 129754997.785 6 101107881.968 6  24691554.811    24691577.020         692.266  
       539.500          41.000          41.000  
 109161312.476 7  85060831.020 7  20772707.852    20772723.901         471.324  
       367.121          47.000          44.000  
 113829202.439 7  88698144.873 8  21660978.160    21660993.390       -1422.856  
     -1108.793          46.000          48.000  
 110499650.242 7  86103681.878 7  21027384.530    21027399.513       -1474.336  
     -1149.004          44.000          45.000  
 118097878.255 7  92024406.005 7  22473279.823    22473299.948        3252.535  
      2534.465          45.000          44.000  
 127173584.632 6  99096378.081 7  24200330.409    24200348.195       -3023.844  
     -2356.281          39.000          44.000  
 24  1 10  3 13 35.2000000  0  6G24G10G18G23G32G15
 129754928.580 6 101107828.015 6  24691541.658    24691564.094         692.125  
       539.309          40.000          41.000  
 109161265.376 7  85060794.320 7  20772699.092    20772715.118         471.156  
       367.020          47.000          44.000  
 113829344.776 7  88698255.786 8  21661005.371    21661020.273       -1423.016  
     -1108.914          46.000          48.000  
 110499797.711 7  86103796.760 7  21027412.459    21027427.615       -1474.633  
     -1149.055          44.000          45.000  
 118097553.046 7  92024152.605 7  22473218.172    22473238.167        3252.387  
      2534.059          45.000          44.000  
 127173887.056 6  99096613.757 7  24200388.138    24200405.726       -3024.074  
     -2356.590          39.000          44.000  
 24  1 10  3 13 35.3000000  0  6G24G10G18G23G32G15
 129754859.397 6 101107774.109 6  24691528.493    24691550.930         692.031  
       539.215          40.000          41.000  
 109161218.320 7  85060757.637 7  20772690.138    20772706.159         470.855  
       366.734          47.000          44.000  
 113829487.108 7  88698366.687 8  21661032.456    21661047.356       -1423.219  
     -1109.176          46.000          48.000  
 110499945.195 7  86103911.697 7  21027440.525    21027455.683       -1474.695  
     -1149.254          44.000          45.000  
 118097227.846 7  92023899.195 7  22473156.289    22473176.281        3252.105  
      2533.957          45.000          44.000  
 127174189.492 6  99096849.432 7  24200445.690    24200463.281       -3024.184  
     -2356.832          39.000          44.000  
 24  1 10  3 13 35.4000000  0  6G24G10G18G23G32G15
 129754790.225 6 101107720.242 6  24691515.330    24691538.080         691.863  
       538.637          40.000          41.000  
 109161171.260 7  85060720.981 7  20772681.440    20772697.106         470.629  
       366.512          47.000          44.000  
 113829629.450 7  88698477.626 8  21661059.574    21661074.292       -1423.465  
     -1109.336          46.000          48.000  
 110500092.718 7  86104026.657 7  21027468.738    21027483.836       -1474.930  
     -1149.531          45.000          45.000  
 118096902.676 7  92023645.811 7  22473094.513    22473114.574        3251.883  
      2533.934          45.000          44.000  
 127174491.956 6  99097085.106 7  24200503.411    24200520.999       -3024.473  
     -2356.875          39.000          44.000  
 24  1 10  3 13 35.5000000  0  6G24G10G18G23G32G15
 129754721.079 6 101107666.326 6  24691502.171    24691524.913         691.605  
       538.988          41.000          41.000  
 109161124.222 7  85060684.323 7  20772672.489    20772688.154         470.523  
       366.516          47.000          44.000  
 113829771.832 7  88698588.550 8  21661086.668    21661101.381       -1423.656  
     -1109.402          46.000          48.000  
 110500240.238 7  86104141.607 7  21027496.810    21027511.908       -1475.137  
     -1149.441          45.000          45.000  
 118096577.487 7  92023392.424 7  22473032.631    22473052.695        3251.824  
      2533.711          45.000          44.000  
 127174794.426 6  99097320.804 7  24200560.969    24200578.559       -3024.504  
     -2356.863          38.000          44.000  
 24  1 10  3 13 35.6000000  0  6G24G10G18G23G32G15
 129754651.914 6 101107612.427 6  24691488.986    24691511.407         691.727  
       539.004          41.000          41.000  
 109161077.161 7  85060647.646 7  20772663.526    20772679.455         470.469  
       366.641          47.000          44.000  
 113829914.199 7  88698699.493 8  21661113.580    21661128.748       -1423.559  
     -1109.227          46.000          48.000  
 110500387.732 7  86104256.539 7  21027525.268    21027539.780       -1475.055  
     -1149.457          44.000          45.000  
 118096252.326 7  92023139.067 7  22472970.888    22472990.299        3251.859  
      2533.879          45.000          44.000  
 127175096.883 6  99097556.476 7  24200618.220    24200636.229       -3024.562  
     -2356.750          38.000          44.000  
 24  1 10  3 13 35.7000000  0  6G24G10G18G23G32G15
 129754582.789 6 101107558.582 6  24691475.832    24691498.257         691.527  
       538.711          41.000          41.000  
 109161030.154 7  85060611.010 7  20772654.581    20772670.508         470.375  
       366.434          47.000          44.000  
 113830056.583 7  88698810.442 8  21661140.675    21661155.843       -1423.731  
     -1109.473          46.000          48.000  
 110500535.266 7  86104371.504 7  21027553.343    21027567.856       -1475.262  
     -1149.598          44.000          45.000  
 118095927.167 7  92022885.678 7  22472909.012    22472928.418        3251.586  
      2533.594          45.000          44.000  
 127175399.366 6  99097792.160 7  24200675.780    24200693.786       -3024.707  
     -2357.027          38.000          44.000  
 24  1 10  3 13 35.8000000  0  6G24G10G18G23G32G15
 129754513.663 6 101107504.712 6  24691462.850    24691484.805         691.316  
       538.473          41.000          41.000  
 109160983.160 7  85060574.402 7  20772645.490    20772661.826         470.195  
       366.289          47.000          44.000  
 113830199.004 7  88698921.414 8  21661168.027    21661183.068       -1423.945  
     -1109.695          46.000          48.000  
 110500682.834 7  86104486.477 7  21027581.635    21027596.160       -1475.445  
     -1149.785          44.000          45.000  
 118095602.018 7  92022632.329 7  22472846.810    22472866.900        3251.473  
      2533.418          45.000          44.000  
 127175701.910 6  99098027.889 7  24200733.329    24200751.166       -3025.199  
     -2357.137          38.000          44.000  
 24  1 10  3 13 35.9000000  0  6G24G10G18G23G32G15
 129754444.554 6 101107450.846 6  24691449.699    24691471.650         691.172  
       538.691          41.000          41.000  
 109160936.165 7  85060537.789 7  20772636.547    20772652.884         470.031  
       366.020          47.000          43.000  
 113830341.407 7  88699032.388 8  21661195.125    21661210.169       -1424.062  
     -1109.793          46.000          48.000  
 110500830.376 7  86104601.457 7  21027609.711    21027624.239       -1475.555  
     -1149.883          44.000          45.000  
 118095276.911 7  92022378.994 7  22472784.945    22472805.033        3251.328  
      2533.512          45.000          44.000  
 127176004.445 6  99098263.604 7  24200790.900    24200808.730       -3025.188  
     -2357.168          38.000          44.000  
 24  1 10  3 13 36.0000000  0  6G24G10G18G23G32G15
 129754375.498 6 101107397.041 6  24691436.816    24691458.823         690.875  
       538.289          41.000          41.000  
 109160889.190 7  85060501.180 7  20772627.639    20772644.319         469.867  
       366.102          47.000          44.000  
 113830483.846 7  88699143.371 8  21661222.051    21661237.171       -1424.211  
     -1109.840          46.000          48.000  
 110500977.987 7  86104716.463 7  21027637.590    21027652.606       -1475.609  
     -1149.856          44.000          45.000  
 118094951.805 7  92022125.660 7  22472723.329    22472742.908        3251.219  
      2533.254          45.000          44.000  
 127176306.913 6  99098499.346 7  24200848.504    24200866.597       -3024.988  
     -2357.426          39.000          44.000  
 24  1 10  3 13 36.1000000  0  6G24G10G18G23G32G15
 129754306.418 6 101107343.197 6  24691423.670    24691445.673         690.703  
       538.234          40.000          41.000  
 109160842.236 7  85060464.591 7  20772618.704    20772635.384         469.629  
       365.852          47.000          44.000  
 113830626.297 7  88699254.374 8  21661249.158    21661264.279       -1424.402  
     -1110.059          46.000          48.000  
 110501125.596 7  86104831.502 7  21027665.679    21027680.700       -1475.762  
     -1150.160          44.000          45.000  
 118094626.720 7  92021872.353 7  22472661.467    22472681.048        3250.930  
      2533.250          45.000          44.000  
 127176609.493 6  99098735.107 7  24200906.083    24200924.173       -3025.414  
     -2357.633          39.000          44.000  
 24  1 10  3 13 36.2000000  0  6G24G10G18G23G32G15
 129754237.378 6 101107289.427 6  24691410.532    24691432.573         690.598  
       538.203          40.000          41.000  
 109160795.279 7  85060427.991 7  20772609.675    20772626.258         469.645  
       365.906          47.000          43.000  
 113830768.758 7  88699365.383 8  21661276.416    21661291.537       -1424.516  
     -1110.062          46.000          48.000  
 110501273.153 7  86104946.471 7  21027693.375    21027708.573       -1476.043  
     -1150.090          44.000          45.000  
 118094301.645 7  92021619.035 7  22472599.600    22472619.138        3250.910  
      2533.023          45.000          44.000  
 127176912.028 6  99098970.863 7  24200963.443    24200981.739       -3025.418  
     -2357.547          38.000          44.000  
 24  1 10  3 13 36.3000000  0  6G24G10G18G23G32G15
 129754168.370 6 101107235.618 6  24691397.401    24691419.433         690.363  
       538.051          40.000          41.000  
 109160748.352 7  85060391.427 7  20772600.745    20772617.329         469.410  
       365.707          47.000          43.000  
 113830911.235 7  88699476.405 8  21661303.528    21661318.649       -1424.598  
     -1110.211          47.000          48.000  
 110501420.785 7  86105061.508 7  21027721.468    21027736.666       -1476.004  
     -1150.211          44.000          45.000  
 118093976.583 7  92021365.742 7  22472537.742    22472557.282        3250.723  
      2533.016          44.000          44.000  
 127177214.572 6  99099206.624 7  24201021.015    24201039.314       -3025.410  
     -2357.613          38.000          43.000  
 24  1 10  3 13 36.4000000  0  6G24G10G18G23G32G15
 129754099.324 6 101107181.844 6  24691384.137    24691406.590         690.441  
       537.758          40.000          41.000  
 109160701.432 7  85060354.886 7  20772591.637    20772608.233         469.367  
       365.664          47.000          44.000  
 113831053.717 7  88699587.418 8  21661330.447    21661345.541       -1424.820  
     -1110.207          47.000          48.000  
 110501568.407 7  86105176.541 7  21027749.443    21027764.532       -1476.156  
     -1150.305          44.000          45.000  
 118093651.524 7  92021112.451 7  22472475.964    22472495.644        3250.684  
      2532.852          44.000          44.000  
 127177517.160 6  99099442.412 7  24201078.783    24201096.263       -3025.629  
     -2357.738          37.000          43.000  
 24  1 10  3 13 36.5000000  0  6G24G10G18G23G32G15
 129754030.293 6 101107128.025 6  24691371.000    24691393.447         690.445  
       537.934          40.000          41.000  
 109160654.517 7  85060318.306 7  20772582.709    20772599.300         469.242  
       365.449          46.000          44.000  
 113831196.224 7  88699698.467 8  21661357.565    21661372.661       -1424.805  
     -1110.402          47.000          48.000  
 110501716.039 7  86105291.558 7  21027777.536    21027792.621       -1476.277  
     -1150.398          44.000          45.000  
 118093326.473 7  92020859.174 7  22472414.109    22472433.791        3250.543  
      2532.672          44.000          44.000  
 127177819.733 6  99099678.176 7  24201136.361    24201153.839       -3025.660  
     -2357.777          37.000          43.000  
 24  1 10  3 13 36.6000000  0  6G24G10G18G23G32G15
 129753961.320 6 101107074.322 6  24691357.657    24691380.269         690.121  
       537.523          40.000          41.000  
 109160607.650 7  85060281.803 7  20772574.033    20772590.370         468.918  
       365.223          46.000          44.000  
 113831338.733 7  88699809.522 8  21661384.441    21661399.649       -1425.176  
     -1110.727          47.000          48.000  
 110501863.717 7  86105406.653 7  21027805.912    21027820.798       -1476.574  
     -1150.742          44.000          45.000  
 118093001.472 7  92020605.908 7  22472352.091    22472371.574        3250.195  
      2532.465          44.000          44.000  
 127178122.378 6  99099913.981 7  24201193.585    24201211.394       -3026.199  
     -2357.969          38.000          43.000  
 24  1 10  3 13 36.7000000  0  6G24G10G18G23G32G15
 129753892.344 6 101107020.562 6  24691344.531    24691367.140         689.828  
       537.391          40.000          41.000  
 109160560.777 7  85060245.260 7  20772565.113    20772581.446         468.758  
       365.297          46.000          44.000  
 113831481.290 7  88699920.606 8  21661411.569    21661426.776       -1425.266  
     -1110.738          47.000          48.000  
 110502011.375 7  86105521.704 7  21027834.010    21027848.895       -1476.598  
     -1150.590          44.000          45.000  
 118092676.477 7  92020352.681 7  22472290.247    22472309.733        3250.090  
      2532.426          45.000          44.000  
 127178425.010 6  99100149.805 7  24201251.174    24201268.984       -3026.176  
     -2358.188          38.000          43.000  
 24  1 10  3 13 36.8000000  0  6G24G10G18G23G32G15
 129753823.387 6 101106966.820 6  24691331.510    24691354.211         689.641  
       537.191          40.000          41.000  
 109160513.917 7  85060208.768 7  20772556.266    20772572.354         468.719  
       365.004          46.000          44.000  
 113831623.841 7  88700031.683 8  21661438.766    21661454.613       -1425.398  
     -1110.750          46.000          48.000  
 110502159.078 7  86105636.807 7  21027862.352    21027877.200       -1476.742  
     -1150.844          44.000          45.000  
 118092351.491 7  92020099.453 7  22472228.420    22472248.197        3250.102  
      2532.164          45.000          44.000  
 127178727.604 6  99100385.610 7  24201308.428    24201326.891       -3026.078  
     -2358.156          38.000          44.000  
 24  1 10  3 13 36.9000000  0  6G24G10G18G23G32G15
 129753754.445 6 101106913.114 6  24691318.391    24691341.096         689.543  
       537.391          40.000          41.000  
 109160467.078 7  85060172.260 7  20772547.353    20772563.439         468.527  
       365.016          46.000          44.000  
 113831766.398 7  88700142.764 8  21661465.893    21661481.741       -1425.543  
     -1110.805          46.000          48.000  
 110502306.766 7  86105751.866 7  21027890.456    21027905.298       -1476.887  
     -1150.856          44.000          45.000  
 118092026.509 7  92019846.208 7  22472166.578    22472186.352        3249.828  
      2532.344          45.000          44.000  
 127179030.264 6  99100621.438 7  24201366.022    24201384.482       -3026.324  
     -2358.211          38.000          44.000  
 24  1 10  3 13 37.0000000  0  6G24G10G18G23G32G15
 129753685.529 6 101106859.415 6  24691305.082    24691328.107         689.355  
       537.055          40.000          41.000  
 109160420.240 7  85060135.767 7  20772538.385    20772554.511         468.363  
       364.855          46.000          44.000  
 113831908.980 7  88700253.854 8  21661493.049    21661508.549       -1425.680  
     -1110.918          46.000          48.000  
 110502454.476 7  86105866.983 7  21027918.580    21027933.309       -1476.926  
     -1150.938          44.000          45.000  
 118091701.550 7  92019592.994 7  22472104.787    22472124.647        3249.750  
      2532.082          45.000          44.000  
 127179332.929 6  99100857.269 7  24201423.789    24201441.879       -3026.547  
     -2358.316          38.000          44.000  
 24  1 10  3 13 37.1000000  0  6G24G10G18G23G32G15
 129753616.588 6 101106805.684 6  24691291.963    24691314.985         689.395  
       537.207          40.000          41.000  
 109160373.408 7  85060099.274 7  20772529.474    20772545.599         468.426  
       365.000          46.000          43.000  
 113832051.544 7  88700364.961 8  21661520.178    21661535.683       -1425.609  
     -1110.926          46.000          48.000  
 110502602.164 7  86105982.057 7  21027946.684    21027961.412       -1476.949  
     -1150.922          44.000          45.000  
 118091376.579 7  92019339.779 7  22472042.947    22472062.810        3249.691  
      2532.227          45.000          44.000  
 127179635.570 6  99101093.098 7  24201481.380    24201499.471       -3026.359  
     -2358.234          38.000          44.000  
 24  1 10  3 13 37.2000000  0  6G24G10G18G23G32G15
 129753547.666 6 101106751.999 6  24691278.925    24691301.242         689.281  
       536.902          39.000          41.000  
 109160326.608 7  85060062.790 7  20772520.638    20772536.510         468.215  
       364.758          46.000          43.000  
 113832194.135 7  88700476.067 8  21661547.266    21661562.855       -1425.832  
     -1111.145          46.000          48.000  
 110502749.887 7  86106097.176 7  21027974.732    21027989.493       -1477.113  
     -1151.168          44.000          45.000  
 118091051.635 7  92019086.576 7  22471981.018    22472000.694        3249.586  
      2531.980          45.000          44.000  
 127179938.204 6  99101328.933 7  24201538.735    24201557.221       -3026.496  
     -2358.504          38.000          44.000  
 24  1 10  3 13 37.3000000  0  6G24G10G18G23G32G15
 129753478.782 6 101106698.300 6  24691265.817    24691288.128         689.027  
       537.008          40.000          41.000  
 109160279.805 7  85060026.324 7  20772511.732    20772527.604         468.055  
       364.691          47.000          43.000  
 113832336.751 7  88700587.186 8  21661574.404    21661589.992       -1426.000  
     -1111.273          47.000          48.000  
 110502897.626 7  86106212.297 7  21028002.846    21028017.607       -1477.320  
     -1151.262          44.000          45.000  
 118090726.717 7  92018833.389 7  22471919.189    22471938.863        3249.391  
      2531.914          45.000          44.000  
 127180240.923 6  99101564.797 7  24201596.340    24201614.821       -3026.859  
     -2358.594          38.000          44.000  
 24  1 10  3 13 37.4000000  0  6G24G10G18G23G32G15
 129753409.907 6 101106644.633 6  24691252.804    24691274.624         688.918  
       536.602          40.000          41.000  
 109160233.044 7  85059989.907 7  20772502.670    20772518.773         467.789  
       364.383          47.000          43.000  
 113832479.388 7  88700698.347 8  21661601.516    21661617.060       -1426.141  
     -1111.461          47.000          48.000  
 110503045.388 7  86106327.425 7  21028030.800    21028045.668       -1477.555  
     -1151.496          44.000          45.000  
 118090401.811 7  92018580.203 7  22471857.478    22471877.415        3249.121  
      2531.609          45.000          44.000  
 127180543.646 6  99101800.690 7  24201653.657    24201672.475       -3026.969  
     -2358.992          38.000          44.000  
 24  1 10  3 13 37.5000000  0  6G24G10G18G23G32G15
 129753341.022 6 101106590.995 6  24691239.696    24691261.525         688.855  
       536.660          40.000          41.000  
 109160186.274 7  85059953.444 7  20772493.769    20772509.869         467.770  
       364.309          47.000          43.000  
 113832622.026 7  88700809.491 8  21661628.659    21661644.203       -1426.352  
     -1111.516          47.000          48.000  
 110503193.165 7  86106442.580 7  21028058.921    21028073.790       -1477.641  
     -1151.395          45.000          45.000  
 118090076.906 7  92018327.049 7  22471795.651    22471815.592        3249.094  
      2531.625          45.000          44.000  
 127180846.362 6  99102036.567 7  24201711.262    24201730.079       -3027.148  
     -2358.820          38.000          44.000  
 24  1 10  3 13 37.6000000  0  6G24G10G18G23G32G15
 129753272.160 6 101106537.294 6  24691226.787    24691248.450         688.684  
       536.633          41.000          41.000  
 109160139.536 7  85059917.023 7  20772484.860    20772500.826         467.555  
       364.281          47.000          43.000  
 113832764.688 7  88700920.642 8  21661655.893    21661671.323       -1426.445  
     -1111.441          47.000          48.000  
 110503340.936 7  86106557.730 7  21028087.189    21028102.192       -1477.602  
     -1151.676          44.000          45.000  
 118089752.013 7  92018073.871 7  22471733.591    22471753.537        3248.980  
      2531.535          45.000          44.000  
 127181149.081 6  99102272.460 7  24201768.797    24201787.265       -3027.160  
     -2358.910          38.000          44.000  
 24  1 10  3 13 37.7000000  0  6G24G10G18G23G32G15
 129753203.326 6 101106483.665 6  24691213.689    24691235.353         688.602  
       536.371          41.000          41.000  
 109160092.802 7  85059880.610 7  20772475.967    20772491.934         467.461  
       364.082          47.000          43.000  
 113832907.364 7  88701031.829 8  21661683.043    21661698.477       -1426.586  
     -1111.793          47.000          48.000  
 110503488.721 7  86106672.886 7  21028115.312    21028130.314       -1477.801  
     -1151.582          45.000          45.000  
 118089427.166 7  92017820.753 7  22471671.775    22471691.723        3248.699  
      2531.320          45.000          44.000  
 127181451.810 6  99102508.354 7  24201826.405    24201844.872       -3027.262  
     -2359.125          37.000          44.000  
 24  1 10  3 13 37.8000000  0  6G24G10G18G23G32G15
 129753134.512 6 101106430.050 6  24691200.711    24691222.486         688.359  
       536.320          41.000          41.000  
 109160046.080 7  85059844.211 7  20772467.052    20772483.217         467.355  
       364.148          47.000          43.000  
 113833050.031 7  88701142.999 8  21661710.262    21661725.688       -1426.637  
     -1111.734          47.000          48.000  
 110503636.537 7  86106788.076 7  21028143.581    21028158.296       -1477.953  
     -1151.848          45.000          45.000  
 118089102.308 7  92017567.622 7  22471609.918    22471629.882        3248.719  
      2531.371          45.000          44.000  
 127181754.571 6  99102744.268 7  24201883.893    24201902.789       -3027.332  
     -2359.027          37.000          44.000  
 24  1 10  3 13 37.9000000  0  6G24G10G18G23G32G15
 129753065.704 6 101106376.433 6  24691187.617    24691209.392         688.141  
       536.078          40.000          41.000  
 109159999.379 7  85059807.819 7  20772458.165    20772474.329         467.090  
       363.945          47.000          43.000  
 113833192.734 7  88701254.196 8  21661737.418    21661752.843       -1426.895  
     -1111.984          47.000          48.000  
 110503784.362 7  86106903.265 7  21028171.711    21028186.427       -1478.062  
     -1151.801          44.000          45.000  
 118088777.468 7  92017314.502 7  22471548.103    22471568.068        3248.531  
      2531.180          45.000          44.000  
 127182057.325 6  99102980.188 7  24201941.506    24201960.404       -3027.484  
     -2359.250          37.000          44.000  
 24  1 10  3 13 38.0000000  0  6G24G10G18G23G32G15
 129752996.891 6 101106322.803 6  24691174.249    24691196.795         688.090  
       536.289          40.000          41.000  
 109159952.669 7  85059771.405 7  20772449.199    20772465.296         467.133  
       363.789          47.000          43.000  
 113833335.420 7  88701365.375 8  21661764.226    21661779.807       -1426.875  
     -1111.828          47.000          48.000  
 110503932.164 7  86107018.423 7  21028199.602    21028214.581       -1478.106  
     -1151.867          45.000          45.000  
 118088452.609 7  92017061.370 7  22471486.440    22471506.383        3248.477  
      2531.199          45.000          44.000  
 127182360.102 6  99103216.105 7  24201999.192    24202017.955       -3027.512  
     -2359.219          37.000          44.000  
 24  1 10  3 13 38.1000000  0  6G24G10G18G23G32G15
 129752928.098 6 101106269.203 6  24691161.158    24691183.706         688.121  
       536.094          40.000          41.000  
 109159905.984 7  85059735.034 7  20772440.315    20772456.414         466.934  
       363.730          47.000          43.000  
 113833478.139 7  88701476.585 8  21661791.385    21661806.965       -1427.020  
     -1112.008          47.000          48.000  
 110504080.022 7  86107133.658 7  21028227.739    21028242.722       -1478.273  
     -1152.000          45.000          45.000  
 118088127.812 7  92016808.262 7  22471424.633    22471444.572        3248.230  
      2531.047          44.000          44.000  
 127182662.889 6  99103452.037 7  24202056.811    24202075.572       -3027.727  
     -2359.293          37.000          44.000  
 24  1 10  3 13 38.2000000  0  6G24G10G18G23G32G15
 129752859.330 6 101106215.636 6  24691148.025    24691170.108         687.832  
       535.801          40.000          40.000  
 109159859.302 7  85059698.658 7  20772431.650    20772447.468         466.859  
       363.789          47.000          43.000  
 113833620.873 7  88701587.812 8  21661818.530    21661834.433       -1427.246  
     -1112.211          47.000          48.000  
 110504227.868 7  86107248.843 7  21028255.748    21028270.469       -1478.414  
     -1152.184          45.000          45.000  
 118087802.973 7  92016555.151 7  22471362.928    22471383.197        3248.176  
      2530.977          44.000          44.000  
 127182965.684 6  99103687.984 7  24202114.454    24202133.700       -3027.902  
     -2359.469          37.000          44.000  
 24  1 10  3 13 38.3000000  0  6G24G10G18G23G32G15
 129752790.530 6 101106162.041 6  24691134.933    24691157.020         687.930  
       535.816          40.000          40.000  
 109159812.643 7  85059662.317 7  20772422.771    20772438.593         466.762  
       363.633          47.000          43.000  
 113833763.589 7  88701699.013 8  21661845.688    21661861.589       -1427.242  
     -1112.199          47.000          48.000  
 110504375.682 7  86107364.044 7  21028283.876    21028298.602       -1478.367  
     -1152.129          44.000          45.000  
 118087478.171 7  92016302.063 7  22471301.120    22471321.390        3248.164  
      2530.988          44.000          44.000  
 127183268.478 6  99103923.932 7  24202172.074    24202191.321       -3027.883  
     -2359.426          37.000          44.000  
 24  1 10  3 13 38.4000000  0  6G24G10G18G23G32G15
 129752721.822 6 101106108.488 6  24691121.804    24691143.317         687.461  
       535.309          40.000          40.000  
 109159766.024 7  85059625.972 7  20772413.900    20772429.639         466.422  
       363.219          47.000          43.000  
 113833906.367 7  88701810.262 8  21661873.085    21661888.625       -1427.500  
     -1112.461          47.000          48.000  
 110504523.591 7  86107479.286 7  21028312.272    21028326.722       -1478.688  
     -1152.324          44.000          45.000  
 118087153.450 7  92016049.030 7  22471239.406    22471259.230        3247.762  
      2530.453          44.000          44.000  
 127183571.289 6  99104159.904 7  24202229.658    24202249.002       -3027.988  
     -2359.723          37.000          44.000  
 24  1 10  3 13 38.5000000  0  6G24G10G18G23G32G15
 129752653.107 6 101106054.958 6  24691108.728    24691130.244         687.258  
       535.379          39.000          40.000  
 109159719.385 7  85059589.647 7  20772405.025    20772420.768         466.371  
       363.258          47.000          43.000  
 113834049.134 7  88701921.530 8  21661900.252    21661915.797       -1427.606  
     -1112.672          47.000          48.000  
 110504671.500 7  86107594.533 7  21028340.418    21028354.867       -1478.856  
     -1152.375          44.000          45.000  
 118086828.678 7  92015795.970 7  22471177.604    22471197.430        3247.699  
      2530.562          44.000          44.000  
 127183874.148 6  99104395.873 7  24202287.290    24202306.628       -3028.246  
     -2359.715          37.000          44.000  
 24  1 10  3 13 38.6000000  0  6G24G10G18G23G32G15
 129752584.411 6 101106001.439 6  24691095.608    24691116.995         687.148  
       535.160          39.000          40.000  
 109159672.793 7  85059553.329 7  20772396.190    20772411.618         466.176  
       363.121          47.000          43.000  
 113834191.943 7  88702032.800 8  21661927.803    21661942.939       -1427.859  
     -1112.695          47.000          48.000  
 110504819.393 7  86107709.786 7  21028368.569    21028382.934       -1478.981  
     -1152.570          44.000          45.000  
 118086503.925 7  92015542.918 7  22471115.595    22471135.609        3247.629  
      2530.309          44.000          44.000  
 127184176.970 6  99104631.857 7  24202344.978    24202363.899       -3028.340  
     -2359.832          37.000          44.000  
 24  1 10  3 13 38.7000000  0  6G24G10G18G23G32G15
 129752515.724 6 101105947.914 6  24691082.538    24691103.923         687.086  
       535.246          39.000          40.000  
 109159626.192 7  85059517.018 7  20772387.322    20772402.750         466.027  
       363.125          47.000          43.000  
 113834334.761 7  88702144.073 8  21661954.980    21661970.113       -1428.004  
     -1112.828          47.000          48.000  
 110504967.300 7  86107825.042 7  21028396.715    21028411.081       -1479.043  
     -1152.606          45.000          45.000  
 118086179.188 7  92015289.883 7  22471053.799    22471073.815        3247.375  
      2530.371          44.000          44.000  
 127184479.824 6  99104867.867 7  24202402.609    24202421.535       -3028.391  
     -2360.031          38.000          44.000  
 24  1 10  3 13 38.8000000  0  6G24G10G18G23G32G15
 129752447.070 6 101105894.394 6  24691069.551    24691090.470         686.832  
       535.086          39.000          40.000  
 109159579.629 7  85059480.732 7  20772378.290    20772393.920         465.812  
       362.793          47.000          43.000  
 113834477.586 7  88702255.381 8  21661981.964    21661997.280       -1428.133  
     -1112.914          47.000          48.000  
 110505115.233 7  86107940.305 7  21028424.975    21028439.378       -1479.281  
     -1152.856          45.000          45.000  
 118085854.494 7  92015036.840 7  22470991.754    22471011.887        3247.156  
      2530.074          44.000          44.000  
 127184782.734 6  99105103.879 7  24202460.290    24202479.234       -3028.781  
     -2360.027          38.000          44.000  
 24  1 10  3 13 38.9000000  0  6G24G10G18G23G32G15
 129752378.409 6 101105840.894 6  24691056.486    24691077.405         686.566  
       534.957          39.000          40.000  
 109159533.068 7  85059444.466 7  20772369.429    20772385.063         465.793  
       362.883          47.000          42.000  
 113834620.421 7  88702366.687 8  21662009.144    21662024.462       -1428.266  
     -1113.145          47.000          48.000  
 110505263.224 7  86108055.627 7  21028453.137    21028467.541       -1479.426  
     -1152.770          45.000          45.000  
 118085529.775 7  92014783.853 7  22470929.962    22470950.104        3247.160  
      2530.137          44.000          44.000  
 127185085.632 6  99105339.896 7  24202517.929    24202536.871       -3028.840  
     -2360.207          38.000          44.000  
