     2.11           OBSERVATION DATA    M (MIXED)           RINEX VERSION / TYPE
GPP.DLL V3.2.21                         18 - MAR - 24 07:42 PGM / RUN BY / DATE 
                                                            MARKER NAME         
                                                            MARKER NUMBER       
                                                            OBSERVER / AGENCY   
6028C00128          APX-15v3 AV         5.50                REC # / TYPE / VERS 
                    E                                       ANT # / TYPE        
 -4667987.4602  2554595.1722 -3504680.0033                  APPROX POSITION XYZ 
        0.0000       -0.0000       -0.0000                  ANTENNA: DELTA H/E/N
     1     1                                                WAVELENGTH FACT L1/2
     9    L1    L2    C1    P2    C2    D1    D2    S1    S2# / TYPES OF OBSERV 
     0.100                                                  INTERVAL            
  2024     1    10     3    20    0.0000000     GPS         TIME OF FIRST OBS   
  2024     1    10     3    20   59.9000000     GPS         TIME OF LAST OBS    
    18                                                      LEAP SECONDS        
     8                                                      # OF SATELLITES     
   G08   564   564   564     0   564   564   564   564   564PRN / # OF OBS      
   G10   600   600   600     0   600   600   600   600   600PRN / # OF OBS      
   G15   600   600   600     0   600   600   600   600   600PRN / # OF OBS      
   G16   488     6   488     6     0   488     6   488     6PRN / # OF OBS      
   G18   600   600   600     0   600   600   600   600   600PRN / # OF OBS      
   G23   600   600   600     0   600   600   600   600   600PRN / # OF OBS      
   G24   600   600   600     0   600   600   600   600   600PRN / # OF OBS      
   G32   600   600   600     0   600   600   600   600   600PRN / # OF OBS      
                                                            END OF HEADER       
 24  1 10  3 20  0.0000000  0  7G08G24G18G23G10G32G15
 128788541.093 6 100354789.755 7  24507656.936                    24507678.101  
      2796.578        2179.113          39.000          42.000  
 128011379.935 6  99749219.370 6  24359754.304                    24359776.589  
       263.969         205.871          40.000          41.000  
 112893703.240 7  87969183.674 7  21482959.269                    21482974.581  
     -1816.727       -1416.242          45.000          44.000  
 109575098.361 7  85383251.251 7  20851449.274                    20851463.417  
     -1833.344       -1428.406          44.000          42.000  
 107498539.575 7  83765163.724 7  20456292.611                    20456308.823  
        57.246          44.773          44.000          43.000  
 115364667.759 6  89894633.354 6  21953165.769                    21953185.722  
      2855.402        2225.039          41.000          41.000  
 126843545.686 7  98839201.959 6  24137528.023                    24137545.332  
     -3372.320       -2627.734          43.000          40.000  
 24  1 10  3 20  0.1000000  0  7G08G24G18G23G10G32G15
 128788261.363 6 100354571.772 7  24507603.706                    24507624.867  
      2797.273        2179.723          39.000          42.000  
 128011353.493 6  99749198.783 6  24359749.272                    24359771.561  
       264.289         205.887          40.000          41.000  
 112893885.024 7  87969325.370 7  21482993.862                    21483009.184  
     -1817.703       -1416.645          45.000          44.000  
 109575281.679 7  85383394.054 7  20851484.158                    20851498.291  
     -1833.219       -1428.086          44.000          42.000  
 107498533.811 7  83765159.199 7  20456291.515                    20456307.718  
        57.477          44.766          44.000          43.000  
 115364382.353 6  89894410.968 6  21953111.458                    21953131.413  
      2854.266        2224.277          41.000          41.000  
 126843882.851 7  98839464.612 6  24137592.183                    24137609.474  
     -3371.863       -2627.207          43.000          40.000  
 24  1 10  3 20  0.2000000  0  7G08G24G18G23G10G32G15
 128787981.527 6 100354353.714 7  24507550.447                    24507571.959  
      2799.270        2180.531          39.000          42.000  
 128011327.129 6  99749178.226 6  24359744.638                    24359766.424  
       264.066         205.746          39.000          41.000  
 112894066.807 7  87969466.994 7  21483029.258                    21483043.411  
     -1818.277       -1416.543          45.000          44.000  
 109575464.909 7  85383536.850 7  20851519.057                    20851533.413  
     -1831.762       -1428.082          44.000          42.000  
 107498528.009 7  83765154.709 7  20456290.106                    20456306.567  
        58.289          45.285          44.000          43.000  
 115364096.913 6  89894188.523 6  21953056.875                    21953077.176  
      2854.137        2223.992          41.000          41.000  
 126844219.971 7  98839727.302 6  24137656.359                    24137674.188  
     -3371.008       -2626.789          43.000          40.000  
 24  1 10  3 20  0.3000000  0  7G08G24G18G23G10G32G15
 128787701.548 6 100354135.544 7  24507497.168                    24507518.680  
      2800.047        2181.656          39.000          42.000  
 128011300.663 6  99749157.638 6  24359739.602                    24359761.396  
       264.656         205.871          39.000          41.000  
 112894248.655 7  87969608.625 7  21483063.863                    21483077.999  
     -1818.645       -1416.289          44.000          44.000  
 109575648.107 7  85383679.562 7  20851553.918                    20851568.265  
     -1831.648       -1427.207          44.000          42.000  
 107498522.107 7  83765150.119 7  20456288.983                    20456305.446  
        59.234          45.949          44.000          43.000  
 115363811.547 6  89893966.184 6  21953002.571                    21953022.878  
      2853.445        2223.805          41.000          41.000  
 126844557.057 7  98839989.934 6  24137720.504                    24137738.326  
     -3370.707       -2626.109          43.000          39.000  
 24  1 10  3 20  0.4000000  0  7G08G24G18G23G10G32G15
 128787421.524 6 100353917.356 6  24507444.163                    24507465.724  
      2800.625        2181.840          39.000          41.000  
 128011274.271 6  99749137.086 6  24359734.509                    24359756.846  
       263.363         205.469          40.000          41.000  
 112894430.457 7  87969750.263 7  21483097.224                    21483112.612  
     -1817.766       -1416.707          43.000          44.000  
 109575831.247 7  85383822.280 7  20851588.917                    20851602.548  
     -1831.062       -1427.117          44.000          42.000  
 107498516.229 7  83765145.513 7  20456288.263                    20456304.407  
        58.762          45.922          43.000          43.000  
 115363526.223 6  89893743.849 6  21952948.518                    21952968.621  
      2853.031        2223.102          41.000          41.000  
 126844894.072 7  98840252.582 6  24137784.495                    24137802.444  
     -3370.141       -2626.379          43.000          39.000  
 24  1 10  3 20  0.5000000  0  7G08G24G18G23G10G32G15
 128787141.415 6 100353699.088 7  24507390.860                    24507412.421  
      2801.211        2182.645          39.000          42.000  
 128011247.954 6  99749116.529 7  24359729.501                    24359751.825  
       263.352         205.699          41.000          42.000  
 112894612.225 7  87969891.965 7  21483131.814                    21483147.217  
     -1817.535       -1416.637          45.000          44.000  
 109576014.326 7  85383964.916 7  20851623.756                    20851637.381  
     -1830.359       -1426.375          44.000          42.000  
 107498510.240 7  83765140.865 7  20456287.123                    20456303.272  
        60.180          46.516          43.000          44.000  
 115363240.953 7  89893521.592 6  21952894.233                    21952914.343  
      2852.434        2222.688          42.000          41.000  
 126845231.067 7  98840515.162 6  24137848.623                    24137866.568  
     -3369.781       -2625.840          43.000          39.000  
 24  1 10  3 20  0.6000000  0  7G08G24G18G23G10G32G15
 128786861.237 6 100353480.753 6  24507337.380                    24507359.320  
      2802.098        2183.219          39.000          41.000  
 128011221.518 6  99749095.960 7  24359724.549                    24359747.646  
       264.031         205.543          41.000          43.000  
 112894794.028 7  87970033.613 7  21483167.909                    21483182.082  
     -1818.004       -1416.488          45.000          44.000  
 109576197.359 7  85384107.540 7  20851658.297                    20851672.102  
     -1830.082       -1426.074          44.000          42.000  
 107498504.163 7  83765136.127 7  20456286.279                    20456302.201  
        60.973          47.250          43.000          43.000  
 115362955.716 7  89893299.291 6  21952839.985                    21952859.907  
      2852.254        2222.781          42.000          41.000  
 126845568.021 7  98840777.755 6  24137912.954                    24137930.829  
     -3369.824       -2625.895          43.000          39.000  
 24  1 10  3 20  0.7000000  0  7G08G24G18G23G10G32G15
 128786581.007 6 100353262.398 6  24507284.054                    24507305.995  
      2802.188        2183.605          39.000          41.000  
 128011195.182 6  99749075.468 7  24359719.537                    24359742.642  
       263.512         205.250          41.000          43.000  
 112894975.766 7  87970175.247 7  21483202.493                    21483216.670  
     -1817.090       -1416.426          45.000          44.000  
 109576380.317 7  85384250.136 7  20851693.112                    20851706.925  
     -1829.723       -1425.664          44.000          42.000  
 107498498.098 7  83765131.393 7  20456285.125                    20456301.045  
        60.949          47.422          43.000          43.000  
 115362670.495 7  89893077.061 6  21952785.710                    21952805.636  
      2852.141        2222.363          42.000          41.000  
 126845904.913 7  98841040.236 6  24137977.063                    24137994.930  
     -3368.836       -2625.367          43.000          39.000  
 24  1 10  3 20  0.8000000  0  7G08G24G18G23G10G32G15
 128786300.772 6 100353044.009 6  24507230.993                    24507252.756  
      2802.273        2183.840          39.000          41.000  
 128011168.838 6  99749054.937 7  24359714.860                    24359738.128  
       263.574         205.500          41.000          43.000  
 112895157.521 7  87970316.912 7  21483236.283                    21483250.978  
     -1817.371       -1416.531          44.000          44.000  
 109576563.268 7  85384392.642 7  20851727.911                    20851741.516  
     -1829.578       -1425.602          44.000          42.000  
 107498492.004 7  83765126.675 7  20456284.286                    20456300.260  
        60.996          47.348          43.000          43.000  
 115362385.291 7  89892854.847 6  21952731.437                    21952751.478  
      2851.621        2222.055          43.000          41.000  
 126846241.826 7  98841302.776 6  24138041.011                    24138059.076  
     -3368.902       -2625.188          43.000          39.000  
 24  1 10  3 20  0.9000000  0  7G08G24G18G23G10G32G15
 128786020.480 6 100352825.609 6  24507177.655                    24507199.421  
      2802.793        2183.992          39.000          41.000  
 128011142.406 6  99749034.313 7  24359709.830                    24359733.091  
       264.328         205.371          41.000          43.000  
 112895339.372 7  87970458.579 7  21483270.888                    21483285.574  
     -1818.734       -1416.324          44.000          44.000  
 109576746.140 7  85384535.197 7  20851762.711                    20851776.329  
     -1828.492       -1425.328          45.000          42.000  
 107498485.886 7  83765121.876 7  20456283.121                    20456299.088  
        61.160          47.766          43.000          43.000  
 115362100.121 7  89892632.618 6  21952677.171                    21952697.208  
      2851.648        2222.211          43.000          41.000  
 126846578.683 7  98841565.282 6  24138105.113                    24138123.182  
     -3368.566       -2625.016          42.000          39.000  
 24  1 10  3 20  1.0000000  0  7G08G24G18G23G10G32G15
 128785740.203 6 100352607.203 6  24507124.249                    24507145.592  
      2802.730        2183.945          39.000          41.000  
 128011116.044 6  99749013.843 7  24359705.259                    24359728.108  
       263.805         205.266          41.000          43.000  
 112895521.089 7  87970600.126 7  21483305.913                    21483319.962  
     -1817.633       -1416.312          45.000          44.000  
 109576929.053 7  85384677.726 7  20851797.979                    20851811.722  
     -1828.938       -1425.238          44.000          42.000  
 107498479.782 7  83765117.110 7  20456282.100                    20456298.236  
        61.145          47.711          43.000          43.000  
 115361814.988 7  89892410.432 6  21952623.311                    21952642.565  
      2851.371        2221.859          43.000          41.000  
 126846915.524 7  98841827.772 6  24138169.071                    24138187.582  
     -3368.410       -2624.980          42.000          39.000  
 24  1 10  3 20  1.1000000  0  7G08G24G18G23G10G32G15
 128785459.952 6 100352388.793 6  24507070.920                    24507092.254  
      2802.754        2184.160          39.000          41.000  
 128011089.641 6  99748993.220 7  24359700.235                    24359723.072  
       264.055         206.230          41.000          43.000  
 112895702.829 7  87970741.785 7  21483340.497                    21483354.556  
     -1817.348       -1416.293          45.000          45.000  
 109577111.949 7  85384820.235 7  20851832.783                    20851846.524  
     -1828.898       -1425.102          44.000          42.000  
 107498473.665 7  83765112.348 7  20456280.936                    20456297.073  
        61.117          47.727          42.000          43.000  
 115361529.871 7  89892188.277 7  21952569.055                    21952588.312  
      2851.426        2221.883          44.000          42.000  
 126847252.346 7  98842090.209 6  24138233.166                    24138251.672  
     -3368.250       -2624.531          43.000          39.000  
 24  1 10  3 20  1.2000000  0  7G08G24G18G23G10G32G15
 128785179.664 6 100352170.422 6  24507017.614                    24507039.097  
      2802.680        2183.785          39.000          41.000  
 128011063.271 6  99748972.657 7  24359695.279                    24359717.190  
       263.867         205.520          40.000          42.000  
 112895884.649 7  87970883.476 7  21483375.018                    21483389.448  
     -1817.867       -1416.348          44.000          45.000  
 109577294.878 7  85384962.746 7  20851866.726                    20851881.655  
     -1829.113       -1425.164          44.000          42.000  
 107498467.532 7  83765107.590 7  20456279.754                    20456295.865  
        61.203          47.336          42.000          43.000  
 115361244.751 7  89891966.092 7  21952514.689                    21952533.818  
      2851.238        2221.438          44.000          42.000  
 126847589.167 7  98842352.641 6  24138297.839                    24138315.534  
     -3368.254       -2624.270          43.000          39.000  
 24  1 10  3 20  1.3000000  0  7G08G24G18G23G10G32G15
 128784899.404 6 100351952.027 6  24506964.282                    24506985.763  
      2802.633        2183.859          39.000          41.000  
 128011036.911 6  99748952.142 7  24359690.263                    24359712.181  
       263.742         205.410          40.000          42.000  
 112896066.386 7  87971025.064 7  21483409.601                    21483424.025  
     -1817.625       -1416.555          43.000          45.000  
 109577477.776 7  85385105.297 7  20851901.530                    20851916.468  
     -1829.125       -1425.461          44.000          42.000  
 107498461.443 7  83765102.839 7  20456278.595                    20456294.704  
        60.938          47.461          42.000          43.000  
 115360959.687 7  89891743.964 7  21952460.443                    21952479.572  
      2850.891        2221.238          44.000          42.000  
 126847926.008 7  98842615.130 6  24138361.938                    24138379.636  
     -3368.402       -2624.719          43.000          39.000  
 24  1 10  3 20  1.4000000  0  7G08G24G18G23G10G32G15
 128784619.139 6 100351733.647 6  24506911.082                    24506932.385  
      2802.703        2183.969          39.000          41.000  
 128011010.513 6  99748931.540 7  24359685.240                    24359706.110  
       263.832         205.789          40.000          42.000  
 112896248.176 7  87971166.785 7  21483443.304                    21483459.041  
     -1817.613       -1416.578          43.000          45.000  
 109577660.643 7  85385247.796 7  20851936.368                    20851951.400  
     -1828.801       -1424.859          44.000          42.000  
 107498455.389 7  83765098.117 7  20456277.099                    20456293.567  
        60.773          47.312          42.000          43.000  
 115360674.631 7  89891521.859 7  21952406.566                    21952425.566  
      2850.793        2221.250          44.000          42.000  
 126848262.804 7  98842877.590 6  24138426.090                    24138443.466  
     -3368.192       -2624.578          43.000          39.000  
 24  1 10  3 20  1.5000000  0  7G08G24G18G23G10G32G15
 128784338.874 6 100351515.241 6  24506857.749                    24506879.048  
      2802.691        2183.969          39.000          41.000  
 128010984.155 6  99748911.013 7  24359680.224                    24359701.097  
       263.625         205.250          40.000          42.000  
 112896430.014 7  87971308.431 7  21483477.907                    21483493.632  
     -1818.195       -1416.828          43.000          45.000  
 109577843.589 7  85385390.339 7  20851971.181                    20851986.210  
     -1829.301       -1425.637          44.000          42.000  
 107498449.343 7  83765093.399 7  20456275.949                    20456292.415  
        60.578          47.023          42.000          43.000  
 115360389.592 7  89891299.743 7  21952352.325                    21952371.323  
      2850.520        2220.969          44.000          42.000  
 126848599.666 7  98843140.055 6  24138490.193                    24138507.563  
     -3368.422       -2624.602          42.000          39.000  
 24  1 10  3 20  1.6000000  0  7G08G24G18G23G10G32G15
 128784058.630 6 100351296.877 6  24506804.100                    24506825.972  
      2802.508        2183.602          39.000          41.000  
 128010957.826 6  99748890.534 7  24359675.018                    24359696.034  
       263.312         205.016          40.000          42.000  
 112896611.910 7  87971450.159 7  21483512.732                    21483528.353  
     -1818.980       -1417.387          44.000          45.000  
 109578026.570 7  85385532.922 7  20852006.275                    20852020.601  
     -1830.074       -1425.941          44.000          42.000  
 107498443.356 7  83765088.758 7  20456274.559                    20456290.695  
        60.000          46.574          42.000          43.000  
 115360104.630 7  89891077.693 7  21952297.942                    21952316.909  
      2849.605        2220.527          44.000          42.000  
 126848936.504 7  98843402.556 6  24138553.705                    24138571.825  
     -3368.398       -2625.055          42.000          39.000  
 24  1 10  3 20  1.7000000  0  7G08G24G18G23G10G32G15
 128783778.359 6 100351078.513 6  24506750.767                    24506772.645  
      2802.770        2183.742          39.000          41.000  
 128010931.518 6  99748869.999 7  24359670.012                    24359691.019  
       263.062         205.230          40.000          42.000  
 112896793.826 7  87971591.898 7  21483547.349                    21483562.967  
     -1819.141       -1417.297          45.000          45.000  
 109578209.573 7  85385675.527 7  20852041.099                    20852055.427  
     -1830.156       -1426.094          44.000          42.000  
 107498437.355 7  83765084.091 7  20456273.417                    20456289.556  
        59.879          46.598          42.000          43.000  
 115359819.698 7  89890855.657 7  21952243.721                    21952262.686  
      2849.195        2220.188          44.000          42.000  
 126849273.350 6  98843665.040 6  24138617.805                    24138635.926  
     -3368.332       -2624.855          41.000          39.000  
 24  1 10  3 20  1.8000000  0  7G08G24G18G23G10G32G15
 128783498.025 6 100350860.051 6  24506697.476                    24506719.185  
      2803.199        2184.496          39.000          41.000  
 128010905.205 6  99748849.512 7  24359664.989                    24359686.531  
       263.273         204.949          40.000          42.000  
 112896975.712 7  87971733.615 7  21483582.656                    21483596.935  
     -1818.672       -1417.477          44.000          45.000  
 109578392.541 7  85385818.088 7  20852075.877                    20852090.499  
     -1829.828       -1425.727          44.000          42.000  
 107498431.342 7  83765079.409 7  20456271.961                    20456288.420  
        60.156          46.980          42.000          43.000  
 115359534.812 7  89890633.678 7  21952189.205                    21952208.648  
      2849.176        2220.215          43.000          42.000  
 126849610.178 6  98843927.495 6  24138681.159                    24138699.903  
     -3368.250       -2624.496          41.000          38.000  
 24  1 10  3 20  1.9000000  0  7G08G24G18G23G10G32G15
 128783217.648 6 100350641.584 6  24506644.122                    24506665.833  
      2803.719        2184.699          39.000          41.000  
 128010878.956 6  99748829.038 7  24359659.994                    24359681.531  
       262.566         204.660          41.000          42.000  
 112897157.701 7  87971875.474 7  21483617.288                    21483631.579  
     -1819.695       -1418.059          44.000          44.000  
 109578575.520 7  85385960.694 7  20852110.697                    20852125.325  
     -1829.660       -1425.645          44.000          42.000  
 107498425.365 7  83765074.747 7  20456270.823                    20456287.282  
        59.754          46.641          42.000          43.000  
 115359249.933 7  89890411.689 7  21952134.994                    21952154.436  
      2848.648        2219.543          43.000          42.000  
 126849946.982 6  98844189.923 6  24138745.251                    24138763.990  
     -3368.129       -2624.547          41.000          38.000  
 24  1 10  3 20  2.0000000  0  7G08G24G18G23G10G32G15
 128782937.229 6 100350423.090 6  24506590.697                    24506612.279  
      2803.824        2184.871          40.000          41.000  
 128010852.704 6  99748808.564 7  24359655.343                    24359676.461  
       262.605         204.805          41.000          42.000  
 112897339.685 7  87972017.217 7  21483651.262                    21483665.936  
     -1819.844       -1417.867          43.000          44.000  
 109578758.443 7  85386103.203 7  20852145.413                    20852160.198  
     -1829.488       -1425.676          44.000          42.000  
 107498419.319 7  83765069.998 7  20456269.454                    20456286.208  
        60.164          47.008          43.000          43.000  
 115358965.124 7  89890189.758 7  21952080.679                    21952100.308  
      2848.445        2219.461          43.000          42.000  
 126850283.746 7  98844452.369 6  24138809.249                    24138827.692  
     -3368.000       -2624.621          42.000          38.000  
 24  1 10  3 20  2.1000000  0  7G08G24G18G23G10G32G15
 128782656.713 6 100350204.514 6  24506537.317                    24506558.901  
      2804.609        2185.727          40.000          41.000  
 128010826.473 7  99748788.096 7  24359650.351                    24359671.463  
       262.410         204.531          42.000          42.000  
 112897521.694 7  87972159.043 7  21483685.897                    21483700.571  
     -1819.832       -1418.043          43.000          44.000  
 109578941.415 7  85386245.768 7  20852180.231                    20852195.013  
     -1829.492       -1425.129          43.000          42.000  
 107498413.284 7  83765065.326 7  20456268.306                    20456285.067  
        60.473          47.383          43.000          43.000  
 115358680.348 7  89889967.847 7  21952026.488                    21952046.115  
      2848.055        2219.055          42.000          42.000  
 126850620.569 6  98844714.813 6  24138873.344                    24138891.783  
     -3368.024       -2624.258          41.000          38.000  
 24  1 10  3 20  2.2000000  0  7G08G24G18G23G10G32G15
 128782376.173 6 100349985.911 6  24506483.518                    24506505.687  
      2805.316        2185.883          39.000          41.000  
 128010800.283 6  99748767.684 7  24359645.555                    24359666.759  
       261.816         204.059          41.000          42.000  
 112897703.710 7  87972300.890 7  21483720.103                    21483735.180  
     -1820.148       -1418.637          44.000          44.000  
 109579124.325 7  85386388.287 7  20852214.842                    20852229.732  
     -1829.242       -1425.535          44.000          42.000  
 107498407.225 7  83765060.579 7  20456267.270                    20456284.032  
        60.480          47.141          43.000          43.000  
 115358395.685 7  89889746.018 6  21951972.170                    21951992.068  
      2846.746        2218.414          42.000          41.000  
 126850957.355 6  98844977.226 6  24138937.620                    24138955.422  
     -3367.844       -2624.398          41.000          38.000  
 24  1 10  3 20  2.3000000  0  7G08G24G18G23G10G32G15
 128782095.565 6 100349767.253 6  24506430.120                    24506452.289  
      2806.000        2186.570          39.000          41.000  
 128010774.093 6  99748747.325 7  24359640.571                    24359661.787  
       261.836         203.852          41.000          42.000  
 112897885.828 7  87972442.823 7  21483754.760                    21483769.842  
     -1821.070       -1419.266          44.000          44.000  
 109579307.256 7  85386530.888 7  20852249.653                    20852264.557  
     -1829.301       -1425.547          44.000          42.000  
 107498401.169 7  83765055.881 7  20456266.117                    20456282.885  
        60.645          47.176          43.000          43.000  
 115358111.058 7  89889524.237 6  21951918.007                    21951937.906  
      2846.062        2217.605          42.000          41.000  
 126851294.066 7  98845239.629 6  24139001.694                    24139019.503  
     -3367.266       -2623.941          42.000          38.000  
 24  1 10  3 20  2.4000000  0  7G08G24G18G23G10G32G15
 128781814.870 6 100349548.506 6  24506376.510                    24506398.845  
      2806.910        2187.418          39.000          41.000  
 128010747.923 6  99748726.901 7  24359635.052                    24359657.338  
       261.781         204.129          41.000          42.000  
 112898067.973 7  87972584.754 7  21483789.944                    21483804.729  
     -1821.695       -1419.387          45.000          43.000  
 109579490.150 7  85386673.390 7  20852284.519                    20852299.256  
     -1829.090       -1425.199          44.000          43.000  
 107498395.069 7  83765051.115 7  20456265.004                    20456282.088  
        60.863          47.543          44.000          43.000  
 115357826.512 7  89889302.548 6  21951863.915                    21951883.486  
      2845.438        2217.094          42.000          41.000  
 126851630.755 7  98845501.973 6  24139065.545                    24139083.656  
     -3366.777       -2623.480          42.000          38.000  
 24  1 10  3 20  2.5000000  0  7G08G24G18G23G10G32G15
 128781534.086 6 100349329.727 6  24506323.079                    24506345.417  
      2807.688        2187.535          39.000          41.000  
 128010721.784 6  99748706.524 6  24359630.078                    24359652.362  
       261.492         203.797          41.000          41.000  
 112898250.093 7  87972726.679 7  21483824.600                    21483839.389  
     -1821.305       -1419.328          44.000          43.000  
 109579672.992 7  85386815.853 7  20852319.313                    20852334.047  
     -1828.547       -1424.629          44.000          43.000  
 107498388.952 7  83765046.342 7  20456263.840                    20456280.923  
        61.125          47.578          44.000          43.000  
 115357542.027 6  89889080.841 6  21951809.779                    21951829.343  
      2844.691        2216.820          41.000          41.000  
 126851967.430 7  98845764.302 6  24139129.612                    24139147.720  
     -3366.617       -2623.320          42.000          39.000  
 24  1 10  3 20  2.6000000  0  7G08G24G18G23G10G32G15
 128781253.200 6 100349110.869 6  24506269.620                    24506292.001  
      2808.844        2188.656          39.000          41.000  
 128010695.637 6  99748686.192 6  24359624.555                    24359646.772  
       261.598         203.453          40.000          40.000  
 112898432.188 7  87972868.558 7  21483858.986                    21483873.920  
     -1820.895       -1418.871          45.000          44.000  
 109579855.758 7  85386958.229 7  20852354.295                    20852369.183  
     -1827.496       -1423.969          44.000          43.000  
 107498382.767 7  83765041.548 7  20456263.342                    20456279.979  
        61.898          48.164          44.000          44.000  
 115357257.580 6  89888859.187 7  21951755.510                    21951775.338  
      2844.520        2216.434          41.000          42.000  
 126852304.018 7  98846026.548 6  24139193.975                    24139211.888  
     -3366.004       -2622.551          42.000          39.000  
 24  1 10  3 20  2.7000000  0  7G08G24G18G23G10G32G15
 128780972.257 6 100348891.943 6  24506216.158                    24506238.537  
      2809.254        2189.121          39.000          41.000  
 128010669.418 6  99748665.777 6  24359619.566                    24359641.786  
       261.879         203.984          39.000          40.000  
 112898614.385 7  87973010.569 7  21483893.657                    21483908.601  
     -1821.121       -1419.195          45.000          45.000  
 109580038.510 7  85387100.641 7  20852389.072                    20852403.962  
     -1827.445       -1423.945          44.000          43.000  
 107498376.565 7  83765036.714 7  20456262.162                    20456278.798  
        62.070          48.328          44.000          44.000  
 115356973.189 6  89888637.601 7  21951701.392                    21951721.224  
      2844.117        2216.027          41.000          42.000  
 126852640.534 7  98846288.813 6  24139258.012                    24139275.936  
     -3365.043       -2622.309          42.000          39.000  
 24  1 10  3 20  2.8000000  0  7G08G24G18G23G10G32G15
 128780691.337 6 100348673.015 6  24506162.943                    24506185.104  
      2809.273        2189.277          39.000          41.000  
 128010643.293 6  99748645.423 6  24359613.868                    24359635.448  
       261.324         203.496          39.000          40.000  
 112898796.580 7  87973152.451 7  21483928.976                    21483944.578  
     -1822.582       -1419.930          44.000          44.000  
 109580221.270 7  85387243.085 7  20852424.154                    20852438.318  
     -1827.633       -1424.332          44.000          43.000  
 107498370.392 7  83765031.907 7  20456261.151                    20456277.609  
        61.855          48.316          43.000          44.000  
 115356688.833 7  89888416.027 7  21951647.453                    21951667.129  
      2843.195        2215.406          42.000          42.000  
 126852977.044 7  98846551.016 6  24139321.813                    24139339.820  
     -3365.074       -2622.301          42.000          39.000  
 24  1 10  3 20  2.9000000  0  7G08G24G18G23G10G32G15
 128780410.316 6 100348454.050 6  24506109.467                    24506131.630  
      2810.125        2189.691          39.000          41.000  
 128010617.156 6  99748625.042 6  24359608.894                    24359630.471  
       261.570         203.859          39.000          40.000  
 112898978.755 7  87973294.454 7  21483963.643                    21483979.257  
     -1821.609       -1419.438          43.000          44.000  
 109580403.919 7  85387385.418 7  20852458.911                    20852473.078  
     -1826.551       -1423.523          44.000          43.000  
 107498364.139 7  83765027.013 7  20456259.961                    20456276.414  
        62.352          48.691          43.000          43.000  
 115356404.501 7  89888194.466 7  21951593.346                    21951613.022  
      2843.242        2215.551          42.000          42.000  
 126853313.517 7  98846813.174 6  24139385.842                    24139403.841  
     -3364.859       -2621.750          42.000          39.000  
 24  1 10  3 20  3.0000000  0  7G08G24G18G23G10G32G15
 128780129.196 6 100348234.991 6  24506056.104                    24506077.696  
      2811.215        2190.426          39.000          41.000  
 128010591.021 6  99748604.672 6  24359603.710                    24359625.731  
       261.324         203.637          39.000          40.000  
 112899160.917 7  87973436.376 7  21483996.807                    21484013.579  
     -1821.383       -1419.422          43.000          45.000  
 109580586.537 7  85387527.730 7  20852493.444                    20852507.902  
     -1826.480       -1423.172          44.000          43.000  
 107498357.784 7  83765022.072 7  20456258.424                    20456275.035  
        63.410          49.305          42.000          43.000  
 115356120.183 7  89887972.911 7  21951539.461                    21951558.338  
      2843.297        2215.648          42.000          42.000  
 126853649.992 7  98847075.402 6  24139449.973                    24139467.646  
     -3364.578       -2621.863          42.000          39.000  
 24  1 10  3 20  3.1000000  0  7G08G24G18G23G10G32G15
 128779847.945 6 100348015.845 6  24506002.584                    24506024.179  
      2812.160        2191.203          39.000          41.000  
 128010564.938 6  99748584.382 6  24359598.747                    24359620.776  
       261.043         203.031          38.000          40.000  
 112899343.105 7  87973578.362 7  21484031.476                    21484048.254  
     -1822.000       -1419.684          43.000          45.000  
 109580769.178 7  85387670.045 7  20852528.199                    20852542.657  
     -1826.152       -1423.004          44.000          43.000  
 107498351.362 7  83765017.074 7  20456257.202                    20456273.814  
        64.422          50.004          43.000          44.000  
 115355835.824 7  89887751.369 7  21951485.350                    21951504.235  
      2843.609        2215.633          43.000          42.000  
 126853986.495 6  98847337.635 6  24139514.007                    24139531.686  
     -3365.008       -2622.336          41.000          39.000  
 24  1 10  3 20  3.2000000  0  7G08G24G18G23G10G32G15
 128779566.782 6 100347796.726 6  24505948.916                    24505970.378  
      2811.562        2190.977          39.000          40.000  
 128010538.861 6  99748564.139 6  24359593.894                    24359615.903  
       260.707         202.422          38.000          40.000  
 112899525.331 7  87973720.366 7  21484066.856                    21484083.011  
     -1822.121       -1420.125          45.000          45.000  
 109580951.837 7  85387812.371 7  20852562.716                    20852578.422  
     -1826.387       -1423.359          44.000          43.000  
 107498345.038 7  83765012.180 7  20456256.092                    20456272.830  
        63.445          49.398          43.000          44.000  
 115355551.550 7  89887529.846 7  21951431.293                    21951450.004  
      2842.988        2215.141          44.000          42.000  
 126854322.977 6  98847599.815 6  24139577.897                    24139595.955  
     -3364.930       -2621.727          41.000          39.000  
 24  1 10  3 20  3.3000000  0  7G08G24G18G23G10G32G15
 128779285.696 6 100347577.721 6  24505895.427                    24505916.895  
      2810.812        2190.184          39.000          40.000  
 128010512.870 6  99748543.883 6  24359588.948                    24359610.956  
       259.965         202.449          38.000          40.000  
 112899707.682 7  87973862.411 7  21484101.556                    21484117.699  
     -1823.637       -1420.477          45.000          45.000  
 109581134.584 7  85387954.811 7  20852597.491                    20852613.207  
     -1827.363       -1424.051          44.000          43.000  
 107498338.785 7  83765007.273 7  20456254.902                    20456271.632  
        62.238          48.637          44.000          44.000  
 115355267.330 7  89887308.387 7  21951377.208                    21951395.922  
      2842.086        2214.547          44.000          42.000  
 126854659.491 6  98847862.065 6  24139641.933                    24139659.999  
     -3365.141       -2622.703          40.000          39.000  
 24  1 10  3 20  3.4000000  0  7G08G24G18G23G10G32G15
 128779004.591 6 100347358.692 6  24505841.982                    24505863.367  
      2811.203        2190.344          38.000          40.000  
 128010486.820 6  99748523.608 6  24359583.928                    24359606.833  
       260.559         203.043          38.000          40.000  
 112899889.920 7  87974004.393 7  21484136.266                    21484151.748  
     -1822.855       -1420.316          44.000          45.000  
 109581317.292 7  85388097.127 7  20852632.517                    20852647.697  
     -1827.305       -1423.691          44.000          43.000  
 107498332.502 7  83765002.372 7  20456253.879                    20456270.419  
        62.730          48.891          44.000          44.000  
 115354983.108 7  89887086.903 7  21951323.286                    21951341.911  
      2842.293        2214.805          44.000          42.000  
 126854995.961 6  98848124.300 6  24139706.055                    24139724.227  
     -3364.910       -2622.320          39.000          39.000  
 24  1 10  3 20  3.5000000  0  7G08G24G18G23G10G32G15
 128778723.420 6 100347139.582 6  24505788.477                    24505809.858  
      2811.434        2191.043          38.000          40.000  
 128010460.758 6  99748503.277 6  24359578.969                    24359601.868  
       260.578         203.270          39.000          40.000  
 112900072.190 7  87974146.433 7  21484170.951                    21484186.436  
     -1822.484       -1419.957          44.000          44.000  
 109581499.930 7  85388239.470 7  20852667.272                    20852682.458  
     -1826.617       -1423.410          44.000          43.000  
 107498326.203 7  83764997.461 7  20456252.680                    20456269.220  
        62.840          49.129          44.000          44.000  
 115354698.853 7  89886865.387 7  21951269.194                    21951287.815  
      2842.305        2214.824          43.000          42.000  
 126855332.467 6  98848386.425 6  24139770.090                    24139788.241  
     -3364.828       -2621.504          39.000          40.000  
 24  1 10  3 20  3.6000000  0  7G08G24G18G23G10G32G15
 128778442.233 6 100346920.488 6  24505735.250                    24505756.588  
      2812.000        2190.887          38.000          39.000  
 128010434.624 6  99748482.925 6  24359574.050                    24359597.288  
       261.273         203.539          39.000          40.000  
 112900254.362 7  87974288.399 7  21484205.351                    21484220.738  
     -1821.383       -1419.633          45.000          44.000  
 109581682.519 7  85388381.749 7  20852701.854                    20852716.673  
     -1825.895       -1422.664          44.000          43.000  
 107498319.869 7  83764992.530 7  20456251.404                    20456267.914  
        63.562          49.527          44.000          44.000  
 115354414.648 7  89886643.949 7  21951215.268                    21951233.792  
      2842.688        2214.914          43.000          42.000  
 126855668.844 6  98848648.573 6  24139834.202                    24139852.682  
     -3363.902       -2621.297          40.000          40.000  
 24  1 10  3 20  3.7000000  0  7G08G24G18G23G10G32G15
 128778161.088 6 100346701.419 6  24505681.750                    24505703.089  
      2811.441        2190.742          38.000          39.000  
 128010408.458 6  99748462.517 6  24359569.071                    24359592.304  
       261.746         204.004          39.000          40.000  
 112900436.465 7  87974430.329 7  21484240.004                    21484255.399  
     -1821.090       -1419.231          45.000          45.000  
 109581865.058 7  85388523.940 7  20852736.590                    20852751.398  
     -1825.340       -1422.051          44.000          43.000  
 107498313.486 7  83764987.531 7  20456250.190                    20456266.693  
        63.793          49.809          43.000          43.000  
 115354130.355 7  89886422.456 7  21951161.169                    21951179.701  
      2842.762        2214.859          42.000          42.000  
 126856005.172 6  98848910.693 6  24139898.203                    24139916.694  
     -3363.394       -2621.254          40.000          41.000  
 24  1 10  3 20  3.8000000  0  7G08G24G18G23G10G32G15
 128777879.947 6 100346482.341 6  24505628.188                    24505649.588  
      2811.238        2190.812          37.000          39.000  
 128010382.219 6  99748442.097 6  24359564.351                    24359586.880  
       262.234         204.180          39.000          40.000  
 112900618.547 7  87974572.194 7  21484274.771                    21484290.489  
     -1820.801       -1418.543          45.000          45.000  
 109582047.546 7  85388666.142 7  20852771.480                    20852786.234  
     -1824.934       -1422.016          44.000          43.000  
 107498307.057 7  83764982.559 7  20456248.630                    20456265.151  
        64.355          49.812          43.000          43.000  
 115353846.088 7  89886200.947 7  21951106.919                    21951125.981  
      2842.824        2215.270          43.000          42.000  
 126856341.565 6  98849172.794 6  24139962.287                    24139981.100  
     -3363.883       -2620.895          41.000          41.000  
 24  1 10  3 20  3.9000000  0  7G08G24G18G23G10G32G15
 128777598.865 6 100346263.324 6  24505574.700                    24505596.102  
      2810.875        2190.145          36.000          38.000  
 128010355.900 6  99748421.622 6  24359559.343                    24359581.880  
       263.184         204.578          40.000          41.000  
 112900800.517 7  87974713.945 7  21484309.398                    21484325.106  
     -1819.801       -1417.867          45.000          45.000  
 109582229.974 7  85388808.350 7  20852806.195                    20852820.963  
     -1824.074       -1421.477          44.000          43.000  
 107498300.677 7  83764977.621 7  20456247.416                    20456263.945  
        64.027          49.844          44.000          43.000  
 115353561.748 7  89885979.388 7  21951052.810                    21951071.874  
      2843.449        2215.598          43.000          42.000  
 126856677.904 7  98849434.831 6  24140026.290                    24140045.093  
     -3363.602       -2620.523          42.000          41.000  
 24  1 10  3 20  4.0000000  0  7G08G24G18G23G10G32G15
 128777317.873 5 100346044.354 6  24505520.877                    24505543.049  
      2810.062        2189.598          35.000          38.000  
 128010329.584 6  99748401.121 6  24359554.616                    24359577.155  
       263.105         205.059          40.000          41.000  
 112900982.463 7  87974855.758 7  21484343.920                    21484359.910  
     -1819.082       -1417.734          45.000          45.000  
 109582412.478 7  85388950.532 7  20852841.151                    20852855.826  
     -1824.973       -1422.234          44.000          43.000  
 107498294.353 7  83764972.642 7  20456246.072                    20456263.003  
        63.086          49.547          45.000          43.000  
 115353277.397 7  89885757.779 7  21950998.739                    21951017.935  
      2843.391        2215.887          44.000          42.000  
 126857014.181 6  98849696.816 6  24140091.047                    24140109.525  
     -3363.098       -2620.223          41.000          41.000  
 24  1 10  3 20  4.1000000  0  7G08G24G18G23G10G32G15
 128777037.030 5 100345825.559 6  24505467.435                    24505489.617  
      2808.570        2188.074          34.000          38.000  
 128010303.283 6  99748380.625 6  24359549.611                    24359572.149  
       263.148         204.891          40.000          41.000  
 112901164.426 7  87974997.517 7  21484378.547                    21484394.529  
     -1819.934       -1417.934          44.000          45.000  
 109582595.004 7  85389092.802 7  20852875.884                    20852890.569  
     -1825.273       -1422.508          44.000          43.000  
 107498288.121 7  83764967.790 7  20456244.886                    20456261.818  
        62.262          48.379          45.000          43.000  
 115352993.097 7  89885536.272 7  21950944.639                    21950963.841  
      2843.316        2215.512          44.000          42.000  
 126857350.463 6  98849958.935 6  24140155.039                    24140173.537  
     -3363.027       -2621.027          39.000          41.000  
 24  1 10  3 20  4.2000000  0  7G08G24G18G23G10G32G15
 128776756.303 5 100345606.818 6  24505414.147                    24505435.760  
      2807.121        2187.613          33.000          37.000  
 128010276.934 6  99748360.123 6  24359544.691                    24359567.275  
       263.422         205.227          41.000          41.000  
 112901346.356 7  87975139.323 7  21484413.213                    21484428.152  
     -1819.465       -1417.902          44.000          45.000  
 109582777.623 7  85389235.057 7  20852910.651                    20852925.356  
     -1826.281       -1422.820          44.000          42.000  
 107498281.935 7  83764962.959 7  20456244.264                    20456260.372  
        61.660          48.121          46.000          43.000  
 115352708.723 7  89885314.669 7  21950890.579                    21950909.551  
      2843.574        2215.746          45.000          42.000  
 126857686.927 6  98850221.116 6  24140218.605                    24140236.932  
     -3364.547       -2621.406          38.000          40.000  
 24  1 10  3 20  4.3000000  0  7G08G24G18G23G10G32G15
 128776475.713 5 100345388.130 6  24505360.752                    24505382.354  
      2806.004        2186.898          33.000          37.000  
 128010250.505 6  99748339.504 6  24359539.662                    24359562.240  
       264.094         205.969          40.000          41.000  
 112901528.255 7  87975281.042 7  21484447.828                    21484462.761  
     -1819.043       -1417.523          43.000          46.000  
 109582960.307 7  85389377.386 7  20852945.415                    20852960.115  
     -1826.746       -1423.363          44.000          42.000  
 107498275.871 7  83764958.245 7  20456243.110                    20456259.221  
        60.852          47.355          46.000          43.000  
 115352424.281 7  89885093.008 7  21950836.451                    21950855.419  
      2844.477        2216.398          45.000          42.000  
 126858023.395 6  98850483.247 6  24140282.633                    24140300.947  
     -3364.348       -2621.598          37.000          40.000  
 24  1 10  3 20  4.4000000  0  8G08G24G18G23G16G10G15G32
 128776195.235 5 100345169.575 6  24505307.762                    24505328.731  
      2804.613        2185.617          32.000          36.000  
 128010224.084 6  99748318.934 6  24359534.533                    24359557.248  
       264.129         205.867          40.000          41.000  
 112901710.138 7  87975422.818 7  21484482.197                    21484497.790  
     -1818.375       -1417.562          43.000          46.000  
 109583143.037 7  85389519.803 7  20852980.523                    20852994.762  
     -1827.801       -1424.164          44.000          42.000  
 127794591.73125                  24318508.904                                  
     -2279.117                          34.000                  
 107498269.870 7  83764953.575 7  20456242.390                    20456258.065  
        59.406          46.590          45.000          43.000  
 126858359.717 6  98850745.395 6  24140346.407                    24140364.427  
     -3363.336       -2621.332          36.000          40.000  
 115352139.852 7  89884871.409 7  21950782.248                    21950801.013  
      2844.543        2216.293          45.000          42.000  
 24  1 10  3 20  4.5000000  0  8G08G24G18G23G16G10G15G32
 128775914.842 5 100344951.127 6  24505254.405                    24505275.384  
      2803.633        2184.621          32.000          36.000  
 128010197.693 6  99748298.350 6  24359529.511                    24359552.221  
       263.668         205.668          40.000          41.000  
 112901892.059 7  87975564.553 7  21484516.815                    21484532.404  
     -1819.602       -1417.273          43.000          46.000  
 109583325.796 7  85389662.234 7  20853015.301                    20853029.545  
     -1827.863       -1424.191          44.000          42.000  
 127794819.67125                  24318552.279                                  
     -2278.996                          34.000                  
 107498263.937 7  83764948.941 7  20456241.261                    20456256.933  
        59.102          46.211          45.000          43.000  
 126858696.245 6  98851007.598 6  24140410.446                    24140428.460  
     -3365.934       -2621.855          37.000          39.000  
 115351855.351 7  89884649.703 7  21950728.109                    21950746.870  
      2845.199        2216.957          45.000          42.000  
 24  1 10  3 20  4.6000000  0  8G08G24G18G23G16G10G15G32
 128775634.611 5 100344732.789 6  24505201.344                    24505221.853  
      2801.785        2183.605          33.000          36.000  
 128010171.253 6  99748277.725 6  24359524.667                    24359547.583  
       264.566         206.301          40.000          41.000  
 112902073.927 7  87975706.243 7  21484551.775                    21484567.576  
     -1818.258       -1416.969          43.000          46.000  
 109583508.648 7  85389804.654 7  20853049.714                    20853064.013  
     -1828.836       -1424.656          44.000          42.000  
 127795047.58725                  24318595.424                                  
     -2280.191                          34.000                  
 107498258.108 7  83764944.406 7  20456239.847                    20456255.998  
        57.828          45.469          45.000          43.000  
 126859032.846 6  98851269.814 6  24140474.428                    24140491.839  
     -3365.750       -2622.160          37.000          39.000  
 115351570.832 7  89884428.012 7  21950674.225                    21950692.723  
      2845.242        2217.062          45.000          43.000  
 24  1 10  3 20  4.7000000  0  8G08G24G18G23G16G10G15G32
 128775354.511 5 100344514.478 6  24505148.043                    24505168.539  
      2800.484        2182.941          33.000          36.000  
 128010144.706 6  99748257.041 6  24359519.615                    24359542.531  
       265.688         206.754          40.000          41.000  
 112902255.712 7  87975847.894 7  21484586.368                    21484602.168  
     -1817.742       -1416.535          43.000          46.000  
 109583691.513 7  85389947.182 7  20853084.512                    20853098.819  
     -1828.680       -1425.297          44.000          42.000  
 127795275.63825                  24318638.821                                  
     -2280.613                          34.000                  
 107498252.313 7  83764939.885 7  20456238.744                    20456254.894  
        57.898          44.949          45.000          42.000  
 126859369.408 6  98851532.083 6  24140538.474                    24140555.888  
     -3365.777       -2622.707          38.000          39.000  
 115351286.237 7  89884206.244 7  21950620.068                    21950638.565  
      2846.316        2217.535          45.000          43.000  
 24  1 10  3 20  4.8000000  0  8G08G24G18G23G16G10G15G32
 128775074.540 5 100344296.306 6  24505094.915                    24505115.345  
      2799.469        2181.762          33.000          36.000  
 128010118.159 6  99748236.352 6  24359514.868                    24359537.612  
       265.617         206.934          40.000          41.000  
 112902437.494 7  87975989.536 7  21484621.022                    21484637.314  
     -1817.508       -1416.473          43.000          46.000  
 109583874.453 7  85390089.751 7  20853119.449                    20853133.433  
     -1829.816       -1425.395          44.000          42.000  
 127795503.57025                  24318681.921                                  
     -2279.121                          33.000                  
 107498246.594 7  83764935.450 7  20456237.586                    20456253.662  
        56.926          44.676          45.000          42.000  
 126859705.976 6  98851794.368 6  24140602.872                    24140619.675  
     -3365.203       -2622.746          39.000          40.000  
 115351001.603 7  89883984.447 7  21950565.819                    21950584.814  
      2846.586        2217.961          45.000          42.000  
 24  1 10  3 20  4.9000000  0  8G08G24G18G23G16G10G15G32
 128774794.614 5 100344078.216 6  24505041.647                    24505062.085  
      2798.320        2181.332          32.000          36.000  
 128010091.593 6  99748215.623 6  24359509.813                    24359532.549  
       265.648         207.359          40.000          41.000  
 112902619.256 7  87976131.207 7  21484655.610                    21484671.911  
     -1817.504       -1416.348          43.000          46.000  
 109584057.457 7  85390232.316 7  20853154.274                    20853168.249  
     -1830.297       -1425.711          44.000          42.000  
 127795731.68025                  24318725.329                                  
     -2280.840                          33.000                  
 107498240.929 7  83764931.026 7  20456236.508                    20456252.582  
        56.293          44.246          45.000          42.000  
 126860042.561 6  98852056.649 6  24140666.922                    24140683.727  
     -3366.832       -2622.797          39.000          40.000  
 115350716.906 7  89883762.604 7  21950511.643                    21950530.638  
      2847.266        2218.477          45.000          42.000  
 24  1 10  3 20  5.0000000  0  8G08G24G18G23G16G10G15G32
 128774514.786 5 100343860.173 6  24504988.108                    24505008.243  
      2798.422        2180.434          33.000          36.000  
 128010065.007 6  99748194.886 6  24359505.003                    24359527.071  
       265.902         207.297          40.000          41.000  
 112902800.936 7  87976272.759 7  21484690.128                    21484705.808  
     -1816.742       -1415.895          43.000          46.000  
 109584240.426 7  85390374.871 7  20853189.021                    20853203.078  
     -1829.457       -1425.684          45.000          42.000  
 127795959.75725                  24318768.692                                  
     -2281.035                          34.000                  
 107498235.310 7  83764926.631 7  20456235.602                    20456251.266  
        55.945          43.887          46.000          43.000  
 126860379.160 6  98852318.930 6  24140731.889                    24140748.497  
     -3365.312       -2622.891          38.000          40.000  
 115350432.148 7  89883540.723 7  21950457.291                    21950476.187  
      2847.879        2218.844          45.000          42.000  
 24  1 10  3 20  5.1000000  0  8G08G24G18G23G16G10G15G32
 128774235.122 5 100343642.244 6  24504934.890                    24504955.023  
      2795.684        2179.230          33.000          37.000  
 128010038.285 6  99748174.157 6  24359499.918                    24359522.009  
       267.148         207.352          40.000          41.000  
 112902982.673 7  87976414.371 7  21484724.712                    21484740.391  
     -1817.359       -1415.734          44.000          46.000  
 109584423.483 7  85390517.551 7  20853223.856                    20853237.922  
     -1830.719       -1426.324          44.000          42.000  
 127796187.86025                  24318812.098                                  
     -2281.168                          34.000                  
 107498229.768 7  83764922.340 7  20456234.548                    20456250.218  
        55.430          43.176          45.000          43.000  
 126860715.764 6  98852581.284 6  24140795.943                    24140812.567  
     -3366.992       -2623.578          38.000          41.000  
 115350147.372 7  89883318.820 7  21950403.100                    21950421.996  
      2848.055        2218.992          45.000          42.000  
 24  1 10  3 20  5.2000000  0  8G08G24G18G23G16G10G15G32
 128773955.590 5 100343424.421 6  24504881.572                    24504901.890  
      2795.086        2178.508          33.000          36.000  
 128010011.639 6  99748153.372 6  24359494.699                    24359516.746  
       266.355         207.738          39.000          41.000  
 112903164.278 7  87976555.895 7  21484759.496                    21484774.632  
     -1816.133       -1415.406          43.000          46.000  
 109584606.559 7  85390660.196 7  20853259.421                    20853272.101  
     -1830.695       -1426.930          44.000          42.000  
 127796416.00025                  24318855.449                                  
     -2281.980                          34.000                  
 107498224.278 7  83764918.042 7  20456233.347                    20456249.427  
        54.418          42.879          45.000          43.000  
 126861052.578 6  98852843.667 6  24140860.169                    24140877.042  
     -3368.457       -2623.695          39.000          41.000  
 115349862.553 7  89883096.886 7  21950348.940                    21950368.258  
      2848.098        2219.469          45.000          43.000  
 24  1 10  3 20  5.3000000  0  8G08G24G18G23G16G10G15G32
 128773676.058 5 100343206.628 6  24504828.378                    24504848.703  
      2795.414        2177.852          32.000          37.000  
 128009984.968 6  99748132.555 6  24359489.624                    24359511.662  
       266.871         208.070          40.000          40.000  
 112903345.952 7  87976697.428 7  21484794.068                    21484809.196  
     -1816.648       -1415.156          44.000          46.000  
 109584789.680 7  85390802.976 6  20853294.267                    20853306.969  
     -1831.520       -1427.504          43.000          41.000  
 127796644.14825                  24318898.864                                  
     -2282.023                          34.000                  
 107498218.832 7  83764913.790 7  20456232.310                    20456248.388  
        54.316          42.402          45.000          43.000  
 126861389.313 6  98853106.027 6  24140924.248                    24140941.113  
     -3367.160       -2623.891          40.000          41.000  
 115349577.663 7  89882874.892 7  21950294.727                    21950314.045  
      2849.070        2220.023          45.000          43.000  
 24  1 10  3 20  5.4000000  0  8G08G24G18G23G16G10G15G32
 128773396.740 5 100342988.947 6  24504774.851                    24504795.739  
      2792.707        2176.816          33.000          36.000  
 128009958.205 6  99748111.710 6  24359484.422                    24359505.235  
       267.637         208.168          40.000          40.000  
 112903527.523 7  87976838.939 7  21484828.713                    21484843.879  
     -1815.234       -1415.133          44.000          46.000  
 109584972.827 7  85390945.592 7  20853328.494                    20853341.844  
     -1831.738       -1426.344          44.000          42.000  
 127796872.39625                  24318942.056                                  
     -2282.121                          34.000                  
 107498213.433 7  83764909.612 7  20456231.353                    20456247.454  
        53.680          41.875          45.000          43.000  
 126861726.080 6  98853368.436 6  24140988.489                    24141005.360  
     -3367.934       -2623.965          41.000          41.000  
 115349292.754 7  89882652.892 7  21950240.628                    21950260.127  
      2849.457        2220.004          45.000          42.000  
 24  1 10  3 20  5.5000000  0  8G08G24G18G23G16G10G15G32
 128773117.520 5 100342771.376 6  24504721.717                    24504742.606  
      2791.383        2175.875          33.000          36.000  
 128009931.490 6  99748090.881 6  24359479.338                    24359500.149  
       267.000         208.273          41.000          39.000  
 112903709.098 7  87976980.398 7  21484863.266                    21484878.425  
     -1816.418       -1414.863          44.000          46.000  
 109585156.024 7  85391088.318 6  20853363.355                    20853376.700  
     -1831.785       -1427.527          44.000          41.000  
 127797100.59325                  24318985.481                                  
     -2283.113                          34.000                  
 107498208.108 7  83764905.457 7  20456230.340                    20456246.439  
        53.113          41.438          45.000          43.000  
 126862062.895 6  98853630.904 6  24141052.582                    24141069.457  
     -3368.379       -2624.438          40.000          41.000  
 115349007.770 7  89882430.815 7  21950186.397                    21950205.894  
      2849.605        2220.535          45.000          42.000  
 24  1 10  3 20  5.6000000  0  8G08G24G18G23G16G10G15G32
 128772838.366 5 100342553.878 6  24504668.635                    24504689.631  
      2790.535        2175.117          33.000          36.000  
 128009904.712 6  99748070.027 6  24359474.211                    24359494.696  
       268.043         208.426          41.000          39.000  
 112903890.636 7  87977121.911 7  21484897.780                    21484912.812  
     -1814.910       -1414.707          43.000          46.000  
 109585339.263 7  85391231.182 6  20853398.326                    20853412.049  
     -1832.379       -1428.184          45.000          41.000  
 127797328.96825                  24319028.384                                  
     -2283.359                          34.000                  
 107498202.825 7  83764901.339 7  20456229.343                    20456245.551  
        52.539          41.152          45.000          43.000  
 126862399.681 6  98853893.370 6  24141116.374                    24141133.874  
     -3367.570       -2624.688          39.000          41.000  
 115348722.771 7  89882208.742 7  21950132.007                    21950151.403  
      2850.469        2220.840          45.000          42.000  
 24  1 10  3 20  5.7000000  0  8G08G24G18G23G16G10G15G32
 128772559.346 5 100342336.463 6  24504615.539                    24504636.536  
      2790.301        2174.230          32.000          36.000  
 128009877.876 6  99748049.153 6  24359469.105                    24359489.599  
       268.750         208.770          41.000          39.000  
 112904072.095 7  87977263.289 7  21484932.311                    21484947.338  
     -1814.508       -1414.062          43.000          46.000  
 109585522.541 7  85391373.950 6  20853433.203                    20853446.915  
     -1833.238       -1427.879          44.000          41.000  
 127797557.26625                  24319071.828                                  
     -2282.910                          34.000                  
 107498197.605 7  83764897.273 7  20456228.349                    20456244.558  
        52.043          40.840          45.000          43.000  
 126862736.493 6  98854155.892 6  24141180.467                    24141197.985  
     -3368.863       -2624.891          39.000          41.000  
 115348437.699 7  89881986.611 7  21950077.760                    21950097.157  
      2850.848        2221.344          45.000          43.000  
 24  1 10  3 20  5.8000000  0  8G08G24G18G23G16G10G15G32
 128772280.454 5 100342119.125 6  24504562.460                    24504583.671  
      2788.852        2173.391          32.000          36.000  
 128009851.045 6  99748028.211 6  24359464.233                    24359485.070  
       268.297         209.664          41.000          39.000  
 112904253.557 7  87977404.684 7  21484967.248                    21484982.618  
     -1814.816       -1413.836          43.000          46.000  
 109585705.764 7  85391516.715 6  20853468.264                    20853481.733  
     -1831.660       -1428.016          44.000          41.000  
 127797785.54725                  24319115.011                                  
     -2282.715                          34.000                  
 107498192.417 7  83764893.229 7  20456227.596                    20456243.679  
        51.695          40.359          45.000          43.000  
 126863073.438 6  98854418.324 6  24141244.187                    24141262.386  
     -3368.734       -2624.629          39.000          41.000  
 115348152.567 7  89881764.430 7  21950023.376                    21950042.710  
      2851.930        2221.902          45.000          43.000  
 24  1 10  3 20  5.9000000  0  8G08G24G18G23G16G10G15G32
 128772001.626 5 100341901.863 6  24504509.401                    24504530.613  
      2788.289        2172.617          32.000          36.000  
 128009824.171 6  99748007.142 6  24359459.119                    24359479.925  
       268.812         210.094          41.000          39.000  
 112904434.966 7  87977546.038 7  21485001.769                    21485017.138  
     -1813.680       -1413.379          43.000          46.000  
 109585889.114 7  85391659.593 6  20853503.154                    20853516.625  
     -1833.777       -1428.176          44.000          41.000  
 127798013.90925                  24319158.467                                  
     -2283.902                          34.000                  
 107498187.283 7  83764889.197 7  20456226.619                    20456242.695  
        51.383          40.246          45.000          43.000  
 126863410.222 6  98854680.847 6  24141308.275                    24141326.497  
     -3367.484       -2625.219          38.000          41.000  
 115347867.382 7  89881542.224 7  21949969.107                    21949988.446  
      2852.258        2222.047          45.000          43.000  
 24  1 10  3 20  6.0000000  0  8G08G24G18G23G16G10G15G32
 128771722.885 5 100341684.674 6  24504455.936                    24504477.597  
      2787.051        2171.965          32.000          36.000  
 128009797.261 6  99747986.172 6  24359454.006                    24359474.664  
       269.223         209.766          40.000          39.000  
 112904616.319 7  87977687.332 7  21485036.232                    21485051.159  
     -1813.449       -1413.258          43.000          46.000  
 109586072.433 7  85391802.437 6  20853537.844                    20853551.337  
     -1833.172       -1429.008          44.000          41.000  
 127798242.33125                  24319202.262                                  
     -2284.012                          34.000                  
 107498182.185 7  83764885.257 7  20456225.688                    20456241.850  
        50.844          39.578          45.000          43.000  
 126863747.130 6  98854943.371 6  24141372.183                    24141390.405  
     -3369.859       -2625.023          39.000          41.000  
 115347582.146 7  89881319.938 7  21949914.805                    21949934.122  
      2852.574        2222.793          45.000          42.000  
 24  1 10  3 20  6.1000000  0  8G08G24G18G23G16G10G15G32
 128771444.271 5 100341467.573 6  24504402.918                    24504424.579  
      2785.742        2171.258          33.000          36.000  
 128009770.297 6  99747965.242 6  24359448.875                    24359469.552  
       270.133         209.340          41.000          40.000  
 112904797.659 7  87977828.629 7  21485070.740                    21485085.666  
     -1812.926       -1413.047          43.000          46.000  
 109586255.769 7  85391945.389 6  20853572.731                    20853586.247  
     -1833.664       -1428.875          43.000          41.000  
 127798470.79725                  24319245.738                                  
     -2284.559                          34.000                  
 107498177.109 7  83764881.299 7  20456224.722                    20456240.883  
        50.637          39.309          45.000          43.000  
 126864084.179 6  98855205.920 6  24141436.321                    24141454.522  
     -3370.637       -2625.453          40.000          41.000  
 115347296.888 7  89881097.671 7  21949860.522                    21949879.842  
      2852.773        2222.793          45.000          43.000  
 24  1 10  3 20  6.2000000  0  8G08G24G18G23G16G10G15G32
 128771165.759 5 100341250.523 6  24504350.044                    24504371.956  
      2785.344        2170.527          34.000          37.000  
 128009743.338 6  99747944.192 6  24359443.620                    24359465.334  
       269.348         210.309          41.000          40.000  
 112904978.963 7  87977969.945 7  21485104.968                    21485120.028  
     -1812.773       -1412.656          43.000          46.000  
 109586439.162 7  85392088.230 7  20853607.544                    20853621.576  
     -1834.383       -1428.723          44.000          42.000  
 127798699.23125                  24319289.246                                  
     -2284.797                          34.000                  
 107498172.089 7  83764877.383 7  20456223.744                    20456239.880  
        50.098          39.426          45.000          43.000  
 126864421.111 6  98855468.496 6  24141501.109                    24141517.974  
     -3369.121       -2625.922          40.000          40.000  
 115347011.542 7  89880875.333 7  21949806.168                    21949825.467  
      2853.422        2223.262          45.000          42.000  
 24  1 10  3 20  6.3000000  0  8G08G24G18G23G16G10G15G32
 128770887.280 5 100341033.558 6  24504297.051                    24504318.970  
      2784.488        2169.734          34.000          37.000  
 128009716.355 6  99747923.188 6  24359438.485                    24359460.204  
       269.488         210.266          40.000          40.000  
 112905160.206 7  87978111.116 7  21485139.457                    21485154.503  
     -1812.344       -1412.231          44.000          46.000  
 109586622.533 7  85392231.145 7  20853642.438                    20853656.477  
     -1833.574       -1428.992          44.000          42.000  
 127798927.70725                  24319332.724                                  
     -2284.938                          34.000                  
 107498167.089 7  83764873.480 7  20456222.792                    20456238.927  
        49.656          38.891          45.000          43.000  
 126864758.005 6  98855731.069 6  24141565.218                    24141582.097  
     -3367.168       -2625.570          39.000          40.000  
 115346726.196 7  89880652.970 7  21949751.868                    21949771.163  
      2853.500        2223.484          45.000          42.000  
 24  1 10  3 20  6.4000000  0  8G08G24G18G23G16G10G15G32
 128770608.851 5 100340816.555 6  24504244.411                    24504265.499  
      2784.598        2169.785          35.000          37.000  
 128009689.328 6  99747902.129 6  24359433.397                    24359455.444  
       270.195         210.395          40.000          40.000  
 112905341.497 7  87978252.403 7  21485173.878                    21485189.140  
     -1812.398       -1412.551          44.000          45.000  
 109586805.937 7  85392374.005 7  20853677.347                    20853691.599  
     -1834.199       -1428.926          43.000          42.000  
 127799156.16325                  24319376.244                                  
     -2284.715                          34.000                  
 107498162.095 7  83764869.614 7  20456221.514                    20456237.780  
        49.871          38.645          45.000          43.000  
 126865094.849 6  98855993.703 6  24141628.880                    24141645.696  
     -3369.660       -2626.324          38.000          40.000  
 115346440.855 7  89880430.633 7  21949697.640                    21949716.765  
      2853.836        2223.617          45.000          42.000  
 24  1 10  3 20  6.5000000  0  8G08G24G18G23G16G10G15G32
 128770330.446 5 100340599.656 6  24504191.433                    24504212.531  
      2784.250        2169.008          35.000          37.000  
 128009662.329 6  99747881.098 6  24359428.259                    24359450.308  
       270.820         210.395          39.000          40.000  
 112905522.743 7  87978393.619 7  21485208.368                    21485223.626  
     -1812.527       -1412.125          44.000          45.000  
 109586989.330 7  85392516.894 7  20853712.245                    20853726.494  
     -1834.145       -1429.098          44.000          42.000  
 127799384.68025                  24319419.730                                  
     -2285.164                          34.000                  
 107498157.131 7  83764865.758 7  20456220.569                    20456236.838  
        49.699          38.543          45.000          43.000  
 126865431.986 6  98856256.272 6  24141693.035                    24141709.818  
     -3371.406       -2625.773          38.000          40.000  
 115346155.433 7  89880208.255 7  21949643.326                    21949662.458  
      2854.164        2223.727          44.000          42.000  
 24  1 10  3 20  6.6000000  0  8G08G24G18G23G16G10G15G32
 128770052.119 5 100340382.739 6  24504138.719                    24504159.378  
      2783.066        2169.000          35.000          37.000  
 128009635.302 6  99747860.029 6  24359423.061                    24359444.819  
       269.828         210.504          39.000          40.000  
 112905703.952 7  87978534.848 7  21485242.850                    21485257.545  
     -1812.285       -1412.484          44.000          45.000  
 109587172.745 7  85392659.830 7  20853747.101                    20853761.104  
     -1834.270       -1429.391          44.000          42.000  
 127799613.17225                  24319463.320                                  
     -2284.926                          34.000                  
 107498152.181 7  83764861.884 7  20456219.526                    20456235.197  
        49.176          38.625          45.000          43.000  
 126865769.064 6  98856518.833 6  24141757.077                    24141774.297  
     -3370.551       -2625.734          40.000          41.000  
 115345870.046 7  89879985.857 7  21949588.808                    21949608.216  
      2853.707        2224.039          44.000          42.000  
 24  1 10  3 20  6.7000000  0  8G08G24G18G23G16G10G15G32
 128769773.805 5 100340165.904 6  24504085.757                    24504106.424  
      2783.035        2168.621          35.000          37.000  
 128009608.289 6  99747839.051 6  24359417.921                    24359439.696  
       270.117         210.062          39.000          40.000  
 112905885.209 7  87978676.126 7  21485277.343                    21485292.047  
     -1812.625       -1411.914          45.000          45.000  
 109587356.178 7  85392802.796 7  20853782.007                    20853796.018  
     -1834.191       -1429.242          44.000          42.000  
 127799841.76025                  24319506.818                                  
     -2285.902                          34.000                  
 107498147.260 7  83764858.031 7  20456218.589                    20456234.256  
        49.363          38.316          45.000          43.000  
 126866106.047 6  98856781.422 6  24141821.203                    24141838.424  
     -3370.039       -2626.176          40.000          41.000  
 115345584.619 7  89879763.437 7  21949534.493                    21949553.899  
      2854.137        2223.977          44.000          42.000  
 24  1 10  3 20  6.8000000  0  8G08G24G18G23G16G10G15G32
 128769495.536 5 100339949.043 6  24504033.219                    24504053.566  
      2782.723        2168.453          35.000          37.000  
 128009581.217 6  99747817.939 6  24359412.949                    24359434.384  
       270.871         210.969          40.000          40.000  
 112906066.379 7  87978817.226 7  21485311.615                    21485326.044  
     -1812.484       -1411.887          45.000          45.000  
 109587539.606 7  85392945.728 7  20853817.014                    20853830.993  
     -1834.047       -1429.531          43.000          42.000  
 127800070.29825                  24319550.362                                  
     -2286.238                          34.000                  
 107498142.342 7  83764854.212 7  20456217.528                    20456233.753  
        49.207          38.492          45.000          44.000  
 126866442.992 6  98857044.080 6  24141885.353                    24141902.638  
     -3369.558       -2626.320          40.000          41.000  
 115345299.163 7  89879541.014 7  21949480.438                    21949499.386  
      2854.758        2224.238          44.000          42.000  
 24  1 10  3 20  6.9000000  0  8G08G24G18G23G16G10G15G32
 128769217.289 5 100339732.226 6  24503980.270                    24504000.617  
      2781.895        2168.215          35.000          38.000  
 128009554.221 6  99747796.945 6  24359407.812                    24359429.257  
       270.105         210.148          40.000          40.000  
 112906247.585 7  87978958.438 7  21485346.097                    21485360.529  
     -1812.047       -1412.086          45.000          45.000  
 109587723.105 7  85393088.706 7  20853851.933                    20853865.910  
     -1835.438       -1429.387          43.000          42.000  
 127800298.402 5                  24319593.769                                  
     -2285.312                          34.000                  
 107498137.441 7  83764850.402 7  20456216.596                    20456232.822  
        48.734          38.055          45.000          43.000  
 126866780.132 6  98857306.730 6  24141949.508                    24141966.780  
     -3370.859       -2626.262          40.000          41.000  
 115345013.766 7  89879318.597 7  21949426.129                    21949445.069  
      2854.160        2224.094          44.000          42.000  
 24  1 10  3 20  7.0000000  0  8G08G24G18G23G16G10G15G32
 128768939.001 5 100339515.418 6  24503927.446                    24503947.631  
      2783.023        2167.992          35.000          38.000  
 128009527.185 6  99747775.867 6  24359402.550                    24359424.383  
       270.320         210.727          40.000          40.000  
 112906428.792 7  87979099.651 7  21485380.666                    21485395.273  
     -1811.832       -1411.977          45.000          45.000  
 109587906.524 7  85393231.579 7  20853886.469                    20853900.973  
     -1834.527       -1429.598          43.000          42.000  
 127800526.853 5                  24319637.422                                  
     -2285.270                          34.000                  
 107498132.528 7  83764846.558 7  20456215.630                    20456231.774  
        49.207          38.191          45.000          43.000  
 126867117.150 6  98857569.339 6  24142013.039                    24142030.919  
     -3370.031       -2626.191          40.000          41.000  
 115344728.298 7  89879096.179 7  21949372.119                    21949390.690  
      2854.723        2224.355          44.000          42.000  
 24  1 10  3 20  7.1000000  0  8G08G24G18G23G16G10G15G32
 128768660.796 5 100339298.626 6  24503874.506                    24503894.689  
      2781.984        2168.008          35.000          38.000  
 128009500.153 6  99747754.779 6  24359397.406                    24359419.233  
       270.305         210.867          40.000          40.000  
 112906609.967 7  87979240.848 7  21485415.142                    21485429.755  
     -1811.914       -1411.824          45.000          45.000  
 109588089.995 7  85393374.627 7  20853921.382                    20853935.907  
     -1834.496       -1429.551          43.000          42.000  
 127800755.407 5                  24319680.914                                  
     -2285.211                          34.000                  
 107498127.654 7  83764842.781 7  20456214.702                    20456230.852  
        48.797          38.035          45.000          43.000  
 126867454.250 6  98857831.991 6  24142077.187                    24142095.062  
     -3371.090       -2626.406          40.000          41.000  
 115344442.837 7  89878873.755 7  21949317.797                    21949336.372  
      2854.539        2224.387          44.000          42.000  
 24  1 10  3 20  7.2000000  0  8G08G24G18G23G16G10G15G32
 128768382.574 5 100339081.812 6  24503821.304                    24503841.537  
      2782.363        2167.844          35.000          38.000  
 128009473.093 6  99747733.704 6  24359392.007                    24359413.829  
       270.355         210.875          40.000          39.000  
 112906791.141 7  87979382.029 7  21485449.744                    21485464.514  
     -1811.840       -1411.914          45.000          45.000  
 109588273.464 7  85393517.536 7  20853956.163                    20853970.150  
     -1834.684       -1429.500          43.000          42.000  
 127800983.983 5                  24319724.770                                  
     -2285.723                          34.000                  
 107498122.758 7  83764838.964 7  20456213.817                    20456230.107  
        48.867          38.125          45.000          43.000  
 126867791.227 6  98858094.566 6  24142141.984                    24142159.654  
     -3370.000       -2626.059          40.000          41.000  
 115344157.352 7  89878651.288 7  21949263.479                    21949282.043  
      2854.938        2224.574          44.000          42.000  
 24  1 10  3 20  7.3000000  0  8G08G24G18G23G16G10G15G32
 128768104.391 5 100338865.081 6  24503768.368                    24503788.609  
      2781.926        2167.453          35.000          38.000  
 128009445.973 6  99747712.602 6  24359386.846                    24359408.675  
       271.133         210.863          40.000          39.000  
 112906972.346 7  87979523.213 7  21485484.226                    21485498.992  
     -1811.969       -1411.703          45.000          45.000  
 109588456.896 7  85393660.494 7  20853991.068                    20854005.062  
     -1834.547       -1429.738          43.000          42.000  
 127801212.520 5                  24319768.259                                  
     -2285.219                          34.000                  
 107498117.896 7  83764835.160 7  20456212.892                    20456229.178  
        48.641          37.863          45.000          43.000  
 126868128.289 6  98858357.209 6  24142206.124                    24142223.794  
     -3370.555       -2626.461          40.000          41.000  
 115343871.884 7  89878428.844 7  21949209.156                    21949227.720  
      2854.668        2224.477          44.000          42.000  
 24  1 10  3 20  7.4000000  0  8G08G24G18G23G16G10G15G32
 128767826.264 5 100338648.329 6  24503715.325                    24503735.864  
      2781.031        2167.266          35.000          38.000  
 128009418.944 6  99747691.517 6  24359381.765                    24359403.276  
       270.367         210.680          39.000          39.000  
 112907153.532 7  87979664.366 7  21485518.673                    21485533.651  
     -1812.016       -1411.856          45.000          45.000  
 109588640.445 7  85393803.491 7  20854026.098                    20854039.780  
     -1835.262       -1429.680          43.000          42.000  
 127801441.131 5                  24319812.262                                  
     -2286.359                          33.000                  
 107498113.106 7  83764831.457 7  20456212.715                    20456228.422  
        48.074          37.328          45.000          43.000  
 126868465.406 6  98858619.867 6  24142269.752                    24142287.649  
     -3370.957       -2626.551          39.000          41.000  
 115343586.437 7  89878206.428 7  21949154.876                    21949173.615  
      2854.590        2224.152          44.000          42.000  
 24  1 10  3 20  7.5000000  0  8G08G24G18G23G16G10G15G32
 128767548.148 5 100338431.601 6  24503662.401                    24503682.936  
      2781.488        2167.164          35.000          38.000  
 128009391.917 6  99747670.461 6  24359376.622                    24359398.134  
       270.363         210.582          39.000          39.000  
 112907334.777 7  87979805.598 7  21485553.163                    21485568.141  
     -1812.520       -1412.090          45.000          45.000  
 109588823.936 7  85393946.446 7  20854061.015                    20854074.691  
     -1835.289       -1430.266          43.000          42.000  
 127801669.740 5                  24319855.765                                  
     -2285.742                          33.000                  
 107498108.299 7  83764827.685 7  20456211.800                    20456227.501  
        47.797          37.371          45.000          44.000  
 126868802.470 6  98858882.528 6  24142333.893                    24142351.793  
     -3370.445       -2626.605          40.000          41.000  
 115343301.001 7  89877984.000 7  21949100.560                    21949119.295  
      2854.504        2224.434          44.000          42.000  
 24  1 10  3 20  7.6000000  0  8G08G24G18G23G16G10G15G32
 128767270.045 5 100338214.928 6  24503609.308                    24503630.359  
      2781.148        2167.027          35.000          38.000  
 128009364.873 6  99747649.412 6  24359371.655                    24359392.392  
       270.477         210.594          39.000          38.000  
 112907515.968 7  87979946.768 7  21485587.885                    21485602.327  
     -1812.305       -1412.172          45.000          45.000  
 109589007.541 7  85394089.555 7  20854096.009                    20854110.085  
     -1835.512       -1430.312          43.000          42.000  
 127801898.352 5                  24319899.401                                  
     -2286.137                          33.000                  
 107498103.518 7  83764823.947 7  20456210.805                    20456227.096  
        47.953          37.098          45.000          44.000  
 126869139.521 6  98859145.205 6  24142397.282                    24142416.114  
     -3370.566       -2626.676          39.000          41.000  
 115343015.556 7  89877761.579 7  21949046.046                    21949064.993  
      2854.223        2223.852          44.000          42.000  
 24  1 10  3 20  7.7000000  0  8G08G24G18G23G16G10G15G32
 128766991.988 6 100337998.220 6  24503556.395                    24503577.436  
      2780.762        2166.906          36.000          38.000  
 128009337.855 6  99747628.304 6  24359366.514                    24359387.237  
       270.387         210.918          39.000          38.000  
 112907697.220 7  87980088.066 7  21485622.376                    21485636.834  
     -1812.059       -1412.133          45.000          45.000  
 109589191.056 7  85394232.554 7  20854130.931                    20854145.007  
     -1835.445       -1430.594          43.000          42.000  
 127802127.012 5                  24319942.914                                  
     -2286.340                          34.000                  
 107498098.787 7  83764820.294 7  20456209.904                    20456226.204  
        47.656          37.164          45.000          44.000  
 126869476.658 6  98859407.843 6  24142461.437                    24142480.252  
     -3371.039       -2626.574          38.000          41.000  
 115342730.140 7  89877539.172 7  21948991.733                    21949010.679  
      2854.445        2224.289          44.000          42.000  
 24  1 10  3 20  7.8000000  0  8G08G24G18G23G16G10G15G32
 128766713.926 6 100337781.581 6  24503503.185                    24503524.539  
      2780.750        2166.492          36.000          38.000  
 128009310.802 6  99747607.238 6  24359361.499                    24359381.265  
       270.391         210.648          39.000          38.000  
 112907878.416 7  87980229.197 7  21485656.606                    21485671.674  
     -1812.223       -1411.981          45.000          45.000  
 109589374.590 7  85394375.526 7  20854165.629                    20854180.297  
     -1835.457       -1430.082          43.000          42.000  
 127802355.623 5                  24319986.456                                  
     -2286.207                          34.000                  
 107498094.026 7  83764816.557 7  20456208.623                    20456224.971  
        47.523          37.062          45.000          44.000  
 126869813.679 6  98859670.520 6  24142525.609                    24142544.549  
     -3370.496       -2626.695          38.000          41.000  
 115342444.684 7  89877316.734 7  21948937.217                    21948956.030  
      2854.270        2224.102          44.000          42.000  
 24  1 10  3 20  7.9000000  0  8G08G24G18G23G16G10G15G32
 128766435.808 6 100337564.868 6  24503450.261                    24503471.615  
      2780.930        2166.926          36.000          38.000  
 128009283.734 6  99747586.130 6  24359356.348                    24359376.110  
       270.660         211.082          39.000          38.000  
 112908059.606 7  87980370.414 7  21485691.085                    21485706.161  
     -1811.883       -1411.973          45.000          45.000  
 109589558.142 7  85394518.621 7  20854200.558                    20854215.243  
     -1835.352       -1430.207          43.000          42.000  
 127802584.292 5                  24320029.971                                  
     -2286.324                          34.000                  
 107498089.254 7  83764812.839 7  20456207.715                    20456224.063  
        47.805          37.289          45.000          44.000  
 126870150.740 6  98859933.202 6  24142589.750                    24142608.699  
     -3370.473       -2626.578          40.000          41.000  
 115342159.233 7  89877094.326 7  21948882.898                    21948901.715  
      2854.492        2224.348          44.000          42.000  
 24  1 10  3 20  8.0000000  0  8G08G24G18G23G16G10G15G32
 128766157.729 6 100337348.185 6  24503397.141                    24503418.605  
      2780.887        2167.098          36.000          38.000  
 128009256.715 6  99747565.018 6  24359351.347                    24359370.860  
       270.262         211.164          39.000          38.000  
 112908240.774 7  87980511.588 7  21485725.717                    21485740.598  
     -1811.777       -1411.809          45.000          45.000  
 109589741.626 7  85394661.586 7  20854235.599                    20854250.125  
     -1835.086       -1429.992          43.000          42.000  
 127802812.854 5                  24320073.918                                  
     -2285.996                          34.000                  
 107498084.454 7  83764809.106 7  20456207.263                    20456223.105  
        47.844          37.277          45.000          44.000  
 126870487.878 6  98860195.828 6  24142654.678                    24142672.577  
     -3371.164       -2626.449          41.000          41.000  
 115341873.773 7  89876871.875 7  21948828.811                    21948847.539  
      2854.762        2224.699          44.000          42.000  
 24  1 10  3 20  8.1000000  0  8G08G24G18G23G16G10G15G32
 128765879.656 6 100337131.489 6  24503344.226                    24503365.686  
      2780.801        2166.973          36.000          38.000  
 128009229.669 6  99747543.990 6  24359346.200                    24359365.725  
       270.570         210.219          39.000          38.000  
 112908421.983 7  87980652.776 7  21485760.200                    21485775.078  
     -1811.852       -1411.691          45.000          45.000  
 109589925.153 7  85394804.609 7  20854270.523                    20854285.053  
     -1834.922       -1429.836          43.000          42.000  
 127803041.456 5                  24320117.419                                  
     -2286.051                          34.000                  
 107498079.661 7  83764805.379 7  20456206.351                    20456222.194  
        47.930          37.438          45.000          44.000  
 126870824.885 6  98860458.441 6  24142718.809                    24142736.710  
     -3370.832       -2626.816          41.000          40.000  
 115341588.303 7  89876649.427 7  21948774.488                    21948793.215  
      2854.602        2224.207          44.000          42.000  
 24  1 10  3 20  8.2000000  0  8G08G24G18G23G16G10G15G32
 128765601.612 6 100336914.826 6  24503291.042                    24503312.720  
      2780.551        2166.906          37.000          38.000  
 128009202.621 6  99747522.999 6  24359340.850                    24359360.779  
       270.277         210.090          39.000          38.000  
 112908603.170 7  87980793.960 7  21485794.546                    21485809.376  
     -1811.855       -1411.961          45.000          45.000  
 109590108.706 7  85394947.552 7  20854305.436                    20854319.672  
     -1835.660       -1430.008          43.000          42.000  
 127803270.143 5                  24320161.015                                  
     -2286.418                          34.000                  
 107498074.871 7  83764801.649 7  20456205.306                    20456221.541  
        47.992          37.270          45.000          44.000  
 126871161.978 6  98860721.227 6  24142783.697                    24142800.861  
     -3370.348       -2626.680          41.000          40.000  
 115341302.839 7  89876426.988 7  21948719.799                    21948739.190  
      2854.656        2224.254          44.000          42.000  
 24  1 10  3 20  8.3000000  0  8G08G24G18G23G16G10G15G32
 128765323.523 6 100336698.156 6  24503238.124                    24503259.807  
      2780.723        2166.441          37.000          38.000  
 128009175.645 6  99747501.928 6  24359335.717                    24359355.633  
       270.145         210.629          40.000          39.000  
 112908784.397 7  87980935.183 7  21485829.032                    21485843.865  
     -1812.246       -1412.418          45.000          45.000  
 109590292.179 7  85395090.539 7  20854340.350                    20854354.591  
     -1834.988       -1430.316          43.000          42.000  
 127803498.789 5                  24320204.525                                  
     -2286.359                          34.000                  
 107498070.106 7  83764797.929 7  20456204.400                    20456220.633  
        47.781          37.051          45.000          44.000  
 126871499.158 6  98860983.888 6  24142847.861                    24142865.006  
     -3371.277       -2626.805          41.000          40.000  
 115341017.423 7  89876204.588 7  21948665.486                    21948684.878  
      2854.391        2224.184          44.000          42.000  
 24  1 10  3 20  8.4000000  0  8G08G24G18G23G16G10G15G32
 128765045.511 6 100336481.462 6  24503184.962                    24503207.208  
      2780.461        2166.977          36.000          38.000  
 128009148.653 6  99747480.907 6  24359331.002                    24359350.976  
       269.965         210.234          39.000          39.000  
 112908965.673 7  87981076.410 7  21485863.364                    21485878.658  
     -1812.574       -1412.332          45.000          45.000  
 109590475.836 7  85395233.732 7  20854375.205                    20854389.724  
     -1835.695       -1430.801          43.000          42.000  
 127803727.396 5                  24320248.316                                  
     -2286.332                          34.000                  
 107498065.386 7  83764794.248 7  20456203.079                    20456219.164  
        47.375          36.762          45.000          44.000  
 126871836.287 7  98861246.516 6  24142912.085                    24142928.806  
     -3371.488       -2626.551          42.000          40.000  
 115340732.026 7  89875982.200 7  21948611.364                    21948630.709  
      2854.066        2223.652          44.000          42.000  
 24  1 10  3 20  8.5000000  0  8G08G24G18G23G16G10G15G32
 128764767.430 6 100336264.837 6  24503132.045                    24503154.306  
      2780.605        2166.383          37.000          38.000  
 128009121.706 6  99747459.879 6  24359325.874                    24359345.841  
       269.754         210.137          39.000          39.000  
 112909146.955 7  87981217.692 7  21485897.860                    21485913.161  
     -1812.633       -1412.551          45.000          45.000  
 109590659.443 7  85395376.671 7  20854410.144                    20854424.631  
     -1836.238       -1430.414          44.000          42.000  
 127803956.092 5                  24320291.836                                  
     -2286.559                          35.000                  
 107498060.674 7  83764790.580 7  20456202.183                    20456218.268  
        47.258          36.863          45.000          44.000  
 126872173.416 7  98861509.191 6  24142976.238                    24142992.954  
     -3371.410       -2627.039          43.000          40.000  
 115340446.641 7  89875759.834 7  21948557.057                    21948576.405  
      2853.867        2223.551          43.000          42.000  
 24  1 10  3 20  8.6000000  0  8G08G24G18G23G16G10G15G32
 128764489.375 6 100336048.146 6  24503079.179                    24503101.451  
      2780.523        2166.770          37.000          38.000  
 128009094.775 6  99747438.890 6  24359320.531                    24359340.894  
       269.473         210.082          39.000          40.000  
 112909328.275 7  87981359.008 7  21485932.521                    21485947.593  
     -1813.359       -1412.981          45.000          44.000  
 109590843.009 7  85395519.773 7  20854445.193                    20854459.461  
     -1835.488       -1430.645          44.000          42.000  
 127804184.760 5                  24320335.451                                  
     -2287.000                          35.000                  
 107498055.994 7  83764786.924 7  20456201.245                    20456217.109  
        46.754          36.406          45.000          44.000  
 126872510.529 7  98861771.956 6  24143040.802                    24143057.015  
     -3370.730       -2627.160          42.000          40.000  
 115340161.338 7  89875537.513 7  21948502.321                    21948521.417  
      2853.254        2223.473          43.000          42.000  
 24  1 10  3 20  8.7000000  0  8G08G24G18G23G16G10G15G32
 128764211.313 6 100335831.497 6  24503026.266                    24503048.543  
      2780.551        2166.652          37.000          38.000  
 128009067.762 6  99747417.866 6  24359315.390                    24359335.760  
       269.703         210.262          39.000          40.000  
 112909509.578 7  87981500.258 7  21485967.021                    21485982.088  
     -1813.098       -1412.949          46.000          44.000  
 109591026.655 7  85395662.861 7  20854480.140                    20854494.404  
     -1836.430       -1430.734          44.000          42.000  
 127804413.438 5                  24320378.967                                  
     -2286.484                          34.000                  
 107498051.326 7  83764783.301 7  20456200.357                    20456216.225  
        46.641          36.156          45.000          44.000  
 126872847.649 7  98862034.648 6  24143104.954                    24143121.167  
     -3371.176       -2626.980          42.000          40.000  
 115339875.999 7  89875315.175 7  21948448.022                    21948467.119  
      2853.375        2223.172          43.000          42.000  
 24  1 10  3 20  8.8000000  0  8G08G24G18G23G16G10G15G32
 128763933.281 6 100335614.832 6  24502973.593                    24502995.068  
      2780.473        2166.598          37.000          38.000  
 128009040.821 6  99747396.890 6  24359310.607                    24359331.380  
       269.645         209.844          40.000          40.000  
 112909690.913 7  87981641.562 7  21486001.700                    21486016.151  
     -1813.258       -1412.973          46.000          44.000  
 109591210.300 7  85395806.050 7  20854515.305                    20854529.638  
     -1836.184       -1431.481          44.000          42.000  
 127804642.130 5                  24320422.400                                  
     -2286.785                          35.000                  
 107498046.672 7  83764779.689 7  20456199.807                    20456215.210  
        46.691          36.281          45.000          44.000  
 126873184.756 6  98862297.310 6  24143168.932                    24143184.796  
     -3371.184       -2626.539          41.000          40.000  
 115339590.723 7  89875092.882 7  21948393.728                    21948412.927  
      2852.922        2222.828          44.000          42.000  
 24  1 10  3 20  8.9000000  0  8G08G24G18G23G16G10G15G32
 128763655.209 6 100335398.168 6  24502920.677                    24502942.157  
      2780.609        2166.750          37.000          38.000  
 128009013.844 6  99747375.867 6  24359305.474                    24359326.246  
       269.711         210.137          40.000          40.000  
 112909872.274 7  87981782.866 7  21486036.212                    21486050.659  
     -1813.332       -1413.023          46.000          44.000  
 109591393.917 7  85395949.015 7  20854550.246                    20854564.552  
     -1836.473       -1430.680          44.000          42.000  
 127804870.822 5                  24320465.919                                  
     -2286.895                          34.000                  
 107498042.065 7  83764776.076 7  20456198.931                    20456214.327  
        46.449          36.262          45.000          44.000  
 126873521.884 6  98862560.007 6  24143233.085                    24143248.949  
     -3371.223       -2627.121          40.000          40.000  
 115339305.435 7  89874870.565 7  21948339.440                    21948358.635  
      2853.000        2223.090          43.000          42.000  
 24  1 10  3 20  9.0000000  0  8G08G24G18G23G16G10G15G32
 128763377.150 6 100335181.490 6  24502867.929                    24502889.344  
      2780.582        2166.629          37.000          38.000  
 128008986.909 6  99747354.833 6  24359300.161                    24359321.297  
       269.480         210.332          39.000          40.000  
 112910053.649 7  87981924.184 7  21486070.266                    21486086.053  
     -1813.688       -1413.266          45.000          45.000  
 109591577.594 7  85396092.226 7  20854585.246                    20854599.283  
     -1836.305       -1431.512          44.000          42.000  
 127805099.493 5                  24320509.277                                  
     -2286.793                          34.000                  
 107498037.436 7  83764772.463 7  20456197.995                    20456213.484  
        46.211          35.836          45.000          44.000  
 126873859.107 6  98862822.691 6  24143296.882                    24143313.201  
     -3371.637       -2626.711          39.000          40.000  
 115339020.188 7  89874648.320 7  21948285.136                    21948304.860  
      2852.645        2222.652          43.000          42.000  
 24  1 10  3 20  9.1000000  0  8G08G24G18G23G16G10G15G32
 128763099.098 6 100334964.853 6  24502815.017                    24502836.438  
      2780.633        2166.359          37.000          38.000  
 128008959.968 6  99747333.833 6  24359295.034                    24359316.168  
       269.391         209.914          39.000          40.000  
 112910235.031 7  87982065.554 7  21486104.782                    21486120.577  
     -1813.684       -1413.559          45.000          45.000  
 109591761.250 7  85396235.263 7  20854620.194                    20854634.214  
     -1836.676       -1430.996          43.000          42.000  
 127805328.260 5                  24320552.810                                  
     -2287.203                          35.000                  
 107498032.828 7  83764768.888 7  20456197.118                    20456212.611  
        46.125          35.848          45.000          44.000  
 126874196.130 6  98863085.409 6  24143361.015                    24143377.359  
     -3370.808       -2627.027          41.000          40.000  
 115338734.956 7  89874426.050 7  21948230.858                    21948250.580  
      2852.426        2222.422          43.000          42.000  
 24  1 10  3 20  9.2000000  0  8G08G24G18G23G16G10G15G32
 128762821.061 6 100334748.150 6  24502762.249                    24502783.549  
      2780.500        2167.059          37.000          38.000  
 128008933.062 6  99747312.859 6  24359289.664                    24359310.937  
       269.277         209.820          39.000          40.000  
 112910416.414 7  87982206.868 7  21486139.172                    21486154.673  
     -1813.715       -1413.141          45.000          45.000  
 109591944.867 7  85396378.429 7  20854654.924                    20854669.052  
     -1836.227       -1430.973          44.000          42.000  
 127805556.983 5                  24320596.452                                  
     -2287.184                          34.000                  
 107498028.238 7  83764765.321 7  20456196.237                    20456211.795  
        46.176          36.027          45.000          44.000  
 126874533.274 7  98863348.053 6  24143425.999                    24143442.367  
     -3371.230       -2626.680          43.000          41.000  
 115338449.744 7  89874203.809 7  21948176.803                    21948196.329  
      2852.312        2222.457          43.000          42.000  
 24  1 10  3 20  9.3000000  0  8G08G24G18G23G16G10G15G32
 128762542.999 6 100334531.455 6  24502709.336                    24502730.630  
      2780.539        2166.965          37.000          38.000  
 128008906.111 6  99747291.918 6  24359284.535                    24359305.823  
       269.375         209.500          39.000          40.000  
 112910597.809 7  87982348.224 7  21486173.691                    21486189.194  
     -1813.883       -1413.430          45.000          44.000  
 109592128.530 7  85396521.501 7  20854689.874                    20854703.992  
     -1836.523       -1430.816          44.000          42.000  
 127805785.718 5                  24320639.978                                  
     -2287.207                          34.000                  
 107498023.593 7  83764761.670 7  20456195.353                    20456210.903  
        46.191          36.062          45.000          44.000  
 126874870.278 7  98863610.721 6  24143490.129                    24143506.513  
     -3370.539       -2626.902          43.000          41.000  
 115338164.522 7  89873981.550 7  21948122.527                    21948142.051  
      2852.258        2222.418          43.000          42.000  
 24  1 10  3 20  9.4000000  0  8G08G24G18G23G16G10G15G32
 128762264.897 6 100334314.817 6  24502656.180                    24502677.724  
      2780.828        2166.328          37.000          38.000  
 128008879.227 6  99747270.906 6  24359279.130                    24359300.668  
       269.121         209.934          39.000          40.000  
 112910779.203 7  87982489.590 7  21486208.428                    21486223.303  
     -1813.762       -1413.586          45.000          44.000  
 109592312.149 7  85396664.520 7  20854725.066                    20854739.270  
     -1836.496       -1430.824          44.000          42.000  
 127806014.377 5                  24320683.382                                  
     -2287.117                          34.000                  
 107498018.969 7  83764758.074 7  20456194.262                    20456209.415  
        46.309          36.090          45.000          43.000  
 126875207.452 7  98863873.500 6  24143555.705                    24143571.202  
     -3370.926       -2627.070          43.000          41.000  
 115337879.317 7  89873759.332 7  21948068.199                    21948087.823  
      2852.176        2222.324          44.000          42.000  
 24  1 10  3 20  9.5000000  0  8G08G24G18G23G16G10G15G32
 128761986.843 6 100334098.131 6  24502603.268                    24502624.807  
      2780.727        2166.980          37.000          38.000  
 128008852.262 6  99747249.956 6  24359273.999                    24359295.552  
       269.387         209.613          39.000          40.000  
 112910960.549 7  87982630.874 7  21486242.937                    21486257.806  
     -1813.855       -1413.199          45.000          44.000  
 109592495.826 7  85396807.702 7  20854760.018                    20854774.236  
     -1836.332       -1430.863          44.000          42.000  
 127806243.160 5                  24320726.918                                  
     -2287.418                          34.000                  
 107498014.324 7  83764754.449 7  20456193.378                    20456208.530  
        46.309          36.258          45.000          44.000  
 126875544.588 7  98864136.115 6  24143619.860                    24143635.335  
     -3371.582       -2626.898          42.000          41.000  
 115337594.104 7  89873537.064 7  21948013.925                    21948033.543  
      2852.203        2222.590          44.000          42.000  
 24  1 10  3 20  9.6000000  0  8G08G24G18G23G16G10G15G32
 128761708.757 6 100333881.450 6  24502550.256                    24502572.540  
      2780.719        2166.840          37.000          38.000  
 128008825.438 6  99747229.058 6  24359268.863                    24359290.456  
       268.742         208.984          39.000          40.000  
 112911142.002 7  87982772.290 7  21486277.489                    21486292.591  
     -1813.906       -1413.332          45.000          44.000  
 109592679.364 7  85396950.664 7  20854795.398                    20854808.985  
     -1836.031       -1430.711          44.000          42.000  
 127806471.899 5                  24320770.125                                  
     -2287.223                          34.000                  
 107498009.653 7  83764750.822 7  20456192.396                    20456207.887  
        46.570          36.234          45.000          44.000  
 126875881.678 6  98864398.793 6  24143683.358                    24143699.195  
     -3371.086       -2626.738          40.000          41.000  
 115337308.907 7  89873314.839 7  21947959.740                    21947979.429  
      2852.133        2222.359          44.000          42.000  
 24  1 10  3 20  9.7000000  0  8G08G24G18G23G16G10G15G32
 128761430.652 6 100333664.743 6  24502497.335                    24502519.618  
      2780.953        2166.887          37.000          38.000  
 128008798.598 6  99747208.097 6  24359263.756                    24359285.337  
       268.742         209.617          39.000          40.000  
 112911323.316 7  87982913.547 7  21486311.992                    21486327.087  
     -1813.648       -1413.191          45.000          44.000  
 109592862.997 7  85397093.872 6  20854830.342                    20854843.958  
     -1835.965       -1430.590          44.000          41.000  
 127806700.604 5                  24320813.646                                  
     -2287.117                          34.000                  
 107498004.964 7  83764747.178 7  20456191.503                    20456206.997  
        46.848          36.621          45.000          44.000  
 126876218.867 6  98864661.521 6  24143747.523                    24143763.356  
     -3371.504       -2627.062          39.000          41.000  
 115337023.677 7  89873092.592 7  21947905.462                    21947925.154  
      2852.215        2222.441          44.000          42.000  
 24  1 10  3 20  9.8000000  0  8G08G24G18G23G16G10G15G32
 128761152.554 6 100333448.018 6  24502444.586                    24502466.598  
      2780.949        2167.223          36.000          38.000  
 128008771.657 6  99747187.127 6  24359258.934                    24359280.201  
       269.023         209.484          39.000          41.000  
 112911504.673 7  87983054.862 7  21486346.379                    21486361.942  
     -1813.770       -1413.414          45.000          44.000  
 109593046.570 7  85397236.800 6  20854865.368                    20854878.167  
     -1836.070       -1430.465          43.000          41.000  
 127806929.311 5                  24320857.230                                  
     -2287.105                          33.000                  
 107498000.285 7  83764743.514 7  20456191.175                    20456206.383  
        46.703          36.477          45.000          44.000  
 126876555.919 6  98864924.206 6  24143810.451                    24143827.295  
     -3370.746       -2627.105          39.000          41.000  
 115336738.444 7  89872870.326 7  21947851.489                    21947870.445  
      2852.305        2222.695          44.000          42.000  
 24  1 10  3 20  9.9000000  0  8G08G24G18G23G16G10G15G32
 128760874.477 6 100333231.349 6  24502391.670                    24502413.685  
      2780.910        2167.027          36.000          38.000  
 128008744.795 6  99747166.187 6  24359253.822                    24359275.087  
       268.656         209.477          39.000          41.000  
 112911686.049 7  87983196.215 7  21486380.893                    21486396.461  
     -1813.535       -1413.023          45.000          44.000  
 109593230.158 7  85397379.924 6  20854900.304                    20854913.119  
     -1835.836       -1430.414          43.000          41.000  
 127807158.057 5                  24320900.759                                  
     -2287.191                          33.000                  
 107497995.575 7  83764739.825 7  20456190.279                    20456205.482  
        46.918          36.613          45.000          44.000  
 126876892.963 6  98865186.905 6  24143874.588                    24143891.449  
     -3370.938       -2627.117          37.000          40.000  
 115336453.224 7  89872648.089 7  21947797.213                    21947816.172  
      2852.336        2222.516          44.000          42.000  
 24  1 10  3 20 10.0000000  0  8G08G24G18G23G16G10G15G32
 128760596.354 6 100333014.638 6  24502339.057                    24502360.543  
      2781.004        2167.199          36.000          38.000  
 128008717.980 6  99747145.272 6  24359248.728                    24359270.659  
       268.520         209.348          40.000          41.000  
 112911867.444 7  87983337.560 7  21486415.615                    21486430.667  
     -1813.898       -1413.625          45.000          44.000  
 109593413.782 7  85397522.943 7  20854934.989                    20854948.616  
     -1836.129       -1430.891          44.000          42.000  
 127807386.761 5                  24320944.069                                  
     -2287.262                          34.000                  
 107497990.895 7  83764736.228 7  20456189.061                    20456205.244  
        46.914          36.340          45.000          44.000  
 126877230.244 6  98865449.646 6  24143937.380                    24143955.058  
     -3371.656       -2627.078          38.000          40.000  
 115336167.983 7  89872425.812 7  21947743.067                    21947761.757  
      2852.125        2222.406          44.000          42.000  
 24  1 10  3 20 10.1000000  0  8G08G24G18G23G16G10G15G32
 128760318.338 6 100332797.971 6  24502286.153                    24502307.631  
      2780.695        2166.805          36.000          38.000  
 128008691.077 6  99747124.326 6  24359243.608                    24359265.544  
       268.730         209.367          39.000          41.000  
 112912048.829 7  87983478.881 7  21486450.131                    21486465.179  
     -1813.922       -1413.070          45.000          44.000  
 109593597.367 7  85397666.078 6  20854969.924                    20854983.571  
     -1835.848       -1431.031          45.000          41.000  
 127807615.458 5                  24320987.588                                  
     -2286.984                          34.000                  
 107497986.227 7  83764732.558 7  20456188.172                    20456204.348  
        46.789          36.586          45.000          44.000  
 126877567.312 6  98865712.299 6  24144001.522                    24144019.201  
     -3371.258       -2626.773          38.000          40.000  
 115335882.754 7  89872203.563 7  21947688.789                    21947707.482  
      2852.371        2222.676          44.000          42.000  
 24  1 10  3 20 10.2000000  0  8G08G24G18G23G16G10G15G32
 128760040.252 6 100332581.300 6  24502233.290                    24502254.319  
      2780.703        2166.828          36.000          38.000  
 128008664.237 6  99747103.410 6  24359238.493                    24359260.912  
       268.520         209.070          39.000          41.000  
 112912230.227 7  87983620.241 7  21486484.845                    21486499.489  
     -1813.902       -1413.492          45.000          44.000  
 109593780.993 7  85397809.172 6  20855005.687                    20855018.571  
     -1836.191       -1431.035          45.000          41.000  
 127807844.148 5                  24321030.896                                  
     -2287.043                          34.000                  
 107497981.523 7  83764728.920 7  20456186.894                    20456203.522  
        46.887          36.199          45.000          44.000  
 126877904.531 6  98865975.060 6  24144065.427                    24144084.104  
     -3371.879       -2627.480          39.000          40.000  
 115335597.501 7  89871981.281 7  21947634.703                    21947653.378  
      2852.363        2222.590          44.000          42.000  
 24  1 10  3 20 10.3000000  0  8G08G24G18G23G16G10G15G32
 128759762.152 6 100332364.625 6  24502180.369                    24502201.405  
      2780.812        2166.551          36.000          38.000  
 128008637.445 6  99747082.475 6  24359233.394                    24359255.800  
       268.383         209.160          39.000          41.000  
 112912411.571 7  87983761.588 7  21486519.354                    21486534.008  
     -1813.520       -1413.379          45.000          44.000  
 109593964.572 7  85397952.206 6  20855040.621                    20855053.501  
     -1835.762       -1430.039          44.000          41.000  
 127808072.798 5                  24321074.406                                  
     -2286.750                          34.000                  
 107497976.848 7  83764725.287 7  20456186.005                    20456202.635  
        46.875          36.684          45.000          43.000  
 126878241.636 6  98866237.754 6  24144129.576                    24144148.257  
     -3371.199       -2627.230          38.000          40.000  
 115335312.203 7  89871758.975 7  21947580.412                    21947599.088  
      2852.691        2222.891          44.000          42.000  
 24  1 10  3 20 10.4000000  0  8G08G24G18G23G16G10G15G32
 128759484.134 6 100332147.969 6  24502127.612                    24502148.417  
      2780.473        2166.500          36.000          38.000  
 128008610.625 6  99747061.637 6  24359228.220                    24359250.820  
       268.184         208.555          39.000          41.000  
 112912593.024 7  87983902.950 7  21486553.438                    21486568.866  
     -1814.094       -1413.621          45.000          44.000  
 109594148.238 7  85398095.259 6  20855074.642                    20855088.140  
     -1836.551       -1431.238          43.000          41.000  
 127808301.473 5                  24321117.945                                  
     -2286.758                          34.000                  
 107497972.169 7  83764721.620 7  20456184.935                    20456201.357  
        46.840          36.492          45.000          43.000  
 126878578.888 6  98866500.534 6  24144193.292                    24144212.016  
     -3372.203       -2627.785          38.000          40.000  
 115335026.979 7  89871536.724 7  21947525.613                    21947544.719  
      2852.523        2222.863          44.000          42.000  
 24  1 10  3 20 10.5000000  0  8G08G24G18G23G16G10G15G32
 128759206.104 5 100331931.315 6  24502074.705                    24502095.508  
      2780.414        2166.500          35.000          38.000  
 128008583.842 6  99747040.752 6  24359223.124                    24359245.720  
       268.004         208.910          39.000          41.000  
 112912774.397 7  87984044.202 7  21486587.952                    21486603.361  
     -1814.301       -1413.254          45.000          45.000  
 109594331.845 7  85398238.411 7  20855109.581                    20855123.099  
     -1836.094       -1430.981          43.000          42.000  
 127808530.188 5                  24321161.468                                  
     -2286.914                          34.000                  
 107497967.495 7  83764717.970 7  20456184.045                    20456200.465  
        46.777          36.613          45.000          43.000  
 126878916.222 6  98866763.280 6  24144257.484                    24144276.182  
     -3372.547       -2627.602          38.000          40.000  
 115334741.700 7  89871314.427 7  21947471.326                    21947490.432  
      2852.695        2222.859          44.000          42.000  
 24  1 10  3 20 10.6000000  0  8G08G24G18G23G16G10G15G32
 128758928.019 6 100331714.632 6  24502022.099                    24502042.858  
      2780.695        2166.828          36.000          38.000  
 128008557.048 6  99747019.904 6  24359217.978                    24359240.402  
       267.863         208.672          39.000          41.000  
 112912955.803 7  87984185.646 7  21486622.613                    21486638.247  
     -1813.734       -1413.723          45.000          45.000  
 109594515.495 7  85398381.477 7  20855143.505                    20855158.271  
     -1836.324       -1430.684          44.000          42.000  
 127808758.818 5                  24321205.272                                  
     -2286.680                          33.000                  
 107497962.797 7  83764714.296 7  20456183.526                    20456199.857  
        46.797          36.457          45.000          43.000  
 126879253.302 6  98867026.069 6  24144321.769                    24144340.420  
     -3371.551       -2627.648          38.000          40.000  
 115334456.426 7  89871092.151 7  21947416.813                    21947436.165  
      2852.707        2223.074          44.000          42.000  
 24  1 10  3 20 10.7000000  0  8G08G24G18G23G16G10G15G32
 128758649.991 6 100331498.014 6  24501969.193                    24501989.957  
      2780.312        2166.348          36.000          38.000  
 128008530.290 6  99746999.031 6  24359212.886                    24359235.305  
       267.840         208.543          39.000          41.000  
 112913137.234 7  87984326.987 7  21486657.138                    21486672.764  
     -1814.285       -1413.809          45.000          45.000  
 109594699.131 7  85398524.533 7  20855178.450                    20855193.207  
     -1836.320       -1430.785          44.000          42.000  
 127808987.510 5                  24321248.790                                  
     -2286.648                          34.000                  
 107497958.107 7  83764710.673 7  20456182.634                    20456198.973  
        46.871          36.418          45.000          44.000  
 126879590.479 6  98867288.793 6  24144385.932                    24144404.580  
     -3371.828       -2627.508          38.000          40.000  
 115334171.160 7  89870869.856 7  21947362.529                    21947381.879  
      2852.574        2222.824          44.000          42.000  
 24  1 10  3 20 10.8000000  0  8G08G24G18G23G16G10G15G32
 128758371.973 6 100331281.343 6  24501915.827                    24501936.841  
      2780.348        2166.414          36.000          38.000  
 128008503.500 6  99746978.193 6  24359207.429                    24359229.544  
       267.738         208.637          40.000          41.000  
 112913318.705 7  87984468.395 7  21486691.882                    21486707.414  
     -1814.387       -1413.668          45.000          45.000  
 109594882.776 7  85398667.633 7  20855214.537                    20855228.271  
     -1836.449       -1431.246          44.000          42.000  
 127809216.156 5                  24321291.902                                  
     -2286.613                          34.000                  
 107497953.451 7  83764707.029 7  20456181.927                    20456198.043  
        46.793          36.406          45.000          44.000  
 126879927.705 6  98867551.559 6  24144450.190                    24144468.750  
     -3372.039       -2627.633          38.000          40.000  
 115333885.915 7  89870647.601 7  21947308.132                    21947327.391  
      2852.562        2222.504          44.000          42.000  
 24  1 10  3 20 10.9000000  0  8G08G24G18G23G16G10G15G32
 128758093.959 6 100331064.714 6  24501862.922                    24501883.938  
      2780.199        2166.402          36.000          38.000  
 128008476.837 6  99746957.361 6  24359202.355                    24359224.457  
       267.297         208.297          40.000          41.000  
 112913500.136 7  87984609.813 7  21486726.407                    21486741.950  
     -1814.293       -1414.438          45.000          45.000  
 109595066.467 7  85398810.784 7  20855249.492                    20855263.230  
     -1836.691       -1431.160          44.000          42.000  
 127809444.921 5                  24321335.435                                  
     -2287.086                          33.000                  
 107497948.811 7  83764703.421 7  20456181.044                    20456197.162  
        46.477          35.941          45.000          44.000  
 126880264.929 6  98867814.404 6  24144514.361                    24144532.939  
     -3372.242       -2628.492          38.000          40.000  
 115333600.716 7  89870425.356 7  21947253.860                    21947273.116  
      2852.117        2222.363          44.000          42.000  
 24  1 10  3 20 11.0000000  0  8G08G24G18G23G16G10G15G32
 128757815.896 6 100330848.046 6  24501809.759                    24501831.252  
      2780.504        2166.711          36.000          38.000  
 128008450.002 6  99746936.507 6  24359197.553                    24359219.372  
       267.762         208.566          40.000          41.000  
 112913681.586 7  87984751.167 7  21486760.920                    21486776.501  
     -1814.719       -1413.531          45.000          45.000  
 109595250.069 7  85398953.845 7  20855284.493                    20855297.651  
     -1836.422       -1431.039          44.000          42.000  
 127809673.621 5                  24321378.869                                  
     -2287.047                          33.000                  
 107497944.148 7  83764699.790 7  20456180.360                    20456196.494  
        46.543          36.344          45.000          44.000  
 126880602.227 6  98868077.172 6  24144578.484                    24144597.118  
     -3372.539       -2627.570          40.000          40.000  
 115333315.503 7  89870203.112 7  21947199.633                    21947218.998  
      2852.160        2222.383          43.000          42.000  
 24  1 10  3 20 11.1000000  0  8G08G24G18G23G16G10G15G32
 128757537.810 6 100330631.362 6  24501756.841                    24501778.336  
      2780.684        2166.770          37.000          38.000  
 128008423.243 6  99746915.662 6  24359192.461                    24359214.281  
       267.645         208.484          39.000          41.000  
 112913863.035 7  87984892.564 7  21486795.449                    21486811.032  
     -1814.438       -1414.000          45.000          44.000  
 109595433.729 7  85399096.953 7  20855319.442                    20855332.599  
     -1836.340       -1430.766          44.000          42.000  
 127809902.271 5                  24321422.379                                  
     -2286.648                          33.000                  
 107497939.463 7  83764696.121 7  20456179.469                    20456195.598  
        46.738          36.445          45.000          44.000  
 126880939.409 6  98868339.866 6  24144642.648                    24144661.270  
     -3372.301       -2627.402          40.000          40.000  
 115333030.303 7  89869980.873 7  21947145.361                    21947164.725  
      2852.086        2222.496          43.000          42.000  
 24  1 10  3 20 11.2000000  0  8G08G24G18G23G16G10G15G32
 128757259.728 6 100330414.672 6  24501703.994                    24501725.652  
      2780.699        2166.914          37.000          38.000  
 128008396.537 6  99746894.786 6  24359187.715                    24359209.363  
       267.352         208.535          39.000          41.000  
 112914044.503 7  87985033.963 7  21486829.809                    21486845.836  
     -1814.633       -1414.121          45.000          44.000  
 109595617.382 7  85399240.100 7  20855354.585                    20855367.386  
     -1836.492       -1431.375          44.000          42.000  
 127810130.921 5                  24321466.078                                  
     -2286.703                          33.000                  
 107497934.834 7  83764692.519 7  20456178.517                    20456194.406  
        46.547          36.301          45.000          44.000  
 126881276.584 6  98868602.649 6  24144707.224                    24144725.937  
     -3371.832       -2627.555          40.000          40.000  
 115332745.113 7  89869758.647 7  21947091.005                    21947110.619  
      2851.973        2222.180          43.000          42.000  
 24  1 10  3 20 11.3000000  0  8G08G24G18G23G16G10G15G32
 128756981.663 6 100330197.994 6  24501651.080                    24501672.737  
      2780.746        2166.656          37.000          38.000  
 128008369.913 6  99746874.005 6  24359182.649                    24359204.288  
       266.793         207.703          39.000          40.000  
 112914226.036 7  87985175.445 7  21486864.354                    21486880.388  
     -1814.922       -1414.285          45.000          44.000  
 109595801.010 7  85399383.156 7  20855389.529                    20855402.321  
     -1836.504       -1431.047          44.000          42.000  
 127810359.699 5                  24321509.613                                  
     -2287.352                          33.000                  
 107497930.178 7  83764688.895 7  20456177.631                    20456193.521  
        46.562          36.031          45.000          44.000  
 126881613.805 6  98868865.434 6  24144771.395                    24144790.111  
     -3372.332       -2627.785          39.000          40.000  
 115332459.985 7  89869536.487 7  21947036.747                    21947056.366  
      2851.609        2221.867          44.000          42.000  
 24  1 10  3 20 11.4000000  0  8G08G24G18G23G16G10G15G32
 128756703.589 6 100329981.330 6  24501598.367                    24501619.708  
      2780.812        2166.926          37.000          38.000  
 128008343.193 6  99746853.258 6  24359177.806                    24359198.916  
       266.988         207.785          39.000          40.000  
 112914407.547 7  87985316.860 7  21486898.730                    21486913.891  
     -1815.070       -1414.449          45.000          44.000  
 109595984.698 7  85399526.303 7  20855424.046                    20855438.310  
     -1836.492       -1430.988          44.000          42.000  
 127810588.376 5                  24321552.800                                  
     -2286.906                          34.000                  
 107497925.520 7  83764685.300 7  20456176.722                    20456192.565  
        46.582          36.230          45.000          44.000  
 126881951.131 6  98869128.219 6  24144835.485                    24144854.021  
     -3372.566       -2627.680          40.000          41.000  
 115332174.828 7  89869314.243 7  21946982.577                    21947001.794  
      2851.363        2221.879          44.000          42.000  
 24  1 10  3 20 11.5000000  0  8G08G24G18G23G16G10G15G32
 128756425.468 6 100329764.580 6  24501545.442                    24501566.776  
      2781.047        2167.406          37.000          38.000  
 128008316.534 6  99746832.404 6  24359172.733                    24359193.824  
       266.875         208.254          39.000          40.000  
 112914589.067 7  87985458.273 7  21486933.272                    21486948.426  
     -1815.242       -1414.418          45.000          44.000  
 109596168.369 7  85399669.387 7  20855458.997                    20855473.253  
     -1836.809       -1431.016          44.000          42.000  
 127810817.058 5                  24321596.317                                  
     -2286.828                          33.000                  
 107497920.868 7  83764681.641 7  20456175.836                    20456191.672  
        46.414          36.207          45.000          44.000  
 126882288.320 6  98869390.912 6  24144899.650                    24144918.173  
     -3372.457       -2627.441          41.000          41.000  
 115331889.705 7  89869092.096 7  21946928.320                    21946947.544  
      2851.449        2221.688          44.000          42.000  
 24  1 10  3 20 11.6000000  0  8G08G24G18G23G16G10G15G32
 128756147.324 6 100329547.862 6  24501492.131                    24501513.960  
      2781.164        2167.281          37.000          38.000  
 128008289.778 6  99746811.617 6  24359167.618                    24359187.763  
       267.121         207.785          38.000          39.000  
 112914770.628 7  87985599.796 7  21486967.916                    21486982.691  
     -1815.324       -1414.707          45.000          45.000  
 109596352.035 7  85399812.544 7  20855494.393                    20855508.190  
     -1836.574       -1431.379          45.000          42.000  
 127811045.787 5                  24321639.429                                  
     -2287.055                          33.000                  
 107497916.236 7  83764678.038 7  20456175.096                    20456190.925  
        46.488          36.215          45.000          44.000  
 126882625.435 6  98869653.721 6  24144964.371                    24144982.768  
     -3371.531       -2627.578          41.000          41.000  
 115331604.635 7  89868869.969 7  21946874.144                    21946893.392  
      2851.090        2221.301          43.000          42.000  
 24  1 10  3 20 11.7000000  0  8G08G24G18G23G16G10G15G32
 128755869.180 6 100329331.161 6  24501439.201                    24501461.040  
      2781.332        2167.141          37.000          38.000  
 128008263.152 6  99746790.841 6  24359162.552                    24359182.689  
       266.586         207.828          39.000          39.000  
 112914952.203 7  87985741.235 7  21487002.469                    21487017.231  
     -1815.691       -1414.785          45.000          45.000  
 109596535.702 7  85399955.657 7  20855529.344                    20855543.140  
     -1836.730       -1431.414          44.000          42.000  
 127811274.451 5                  24321682.942                                  
     -2287.004                          33.000                  
 107497911.610 7  83764674.429 7  20456174.215                    20456190.043  
        46.316          36.098          45.000          44.000  
 126882962.646 6  98869916.541 6  24145028.540                    24145046.951  
     -3371.586       -2627.652          41.000          41.000  
 115331319.589 7  89868647.857 7  21946819.901                    21946839.150  
      2850.672        2221.297          43.000          42.000  
 24  1 10  3 20 11.8000000  0  8G08G24G18G23G16G10G15G32
 128755591.081 6 100329114.419 6  24501386.148                    24501408.312  
      2781.203        2167.145          37.000          38.000  
 128008236.569 6  99746770.186 6  24359157.243                    24359177.254  
       266.293         206.879          39.000          39.000  
 112915133.817 7  87985882.781 7  21487037.185                    21487052.431  
     -1815.910       -1415.574          45.000          45.000  
 109596719.369 7  85400098.805 7  20855564.294                    20855577.668  
     -1836.574       -1431.305          44.000          42.000  
 127811503.202 5                  24321726.511                                  
     -2287.176                          33.000                  
 107497906.992 7  83764670.823 7  20456172.977                    20456189.538  
        46.238          35.930          45.000          44.000  
 126883299.923 6  98870179.248 6  24145093.237                    24145111.091  
     -3372.617       -2627.508          41.000          41.000  
 115331034.565 7  89868425.738 7  21946766.186                    21946784.742  
      2850.430        2220.848          43.000          42.000  
 24  1 10  3 20 11.9000000  0  8G08G24G18G23G16G10G15G32
 128755312.873 6 100328897.634 6  24501333.207                    24501355.371  
      2781.602        2167.629          37.000          38.000  
 128008209.873 6  99746749.391 6  24359152.163                    24359172.176  
       266.547         207.688          38.000          39.000  
 112915315.399 7  87986024.248 7  21487071.739                    21487086.979  
     -1816.000       -1414.789          45.000          45.000  
 109596903.055 7  85400241.908 7  20855599.249                    20855612.615  
     -1836.758       -1431.180          43.000          42.000  
 127811731.852 5                  24321770.021                                  
     -2286.855                          33.000                  
 107497902.340 7  83764667.190 7  20456172.092                    20456188.650  
        46.371          36.223          45.000          44.000  
 126883637.148 6  98870441.974 6  24145157.409                    24145175.251  
     -3372.516       -2627.598          41.000          41.000  
 115330749.544 7  89868203.672 7  21946711.948                    21946730.511  
      2850.418        2220.898          43.000          42.000  
 24  1 10  3 20 12.0000000  0  8G08G24G18G23G16G10G15G32
 128755034.688 6 100328680.876 6  24501280.130                    24501302.562  
      2781.750        2167.801          37.000          38.000  
 128008183.286 6  99746728.661 6  24359146.713                    24359167.067  
       266.156         207.098          39.000          39.000  
 112915497.007 7  87986165.786 7  21487106.227                    21487121.653  
     -1815.746       -1415.078          45.000          45.000  
 109597086.680 7  85400384.969 7  20855633.418                    20855647.951  
     -1836.539       -1430.910          43.000          42.000  
 127811960.585 5                  24321813.712                                  
     -2287.113                          33.000                  
 107497897.673 7  83764663.584 7  20456171.235                    20456187.590  
        46.562          36.137          45.000          44.000  
 126883974.327 6  98870704.781 6  24145221.986                    24145239.541  
     -3371.918       -2627.762          41.000          41.000  
 115330464.541 7  89867981.583 7  21946657.542                    21946676.845  
      2850.141        2220.707          43.000          42.000  
 24  1 10  3 20 12.1000000  0  8G08G24G18G23G16G10G15G32
 128754756.487 6 100328464.099 6  24501227.190                    24501249.622  
      2781.945        2167.828          37.000          38.000  
 128008156.706 6  99746707.942 6  24359141.655                    24359162.007  
       266.082         207.297          38.000          39.000  
 112915678.603 7  87986307.322 7  21487140.784                    21487156.218  
     -1815.914       -1415.094          45.000          44.000  
 109597270.367 7  85400528.124 7  20855668.372                    20855682.911  
     -1836.648       -1431.266          44.000          42.000  
 127812189.327 5                  24321857.240                                  
     -2287.219                          34.000                  
 107497893.026 7  83764659.946 7  20456170.351                    20456186.702  
        46.551          36.418          45.000          44.000  
 126884311.550 6  98870967.496 6  24145286.157                    24145303.699  
     -3372.207       -2627.348          41.000          41.000  
 115330179.545 7  89867759.518 7  21946603.310                    21946622.615  
      2850.086        2220.891          43.000          42.000  
 24  1 10  3 20 12.2000000  0  8G08G24G18G23G16G10G15G32
 128754478.248 6 100328247.276 6  24501174.422                    24501196.477  
      2782.090        2168.012          37.000          38.000  
 128008130.060 6  99746687.218 6  24359136.319                    24359156.930  
       266.207         206.906          38.000          39.000  
 112915860.214 7  87986448.797 7  21487174.992                    21487190.767  
     -1815.934       -1415.043          45.000          44.000  
 109597453.977 7  85400671.162 7  20855703.070                    20855717.787  
     -1836.312       -1430.539          44.000          42.000  
 127812418.005 5                  24321900.444                                  
     -2287.004                          34.000                  
 107497888.343 7  83764656.283 7  20456169.311                    20456185.815  
        46.762          36.695          45.000          44.000  
 126884648.759 6  98871230.273 6  24145350.287                    24145367.645  
     -3371.926       -2627.320          41.000          40.000  
 115329894.532 7  89867537.423 7  21946549.112                    21946568.150  
      2850.016        2220.672          43.000          42.000  
 24  1 10  3 20 12.3000000  0  8G08G24G18G23G16G10G15G32
 128754200.014 6 100328030.480 6  24501121.476                    24501143.533  
      2782.305        2168.223          37.000          38.000  
 128008103.464 6  99746666.502 6  24359131.258                    24359151.871  
       266.184         207.031          38.000          39.000  
 112916041.817 7  87986590.270 7  21487209.550                    21487225.316  
     -1816.207       -1415.035          45.000          44.000  
 109597637.594 7  85400814.288 7  20855738.011                    20855752.740  
     -1836.102       -1430.902          43.000          42.000  
 127812646.715 5                  24321943.966                                  
     -2286.938                          34.000                  
 107497883.618 7  83764652.607 7  20456168.412                    20456184.917  
        46.988          36.547          45.000          44.000  
 126884985.956 6  98871492.967 6  24145414.454                    24145431.797  
     -3372.246       -2627.305          41.000          40.000  
 115329609.551 7  89867315.367 7  21946494.882                    21946513.922  
      2850.012        2220.852          43.000          42.000  
 24  1 10  3 20 12.4000000  0  8G08G24G18G23G16G10G15G32
 128753921.751 6 100327813.646 6  24501068.712                    24501089.924  
      2782.438        2168.125          37.000          38.000  
 128008076.796 6  99746645.794 6  24359125.652                    24359146.533  
       266.223         206.961          38.000          39.000  
 112916223.393 7  87986731.835 7  21487243.970                    21487259.732  
     -1815.578       -1415.133          45.000          44.000  
 109597821.163 7  85400957.262 7  20855772.849                    20855786.906  
     -1836.145       -1430.504          43.000          42.000  
 127812875.355 5                  24321987.162                                  
     -2286.695                          34.000                  
 107497878.889 7  83764648.949 7  20456167.645                    20456184.024  
        47.250          36.758          45.000          44.000  
 126885323.118 6  98871755.742 6  24145478.457                    24145495.548  
     -3371.707       -2627.469          39.000          40.000  
 115329324.532 7  89867093.253 7  21946440.551                    21946459.500  
      2850.070        2220.863          43.000          42.000  
 24  1 10  3 20 12.5000000  0  8G08G24G18G23G16G10G15G32
 128753643.473 6 100327596.816 6  24501015.757                    24501036.972  
      2782.617        2168.375          37.000          38.000  
 128008050.322 6  99746625.045 6  24359120.614                    24359141.466  
       265.562         207.523          39.000          39.000  
 112916405.002 7  87986873.315 7  21487278.529                    21487294.283  
     -1816.141       -1415.082          45.000          44.000  
 109598004.709 7  85401100.366 7  20855807.777                    20855821.853  
     -1835.625       -1430.723          43.000          42.000  
 127813104.103 5                  24322030.691                                  
     -2287.180                          34.000                  
 107497874.146 7  83764645.209 7  20456166.742                    20456183.110  
        47.230          37.066          45.000          44.000  
 126885660.222 6  98872018.468 6  24145542.606                    24145559.708  
     -3371.578       -2627.223          38.000          40.000  
 115329039.547 7  89866871.210 7  21946386.320                    21946405.274  
      2849.977        2220.547          44.000          42.000  
 24  1 10  3 20 12.6000000  0  8G08G24G18G23G16G10G15G32
 128753365.180 6 100327379.949 6  24500962.855                    24500983.776  
      2782.855        2168.531          36.000          38.000  
 128008023.704 6  99746604.318 6  24359116.072                    24359136.388  
       265.910         207.230          39.000          40.000  
 112916586.592 7  87987014.825 7  21487313.271                    21487328.411  
     -1815.781       -1414.766          45.000          44.000  
 109598188.308 7  85401243.399 7  20855842.871                    20855857.291  
     -1835.832       -1430.203          44.000          42.000  
 127813332.731 5                  24322074.174                                  
     -2286.414                          33.000                  
 107497869.369 7  83764641.517 7  20456166.029                    20456181.889  
        47.578          37.090          45.000          44.000  
 126885997.463 6  98872281.195 6  24145605.476                    24145623.385  
     -3371.906       -2627.270          39.000          40.000  
 115328754.535 7  89866649.123 7  21946332.092                    21946351.640  
      2850.039        2220.934          43.000          42.000  
 24  1 10  3 20 12.7000000  0  8G08G24G18G23G16G10G15G32
 128753086.927 6 100327163.122 6  24500909.905                    24500930.825  
      2782.676        2168.395          36.000          38.000  
 128007997.133 6  99746583.653 6  24359111.016                    24359131.342  
       265.801         206.578          39.000          40.000  
 112916768.217 7  87987156.312 7  21487347.834                    21487362.964  
     -1816.289       -1415.164          45.000          44.000  
 109598371.887 7  85401386.453 7  20855877.805                    20855892.226  
     -1835.684       -1430.680          44.000          42.000  
 127813561.396 5                  24322117.688                                  
     -2286.949                          34.000                  
 107497864.662 7  83764637.826 7  20456165.133                    20456180.987  
        47.367          36.980          45.000          44.000  
 126886334.576 6  98872543.935 6  24145669.627                    24145687.548  
     -3371.414       -2627.316          39.000          41.000  
 115328469.562 7  89866427.050 7  21946277.864                    21946297.408  
      2849.902        2220.621          44.000          42.000  
 24  1 10  3 20 12.8000000  0  8G08G24G18G23G16G10G15G32
 128752808.642 6 100326946.278 6  24500856.590                    24500878.143  
      2782.719        2168.301          36.000          38.000  
 128007970.580 6  99746562.974 6  24359106.455                    24359127.213  
       265.660         207.148          39.000          40.000  
 112916949.871 7  87987297.909 7  21487382.831                    21487397.739  
     -1816.383       -1415.758          45.000          44.000  
 109598555.534 7  85401529.561 7  20855912.947                    20855927.058  
     -1836.281       -1430.738          43.000          42.000  
 127813790.086 5                  24322161.229                                  
     -2286.809                          34.000                  
 107497859.946 7  83764634.166 7  20456164.056                    20456180.554  
        47.148          36.508          45.000          44.000  
 126886671.874 6  98872806.717 6  24145733.578                    24145751.957  
     -3372.129       -2627.551          40.000          41.000  
 115328184.606 7  89866205.016 7  21946223.927                    21946243.036  
      2849.637        2220.297          44.000          42.000  
 24  1 10  3 20 12.9000000  0  8G08G24G18G23G16G10G15G32
 128752530.386 6 100326729.471 6  24500803.639                    24500825.196  
      2782.688        2168.027          36.000          38.000  
 128007944.036 6  99746542.271 6  24359101.404                    24359122.158  
       265.488         206.918          38.000          40.000  
 112917131.520 7  87987439.431 7  21487417.397                    21487432.300  
     -1816.477       -1415.402          45.000          45.000  
 109598739.159 7  85401672.640 7  20855947.890                    20855961.999  
     -1836.281       -1431.004          43.000          42.000  
 127814018.780 5                  24322204.749                                  
     -2286.828                          33.000                  
 107497855.256 7  83764630.527 7  20456163.163                    20456179.666  
        47.027          36.465          45.000          44.000  
 126887009.097 6  98873069.435 6  24145797.749                    24145816.115  
     -3372.277       -2627.578          40.000          41.000  
 115327899.661 7  89865982.984 7  21946169.704                    21946188.814  
      2849.457        2220.289          44.000          42.000  
 24  1 10  3 20 13.0000000  0  8G08G24G18G23G16G10G15G32
 128752252.173 6 100326512.688 6  24500750.877                    24500772.357  
      2782.383        2168.074          36.000          38.000  
 128007917.500 6  99746521.613 6  24359096.261                    24359117.207  
       265.449         206.609          39.000          41.000  
 112917313.203 7  87987581.001 7  21487451.830                    21487467.599  
     -1816.637       -1415.625          45.000          45.000  
 109598922.797 7  85401815.698 7  20855982.812                    20855997.263  
     -1836.398       -1430.824          44.000          42.000  
 127814247.553 5                  24322248.525                                  
     -2287.223                          33.000                  
 107497850.622 7  83764626.911 7  20456161.899                    20456178.939  
        46.703          36.152          45.000          44.000  
 126887346.299 6  98873332.179 6  24145862.339                    24145880.428  
     -3372.012       -2627.395          39.000          41.000  
 115327614.734 7  89865760.961 7  21946115.375                    21946134.515  
      2849.305        2219.965          44.000          42.000  
 24  1 10  3 20 13.1000000  0  8G08G24G18G23G16G10G15G32
 128751973.962 5 100326295.882 6  24500697.935                    24500719.411  
      2782.242        2167.758          35.000          38.000  
 128007891.010 6  99746500.930 6  24359091.220                    24359112.155  
       265.145         206.801          39.000          41.000  
 112917494.920 7  87987722.580 7  21487486.410                    21487502.174  
     -1816.945       -1415.754          45.000          45.000  
 109599106.527 7  85401958.921 7  20856017.774                    20856032.240  
     -1836.766       -1431.602          44.000          42.000  
 127814476.265 5                  24322292.047                                  
     -2287.273                          33.000                  
 107497845.997 7  83764623.302 7  20456161.019                    20456178.057  
        46.371          36.055          45.000          44.000  
 126887683.353 6  98873594.999 6  24145926.478                    24145944.612  
     -3371.266       -2628.145          37.000          41.000  
 115327329.856 7  89865538.977 7  21946061.165                    21946080.305  
      2849.133        2220.047          44.000          42.000  
 24  1 10  3 20 13.2000000  0  8G08G24G18G23G16G10G15G32
 128751695.774 5 100326079.116 6  24500645.091                    24500666.412  
      2781.922        2167.863          35.000          38.000  
 128007864.479 6  99746480.233 6  24359086.273                    24359107.257  
       265.246         206.918          39.000          41.000  
 112917676.599 7  87987864.141 7  21487520.841                    21487535.964  
     -1816.949       -1416.016          45.000          45.000  
 109599290.216 7  85402101.989 7  20856052.674                    20856067.804  
     -1837.031       -1431.387          43.000          42.000  
 127814704.932 5                  24322335.225                                  
     -2287.016                          33.000                  
 107497841.393 7  83764619.703 7  20456160.463                    20456176.679  
        46.133          35.855          45.000          44.000  
 126888020.583 6  98873857.802 6  24145990.065                    24146009.127  
     -3371.894       -2628.000          37.000          41.000  
 115327044.940 7  89865316.962 7  21946006.830                    21946026.071  
      2849.137        2219.945          44.000          42.000  
 24  1 10  3 20 13.3000000  0  8G08G24G18G23G16G10G15G32
 128751417.588 5 100325862.381 6  24500592.154                    24500613.483  
      2781.980        2167.609          35.000          38.000  
 128007837.887 6  99746459.556 6  24359081.212                    24359102.208  
       265.586         206.801          39.000          41.000  
 112917858.317 7  87988005.748 7  21487555.421                    21487570.545  
     -1816.926       -1415.672          45.000          45.000  
 109599473.889 7  85402245.174 7  20856087.626                    20856102.771  
     -1836.660       -1431.645          44.000          42.000  
 127814933.729 5                  24322378.764                                  
     -2287.426                          33.000                  
 107497836.794 7  83764616.124 7  20456159.588                    20456175.804  
        46.086          35.918          45.000          44.000  
 126888357.872 6  98874120.535 6  24146054.249                    24146073.289  
     -3372.328       -2627.492          37.000          40.000  
 115326760.032 7  89865094.972 7  21945952.613                    21945971.858  
      2849.133        2219.965          44.000          42.000  
 24  1 10  3 20 13.4000000  0  8G08G24G18G23G16G10G15G32
 128751139.383 5 100325645.570 6  24500539.112                    24500560.731  
      2781.965        2168.000          35.000          38.000  
 128007811.390 6  99746438.895 6  24359076.193                    24359097.240  
       265.246         206.754          39.000          41.000  
 112918039.991 7  87988147.315 7  21487589.852                    21487605.227  
     -1816.816       -1415.586          45.000          45.000  
 109599657.584 7  85402388.282 7  20856122.403                    20856137.844  
     -1836.918       -1431.273          44.000          42.000  
 127815162.443 5                  24322422.396                                  
     -2287.234                          33.000                  
 107497832.216 7  83764612.560 7  20456158.591                    20456174.645  
        45.859          35.602          45.000          44.000  
 126888695.182 6  98874383.271 6  24146118.522                    24146137.350  
     -3372.816       -2627.410          37.000          40.000  
 115326475.123 7  89864872.957 7  21945898.366                    21945917.054  
      2849.094        2220.148          44.000          42.000  
 24  1 10  3 20 13.5000000  0  8G08G24G18G23G16G10G15G32
 128750861.259 6 100325428.844 6  24500486.187                    24500507.804  
      2781.648        2167.387          36.000          38.000  
 128007784.854 6  99746418.182 6  24359071.144                    24359092.182  
       265.227         207.117          39.000          41.000  
 112918221.655 7  87988288.880 7  21487624.422                    21487639.798  
     -1816.715       -1415.844          45.000          45.000  
 109599841.310 7  85402531.388 7  20856157.364                    20856172.792  
     -1837.230       -1431.238          43.000          42.000  
 127815391.227 5                  24322465.932                                  
     -2287.656                          33.000                  
 107497827.651 7  83764608.981 7  20456157.723                    20456173.771  
        45.762          35.609          45.000          44.000  
 126889032.462 6  98874646.050 6  24146182.705                    24146201.523  
     -3372.715       -2627.750          38.000          40.000  
 115326190.200 7  89864650.939 7  21945844.147                    21945862.835  
      2849.160        2220.047          44.000          42.000  
 24  1 10  3 20 13.6000000  0  8G08G24G18G23G16G10G15G32
 128750583.125 6 100325212.133 6  24500433.424                    24500455.115  
      2781.457        2167.234          36.000          38.000  
 128007758.264 6  99746397.477 6  24359066.154                    24359087.274  
       265.648         206.910          39.000          41.000  
 112918403.363 7  87988430.476 7  21487659.327                    21487674.378  
     -1816.977       -1415.848          45.000          45.000  
 109600025.006 7  85402674.613 7  20856192.219                    20856207.371  
     -1836.949       -1432.184          44.000          42.000  
 127815619.937 5                  24322509.563                                  
     -2287.320                          33.000                  
 107497823.087 7  83764605.446 7  20456156.714                    20456172.673  
        45.734          35.281          45.000          44.000  
 126889369.568 6  98874908.834 6  24146247.362                    24146265.386  
     -3371.934       -2627.863          38.000          40.000  
 115325905.297 7  89864428.921 7  21945790.353                    21945808.694  
      2849.098        2220.062          44.000          42.000  
 24  1 10  3 20 13.7000000  0  8G08G24G18G23G16G10G15G32
 128750305.031 6 100324995.447 6  24500380.504                    24500402.198  
      2781.160        2166.891          36.000          38.000  
 128007731.734 6  99746376.804 6  24359061.106                    24359082.225  
       265.375         206.762          40.000          41.000  
 112918585.060 7  87988572.042 7  21487693.903                    21487708.949  
     -1816.984       -1415.781          45.000          45.000  
 109600208.775 7  85402817.797 7  20856227.189                    20856242.338  
     -1837.453       -1431.578          43.000          42.000  
 127815848.730 5                  24322553.101                                  
     -2287.742                          34.000                  
 107497818.552 7  83764601.924 7  20456155.851                    20456171.813  
        45.559          35.523          45.000          44.000  
 126889706.834 6  98875171.670 6  24146311.541                    24146329.573  
     -3372.332       -2628.191          38.000          40.000  
 115325620.399 7  89864206.955 7  21945736.139                    21945754.488  
      2849.125        2220.074          44.000          42.000  
 24  1 10  3 20 13.8000000  0  8G08G24G18G23G16G10G15G32
 128750026.935 6 100324778.725 6  24500327.381                    24500349.194  
      2780.984        2166.887          36.000          38.000  
 128007705.227 6  99746356.163 6  24359055.937                    24359077.013  
       265.203         206.418          39.000          41.000  
 112918766.722 7  87988713.629 7  21487728.449                    21487743.440  
     -1816.840       -1415.781          45.000          44.000  
 109600392.495 7  85402960.928 7  20856261.728                    20856276.729  
     -1837.207       -1431.856          43.000          42.000  
 127816077.502 5                  24322596.456                                  
     -2287.613                          34.000                  
 107497814.029 7  83764598.378 7  20456155.256                    20456171.330  
        45.520          35.402          45.000          44.000  
 126890044.094 6  98875434.457 6  24146376.126                    24146393.615  
     -3372.438       -2628.062          39.000          40.000  
 115325335.465 7  89863984.901 7  21945681.754                    21945700.330  
      2849.191        2220.219          44.000          42.000  
 24  1 10  3 20 13.9000000  0  8G08G24G18G23G16G10G15G32
 128749748.830 6 100324562.059 6  24500274.460                    24500296.282  
      2781.070        2166.895          36.000          37.000  
 128007678.735 6  99746335.520 6  24359050.895                    24359071.971  
       265.129         206.336          39.000          41.000  
 112918948.453 7  87988855.204 7  21487763.031                    21487778.015  
     -1817.023       -1415.781          45.000          44.000  
 109600576.254 7  85403104.126 6  20856296.696                    20856311.700  
     -1837.438       -1431.504          43.000          41.000  
 127816306.266 5                  24322639.988                                  
     -2287.605                          33.000                  
 107497809.469 7  83764594.827 7  20456154.388                    20456170.463  
        45.371          35.336          45.000          44.000  
 126890381.396 6  98875697.242 6  24146440.312                    24146457.790  
     -3372.801       -2627.883          41.000          41.000  
 115325050.536 7  89863762.887 7  21945627.534                    21945646.112  
      2849.227        2220.004          44.000          42.000  
 24  1 10  3 20 14.0000000  0  8G08G24G18G23G16G10G15G32
 128749470.746 6 100324345.349 6  24500221.526                    24500243.313  
      2780.949        2166.930          36.000          38.000  
 128007652.193 6  99746314.837 6  24359045.532                    24359066.991  
       265.285         206.906          39.000          41.000  
 112919130.097 7  87988996.765 7  21487797.745                    21487813.124  
     -1816.664       -1415.488          45.000          44.000  
 109600759.952 7  85403247.248 7  20856331.793                    20856346.456  
     -1837.262       -1431.641          43.000          42.000  
 127816535.091 5                  24322683.555                                  
     -2288.000                          33.000                  
 107497804.933 7  83764591.304 7  20456153.212                    20456169.845  
        45.402          35.395          45.000          44.000  
 126890718.655 7  98875960.045 6  24146505.233                    24146522.485  
     -3372.520       -2627.797          42.000          41.000  
 115324765.624 7  89863540.901 7  21945573.129                    21945592.065  
      2849.305        2220.453          44.000          42.000  
 24  1 10  3 20 14.1000000  0  8G08G24G18G23G16G10G15G32
 128749192.707 6 100324128.712 6  24500168.617                    24500190.408  
      2780.625        2166.730          36.000          38.000  
 128007625.612 6  99746294.107 6  24359040.474                    24359061.929  
       265.562         207.160          38.000          41.000  
 112919311.747 7  87989138.308 7  21487832.312                    21487847.690  
     -1816.559       -1415.465          45.000          44.000  
 109600943.659 7  85403390.419 7  20856366.752                    20856381.420  
     -1837.059       -1431.434          44.000          42.000  
 127816763.826 5                  24322727.082                                  
     -2287.652                          34.000                  
 107497800.347 7  83764587.729 7  20456152.340                    20456168.972  
        45.691          35.641          45.000          44.000  
 126891055.907 6  98876222.807 6  24146569.410                    24146586.654  
     -3372.551       -2627.695          41.000          41.000  
 115324480.649 7  89863318.838 7  21945518.900                    21945537.835  
      2849.574        2220.602          44.000          42.000  
 24  1 10  3 20 14.2000000  0  8G08G24G18G23G16G10G15G32
 128748914.634 6 100323912.005 6  24500115.709                    24500137.392  
      2780.586        2166.562          36.000          38.000  
 128007599.044 6  99746273.382 6  24359035.043                    24359057.227  
       265.547         207.258          39.000          41.000  
 112919493.365 7  87989279.797 7  21487866.889                    21487882.314  
     -1816.383       -1415.023          45.000          44.000  
 109601127.335 7  85403533.559 7  20856402.509                    20856416.689  
     -1836.816       -1431.363          43.000          42.000  
 127816992.650 5                  24322770.954                                  
     -2287.902                          34.000                  
 107497795.801 7  83764584.173 7  20456151.178                    20456167.939  
        45.520          35.617          45.000          44.000  
 126891393.189 6  98876485.595 6  24146634.233                    24146650.665  
     -3372.789       -2627.820          41.000          41.000  
 115324195.687 7  89863096.768 7  21945464.557                    21945483.705  
      2849.516        2220.574          44.000          42.000  
 24  1 10  3 20 14.3000000  0  8G08G24G18G23G16G10G15G32
 128748636.611 6 100323695.373 6  24500062.804                    24500084.488  
      2780.473        2166.664          36.000          38.000  
 128007572.506 6  99746252.692 6  24359029.993                    24359052.174  
       265.676         206.820          39.000          41.000  
 112919674.984 7  87989421.327 7  21487901.450                    21487916.877  
     -1816.277       -1415.184          45.000          45.000  
 109601311.029 7  85403676.675 7  20856437.464                    20856451.639  
     -1836.871       -1431.457          43.000          42.000  
 127817221.411 5                  24322814.486                                  
     -2287.945                          33.000                  
 107497791.188 7  83764580.566 7  20456150.300                    20456167.058  
        45.824          35.762          45.000          44.000  
 126891730.347 6  98876748.341 6  24146698.392                    24146714.831  
     -3372.289       -2627.773          41.000          41.000  
 115323910.702 7  89862874.716 7  21945410.326                    21945429.477  
      2849.691        2220.250          44.000          42.000  
 24  1 10  3 20 14.4000000  0  8G08G24G18G23G16G10G15G32
 128748358.554 6 100323478.718 6  24500010.375                    24500031.063  
      2780.570        2166.539          36.000          38.000  
 128007545.900 6  99746231.966 6  24359025.133                    24359047.214  
       265.816         207.406          40.000          40.000  
 112919856.563 7  87989562.834 7  21487935.690                    21487951.302  
     -1815.945       -1415.145          45.000          45.000  
 109601494.695 7  85403819.860 6  20856472.071                    20856486.154  
     -1836.551       -1431.383          44.000          41.000  
 127817450.221 5                  24322858.121                                  
     -2287.953                          34.000                  
 107497786.639 7  83764577.050 7  20456149.919                    20456165.856  
        45.730          35.641          45.000          44.000  
 126892067.438 6  98877011.168 6  24146762.585                    24146779.172  
     -3371.215       -2627.887          40.000          41.000  
 115323625.723 7  89862652.665 7  21945356.026                    21945375.493  
      2849.812        2220.750          44.000          42.000  
 24  1 10  3 20 14.5000000  0  8G08G24G18G23G16G10G15G32
 128748080.532 6 100323262.087 6  24499957.470                    24499978.160  
      2780.289        2166.172          37.000          38.000  
 128007519.325 6  99746211.253 6  24359020.076                    24359042.156  
       265.805         206.949          40.000          40.000  
 112920038.172 7  87989704.333 7  21487970.249                    21487985.857  
     -1816.035       -1415.109          46.000          45.000  
 109601678.382 7  85403962.948 6  20856507.026                    20856521.097  
     -1836.840       -1430.996          44.000          41.000  
 127817679.057 5                  24322901.667                                  
     -2288.070                          33.000                  
 107497782.085 7  83764573.503 7  20456149.052                    20456164.990  
        45.602          35.309          45.000          44.000  
 126892404.778 6  98877273.991 6  24146826.779                    24146843.356  
     -3372.242       -2627.629          40.000          41.000  
 115323340.792 7  89862430.620 7  21945301.805                    21945321.267  
      2849.617        2220.305          44.000          42.000  
 24  1 10  3 20 14.6000000  0  8G08G24G18G23G16G10G15G32
 128747802.577 6 100323045.478 6  24499904.694                    24499925.246  
      2779.977        2166.301          36.000          38.000  
 128007492.732 6  99746190.562 6  24359015.078                    24359036.657  
       265.957         206.953          39.000          41.000  
 112920219.778 7  87989845.866 7  21488005.089                    21488020.296  
     -1816.145       -1415.277          45.000          45.000  
 109601862.103 7  85404106.072 7  20856541.885                    20856556.229  
     -1837.133       -1431.418          44.000          42.000  
 127817907.911 5                  24322945.076                                  
     -2288.418                          33.000                  
 107497777.550 7  83764569.979 7  20456148.267                    20456164.793  
        45.395          35.242          45.000          44.000  
 126892741.978 6  98877536.656 6  24146890.626                    24146907.970  
     -3372.629       -2627.820          41.000          41.000  
 115323055.810 7  89862208.572 7  21945247.262                    21945267.220  
      2849.492        2220.312          44.000          42.000  
 24  1 10  3 20 14.7000000  0  8G08G24G18G23G16G10G15G32
 128747524.603 6 100322828.857 6  24499851.797                    24499872.345  
      2779.926        2165.934          36.000          38.000  
 128007466.137 6  99746169.816 6  24359010.017                    24359031.591  
       265.848         207.488          39.000          41.000  
 112920401.396 7  87989987.393 7  21488039.650                    21488054.858  
     -1816.004       -1415.180          46.000          45.000  
 109602045.783 7  85404249.232 7  20856576.838                    20856591.190  
     -1836.820       -1431.379          44.000          42.000  
 127818136.763 5                  24322988.625                                  
     -2288.566                          33.000                  
 107497773.044 7  83764566.447 7  20456147.410                    20456163.931  
        45.297          35.215          45.000          44.000  
 126893079.189 6  98877799.458 6  24146954.795                    24146972.149  
     -3372.180       -2627.586          41.000          41.000  
 115322770.902 7  89861986.568 7  21945193.046                    21945213.005  
      2849.383        2220.180          44.000          42.000  
 24  1 10  3 20 14.8000000  0  8G08G24G18G23G16G10G15G32
 128747246.630 6 100322612.273 6  24499799.213                    24499819.711  
      2779.695        2165.898          36.000          38.000  
 128007439.604 6  99746149.127 6  24359005.054                    24359027.078  
       265.637         206.668          39.000          41.000  
 112920583.029 7  87990128.892 7  21488074.151                    21488089.515  
     -1816.281       -1414.981          45.000          45.000  
 109602229.461 7  85404392.328 7  20856611.682                    20856626.542  
     -1837.086       -1431.484          44.000          42.000  
 127818365.709 5                  24323032.231                                  
     -2288.887                          33.000                  
 107497768.560 7  83764562.962 7  20456146.674                    20456162.947  
        45.031          34.949          45.000          44.000  
 126893416.457 7  98878062.227 6  24147018.764                    24147036.289  
     -3372.422       -2627.621          42.000          41.000  
 115322485.999 7  89861764.554 7  21945139.308                    21945158.615  
      2849.145        2220.016          44.000          42.000  
 24  1 10  3 20 14.9000000  0  8G08G24G18G23G16G10G15G32
 128746968.670 6 100322395.689 6  24499746.319                    24499766.819  
      2779.730        2165.801          37.000          38.000  
 128007413.033 6  99746128.457 6  24358999.998                    24359022.030  
       265.754         206.941          39.000          41.000  
 112920764.627 7  87990270.431 7  21488108.708                    21488124.081  
     -1816.133       -1415.676          45.000          45.000  
 109602413.160 7  85404535.514 6  20856646.638                    20856661.509  
     -1836.809       -1431.840          44.000          41.000  
 127818594.588 5                  24323075.785                                  
     -2288.871                          33.000                  
 107497764.066 7  83764559.461 7  20456145.818                    20456162.092  
        44.930          34.957          45.000          44.000  
 126893753.622 7  98878324.943 6  24147082.924                    24147100.447  
     -3372.242       -2627.723          42.000          41.000  
 115322201.102 7  89861542.547 7  21945085.093                    21945104.398  
      2849.117        2220.059          44.000          42.000  
 24  1 10  3 20 15.0000000  0  8G08G24G18G23G16G10G15G32
 128746690.753 6 100322179.108 6  24499693.457                    24499714.201  
      2779.426        2165.781          36.000          38.000  
 128007386.416 6  99746107.713 6  24358994.941                    24359016.636  
       265.902         207.305          39.000          41.000  
 112920946.287 7  87990411.979 7  21488143.214                    21488158.867  
     -1816.340       -1415.090          45.000          45.000  
 109602596.919 7  85404678.740 6  20856681.669                    20856695.807  
     -1837.121       -1431.344          43.000          41.000  
 127818823.481 5                  24323119.475                                  
     -2288.938                          33.000                  
 107497759.623 7  83764555.973 7  20456145.090                    20456161.451  
        44.691          34.773          45.000          44.000  
 126894090.799 6  98878587.760 6  24147147.095                    24147164.106  
     -3371.766       -2627.605          41.000          41.000  
 115321916.235 7  89861320.576 7  21945030.619                    21945050.222  
      2848.844        2219.648          44.000          42.000  
 24  1 10  3 20 15.1000000  0  8G08G24G18G23G16G10G15G32
 128746412.815 6 100321962.577 6  24499640.567                    24499661.322  
      2779.340        2165.211          37.000          38.000  
 128007359.837 6  99746087.032 6  24358989.883                    24359011.585  
       265.840         206.895          39.000          41.000  
 112921127.904 7  87990553.459 7  21488177.775                    21488193.418  
     -1816.375       -1415.531          45.000          45.000  
 109602780.683 7  85404821.866 7  20856716.638                    20856730.760  
     -1837.520       -1431.820          43.000          42.000  
 127819052.476 5                  24323163.051                                  
     -2289.383                          33.000                  
 107497755.189 7  83764552.540 7  20456144.246                    20456160.613  
        44.418          34.504          45.000          44.000  
 126894428.046 6  98878850.562 6  24147211.271                    24147228.285  
     -3372.274       -2627.910          40.000          41.000  
 115321631.379 7  89861098.617 7  21944976.413                    21944996.017  
      2848.648        2219.562          44.000          42.000  
 24  1 10  3 20 15.2000000  0  8G08G24G18G23G16G10G15G32
 128746134.907 6 100321745.986 6  24499587.487                    24499608.686  
      2779.254        2165.688          37.000          38.000  
 128007333.265 6  99746066.312 6  24358984.537                    24359007.080  
       265.766         207.336          39.000          40.000  
 112921309.589 7  87990695.086 7  21488212.434                    21488227.739  
     -1816.602       -1415.703          45.000          44.000  
 109602964.434 7  85404965.029 7  20856751.331                    20856765.831  
     -1837.719       -1431.746          43.000          42.000  
 127819281.358 5                  24323206.410                                  
     -2289.309                          33.000                  
 107497750.777 7  83764549.098 7  20456143.282                    20456159.381  
        44.262          34.289          45.000          44.000  
 126894765.387 6  98879113.331 6  24147274.777                    24147292.190  
     -3372.606       -2627.773          39.000          40.000  
 115321346.542 7  89860876.667 7  21944922.086                    21944941.541  
      2848.535        2219.773          44.000          42.000  
 24  1 10  3 20 15.3000000  0  8G08G24G18G23G16G10G15G32
 128745856.987 6 100321529.444 6  24499534.601                    24499555.804  
      2779.230        2165.488          36.000          38.000  
 128007306.669 6  99746045.562 6  24358979.476                    24359002.012  
       265.887         207.254          39.000          40.000  
 112921491.201 7  87990836.600 7  21488246.994                    21488262.298  
     -1816.379       -1415.344          45.000          45.000  
 109603148.180 7  85405108.181 7  20856786.297                    20856800.790  
     -1837.449       -1431.566          44.000          42.000  
 127819510.354 5                  24323249.987                                  
     -2289.441                          33.000                  
 107497746.364 7  83764545.694 7  20456142.442                    20456158.550  
        44.297          34.461          45.000          44.000  
 126895102.613 6  98879376.096 6  24147338.949                    24147356.360  
     -3372.574       -2627.688          38.000          40.000  
 115321061.670 7  89860654.708 7  21944867.876                    21944887.337  
      2848.465        2219.363          44.000          42.000  
 24  1 10  3 20 15.4000000  0  8G08G24G18G23G16G10G15G32
 128745579.106 6 100321312.902 6  24499481.808                    24499503.126  
      2778.773        2165.473          37.000          38.000  
 128007280.117 6  99746024.884 6  24358974.213                    24358996.619  
       265.391         206.719          39.000          40.000  
 112921672.905 7  87990978.158 7  21488281.548                    21488296.805  
     -1816.934       -1415.734          45.000          45.000  
 109603331.950 7  85405251.442 7  20856822.033                    20856836.018  
     -1837.527       -1432.316          44.000          42.000  
 127819739.346 5                  24323293.703                                  
     -2290.082                          34.000                  
 107497741.983 7  83764542.253 7  20456141.639                    20456157.608  
        43.719          34.070          45.000          43.000  
 126895439.800 6  98879638.898 6  24147402.324                    24147420.148  
     -3371.906       -2627.988          37.000          40.000  
 115320776.896 7  89860432.795 7  21944813.732                    21944833.065  
      2848.180        2219.270          44.000          42.000  
 24  1 10  3 20 15.5000000  0  8G08G24G18G23G16G10G15G32
 128745301.252 6 100321096.391 6  24499428.934                    24499450.251  
      2778.438        2165.250          36.000          38.000  
 128007253.643 6  99746004.229 6  24358969.175                    24358991.575  
       265.211         206.574          39.000          40.000  
 112921854.615 7  87991119.764 7  21488316.126                    21488331.387  
     -1817.184       -1416.012          45.000          45.000  
 109603515.766 7  85405394.699 7  20856857.012                    20856871.003  
     -1838.172       -1432.805          44.000          42.000  
 127819968.330 5                  24323337.277                                  
     -2289.855                          34.000                  
 107497737.622 7  83764538.875 7  20456140.810                    20456156.783  
        43.516          33.973          45.000          43.000  
 126895777.070 6  98879901.724 6  24147466.505                    24147484.333  
     -3372.316       -2628.180          37.000          40.000  
 115320492.094 7  89860210.865 7  21944759.536                    21944778.868  
      2847.875        2219.238          44.000          42.000  
 24  1 10  3 20 15.6000000  0  8G08G24G18G23G16G10G15G32
 128745023.360 6 100320879.862 6  24499375.990                    24499397.310  
      2778.879        2165.113          37.000          38.000  
 128007227.099 6  99745983.562 6  24358964.264                    24358986.371  
       265.270         206.805          39.000          40.000  
 112922036.338 7  87991261.370 7  21488350.589                    21488366.406  
     -1817.070       -1415.938          45.000          45.000  
 109603699.599 7  85405537.913 7  20856892.416                    20856905.938  
     -1838.215       -1431.863          44.000          42.000  
 127820197.314 5                  24323380.820                                  
     -2289.941                          34.000                  
 107497733.270 7  83764535.456 7  20456139.708                    20456155.620  
        43.602          33.828          45.000          43.000  
 126896114.365 6  98880164.539 6  24147530.315                    24147548.523  
     -3372.793       -2627.957          39.000          40.000  
 115320207.303 7  89859988.936 7  21944705.678                    21944724.998  
      2847.922        2219.094          44.000          42.000  
 24  1 10  3 20 15.7000000  0  8G08G24G18G23G16G10G15G32
 128744745.516 6 100320663.364 6  24499323.118                    24499344.439  
      2778.586        2165.180          37.000          38.000  
 128007200.609 6  99745962.941 6  24358959.224                    24358981.336  
       265.105         206.172          39.000          39.000  
 112922218.057 7  87991402.933 7  21488385.169                    21488400.977  
     -1817.270       -1415.988          45.000          45.000  
 109603883.398 7  85405681.094 7  20856927.392                    20856940.905  
     -1837.984       -1432.223          44.000          42.000  
 127820426.302 5                  24323424.395                                  
     -2289.797                          34.000                  
 107497728.935 7  83764532.113 7  20456138.883                    20456154.804  
        43.527          33.730          45.000          43.000  
 126896451.722 6  98880427.362 6  24147594.512                    24147612.707  
     -3373.070       -2628.234          40.000          40.000  
 115319922.517 7  89859767.063 7  21944651.485                    21944670.815  
      2847.930        2219.105          44.000          42.000  
 24  1 10  3 20 15.8000000  0  8G08G24G18G23G16G10G15G32
 128744467.667 6 100320446.844 6  24499270.214                    24499291.336  
      2778.535        2165.102          37.000          38.000  
 128007174.102 6  99745942.314 6  24358954.297                    24358976.369  
       265.066         206.375          39.000          39.000  
 112922399.768 7  87991544.558 7  21488420.076                    21488435.665  
     -1817.145       -1415.906          45.000          45.000  
 109604067.237 7  85405824.362 7  20856962.422                    20856976.033  
     -1838.297       -1432.477          44.000          42.000  
 127820655.224 5                  24323468.403                                  
     -2289.637                          34.000                  
 107497724.573 7  83764528.706 7  20456138.045                    20456154.089  
        43.582          33.965          45.000          43.000  
 126896789.075 6  98880690.184 6  24147659.450                    24147677.070  
     -3373.258       -2628.273          39.000          40.000  
 115319637.731 7  89859545.125 7  21944597.331                    21944616.201  
      2847.867        2219.137          44.000          42.000  
 24  1 10  3 20 15.9000000  0  8G08G24G18G23G16G10G15G32
 128744189.756 6 100320230.284 6  24499217.329                    24499238.450  
      2778.871        2165.418          36.000          38.000  
 128007147.575 6  99745921.629 6  24358949.249                    24358971.317  
       265.152         206.586          39.000          39.000  
 112922581.464 7  87991686.147 7  21488454.651                    21488470.243  
     -1817.125       -1415.922          45.000          45.000  
 109604251.036 7  85405967.602 7  20856997.398                    20857011.013  
     -1838.008       -1432.109          44.000          42.000  
 127820884.249 5                  24323511.985                                  
     -2289.777                          34.000                  
 107497720.194 7  83764525.273 7  20456137.212                    20456153.250  
        43.660          34.223          45.000          43.000  
 126897126.345 6  98880952.958 6  24147723.630                    24147741.243  
     -3373.324       -2627.801          37.000          41.000  
 115319352.898 7  89859323.170 7  21944543.130                    21944561.997  
      2848.145        2219.336          44.000          42.000  
 24  1 10  3 20 16.0000000  0  8G08G24G18G23G16G10G15G32
 128743911.860 6 100320013.723 6  24499164.182                    24499185.806  
      2778.984        2165.699          37.000          37.000  
 128007121.087 6  99745900.965 6  24358944.450                    24358965.927  
       265.082         206.684          39.000          40.000  
 112922763.206 7  87991827.734 7  21488489.345                    21488504.585  
     -1817.051       -1415.750          45.000          44.000  
 109604434.796 7  85406110.747 7  20857032.171                    20857046.088  
     -1837.988       -1432.145          44.000          42.000  
 127821113.135 5                  24323555.861                                  
     -2289.289                          33.000                  
 107497715.790 7  83764521.837 7  20456136.991                    20456152.568  
        43.934          34.211          45.000          44.000  
 126897463.651 6  98881215.781 6  24147787.466                    24147806.083  
     -3372.894       -2628.211          36.000          40.000  
 115319068.096 7  89859101.260 7  21944488.824                    21944508.086  
      2848.207        2219.477          44.000          42.000  
 24  1 10  3 20 16.1000000  0  8G08G24G18G23G16G10G15G32
 128743633.980 6 100319797.224 6  24499111.303                    24499132.934  
      2778.742        2165.203          36.000          38.000  
 128007094.560 6  99745880.315 6  24358939.402                    24358960.884  
       265.129         206.324          39.000          40.000  
 112922944.921 7  87991969.330 7  21488523.924                    21488539.164  
     -1817.238       -1416.383          45.000          44.000  
 109604618.608 7  85406254.061 7  20857067.149                    20857081.087  
     -1837.828       -1432.445          44.000          42.000  
 127821342.099 5                  24323599.431                                  
     -2289.520                          33.000                  
 107497711.417 7  83764518.444 7  20456136.159                    20456151.739  
        43.855          34.309          45.000          43.000  
 126897800.868 6  98881478.610 6  24147851.636                    24147870.269  
     -3372.629       -2628.273          37.000          40.000  
 115318783.263 7  89858879.311 7  21944434.622                    21944453.884  
      2848.227        2219.387          44.000          42.000  
 24  1 10  3 20 16.2000000  0  8G08G24G18G23G16G10G15G32
 128743356.082 6 100319580.664 6  24499058.569                    24499080.173  
      2778.957        2165.574          36.000          37.000  
 128007068.099 6  99745859.738 6  24358934.406                    24358956.250  
       265.008         205.910          39.000          40.000  
 112923126.636 7  87992110.945 7  21488558.277                    21488573.061  
     -1817.086       -1415.680          45.000          44.000  
 109604802.385 7  85406397.183 7  20857101.988                    20857116.007  
     -1838.031       -1431.606          43.000          42.000  
 127821571.031 5                  24323643.277                                  
     -2289.449                          33.000                  
 107497706.982 7  83764514.983 7  20456134.823                    20456150.730  
        44.164          34.316          45.000          43.000  
 126898138.005 6  98881741.443 6  24147916.049                    24147934.408  
     -3372.027       -2628.207          37.000          40.000  
 115318498.414 7  89858657.347 7  21944380.628                    21944399.725  
      2848.402        2219.637          44.000          42.000  
 24  1 10  3 20 16.3000000  0  8G08G24G18G23G16G10G15G32
 128743078.194 6 100319364.118 6  24499005.689                    24499027.291  
      2778.895        2165.371          37.000          38.000  
 128007041.604 6  99745839.090 6  24358929.364                    24358951.207  
       264.785         206.445          39.000          41.000  
 112923308.312 7  87992252.519 7  21488592.849                    21488607.635  
     -1816.926       -1415.836          45.000          44.000  
 109604986.174 7  85406540.431 7  20857136.962                    20857150.990  
     -1837.812       -1432.336          43.000          42.000  
 127821799.911 5                  24323686.831                                  
     -2289.133                          32.000                  
 107497702.591 7  83764511.547 7  20456133.987                    20456149.891  
        43.988          34.645          45.000          43.000  
 126898475.394 6  98882004.273 6  24147980.252                    24147998.594  
     -3373.152       -2628.559          38.000          41.000  
 115318213.575 7  89858435.407 7  21944326.425                    21944345.525  
      2848.480        2219.457          44.000          42.000  
 24  1 10  3 20 16.4000000  0  8G08G24G18G23G16G10G15G32
 128742800.310 6 100319147.628 6  24498953.114                    24498973.937  
      2778.812        2164.957          37.000          38.000  
 128007015.141 6  99745818.441 6  24358924.672                    24358946.719  
       264.805         206.398          39.000          41.000  
 112923490.028 7  87992394.108 7  21488627.241                    21488642.329  
     -1817.121       -1415.836          45.000          44.000  
 109605169.931 7  85406683.643 7  20857171.344                    20857185.855  
     -1837.602       -1432.168          43.000          42.000  
 127822028.816 5                  24323730.187                                  
     -2289.062                          32.000                  
 107497698.142 7  83764508.098 7  20456132.719                    20456149.220  
        44.148          34.203          45.000          43.000  
 126898812.743 6  98882267.105 6  24148044.573                    24148062.515  
     -3373.121       -2628.172          39.000          41.000  
 115317928.713 7  89858213.424 7  21944271.952                    21944290.963  
      2848.422        2219.504          44.000          42.000  
 24  1 10  3 20 16.5000000  0  8G08G24G18G23G16G10G15G32
 128742522.411 6 100318931.057 6  24498900.232                    24498921.048  
      2778.957        2165.570          37.000          37.000  
 128006988.659 6  99745797.806 6  24358919.633                    24358941.680  
       264.871         206.273          39.000          41.000  
 112923671.762 7  87992535.693 7  21488661.824                    21488676.906  
     -1817.184       -1415.898          45.000          44.000  
 109605353.684 7  85406826.785 7  20857206.311                    20857220.811  
     -1837.746       -1431.887          43.000          42.000  
 127822257.794 5                  24323773.760                                  
     -2289.324                          33.000                  
 107497693.759 7  83764504.669 7  20456131.885                    20456148.383  
        44.090          34.445          45.000          43.000  
 126899149.990 6  98882529.911 6  24148108.749                    24148126.694  
     -3372.879       -2628.316          40.000          40.000  
 115317643.854 7  89857991.459 7  21944217.745                    21944236.756  
      2848.578        2219.660          44.000          42.000  
 24  1 10  3 20 16.6000000  0  8G08G24G18G23G16G10G15G32
 128742244.535 6 100318714.545 6  24498847.721                    24498868.080  
      2778.891        2165.211          36.000          37.000  
 128006962.192 6  99745777.145 6  24358914.745                    24358936.290  
       264.785         206.578          39.000          40.000  
 112923853.448 7  87992677.290 7  21488696.671                    21488711.743  
     -1816.992       -1415.906          45.000          45.000  
 109605537.497 7  85406970.059 7  20857240.492                    20857256.183  
     -1837.852       -1432.020          43.000          42.000  
 127822486.728 5                  24323816.520                                  
     -2289.379                          33.000                  
 107497689.342 7  83764501.230 7  20456131.044                    20456147.801  
        44.141          34.398          45.000          44.000  
 126899487.279 6  98882792.752 6  24148173.065                    24148190.945  
     -3372.824       -2628.184          40.000          40.000  
 115317359.020 7  89857769.518 7  21944163.520                    21944182.705  
      2848.441        2219.535          44.000          42.000  
 24  1 10  3 20 16.7000000  0  8G08G24G18G23G16G10G15G32
 128741966.700 6 100318498.046 6  24498794.851                    24498815.209  
      2778.551        2164.906          37.000          38.000  
 128006935.751 6  99745756.502 6  24358909.713                    24358931.249  
       264.602         206.152          39.000          40.000  
 112924035.217 7  87992818.939 7  21488731.260                    21488746.335  
     -1817.258       -1416.297          45.000          45.000  
 109605721.342 7  85407113.273 6  20857275.477                    20857291.157  
     -1838.250       -1432.707          43.000          41.000  
 127822715.642 5                  24323860.081                                  
     -2289.207                          32.000                  
 107497684.995 7  83764497.835 7  20456130.217                    20456146.972  
        43.770          33.957          45.000          44.000  
 126899824.642 6  98883055.604 6  24148237.263                    24148255.136  
     -3373.242       -2628.707          39.000          40.000  
 115317074.219 7  89857547.593 7  21944109.324                    21944128.508  
      2848.125        2219.180          44.000          42.000  
 24  1 10  3 20 16.8000000  0  8G08G24G18G23G16G10G15G32
 128741688.874 6 100318281.550 6  24498741.998                    24498761.620  
      2778.406        2164.922          37.000          37.000  
 128006909.274 6  99745735.968 6  24358904.652                    24358925.844  
       264.621         205.574          39.000          40.000  
 112924216.941 7  87992960.506 7  21488766.013                    21488781.087  
     -1817.547       -1416.320          45.000          45.000  
 109605905.240 7  85407256.611 7  20857310.214                    20857326.115  
     -1838.480       -1432.594          44.000          42.000  
 127822944.675 5                  24323903.555                                  
     -2290.004                          32.000                  
 107497680.690 7  83764494.473 7  20456129.999                    20456146.651  
        43.238          33.430          45.000          44.000  
 126900162.031 6  98883318.467 6  24148300.904                    24148319.627  
     -3373.551       -2628.590          39.000          40.000  
 115316789.415 7  89857325.665 7  21944055.174                    21944074.421  
      2847.965        2219.203          44.000          42.000  
 24  1 10  3 20 16.9000000  0  8G08G24G18G23G16G10G15G32
 128741411.065 6 100318065.088 6  24498689.133                    24498708.757  
      2778.238        2164.473          37.000          38.000  
 128006882.911 6  99745715.344 6  24358899.635                    24358920.807  
       264.105         206.113          39.000          40.000  
 112924398.777 7  87993102.208 7  21488800.615                    21488815.692  
     -1817.820       -1416.824          45.000          45.000  
 109606089.078 7  85407399.811 6  20857345.197                    20857361.086  
     -1838.641       -1433.223          44.000          41.000  
 127823173.629 5                  24323947.124                                  
     -2289.555                          32.000                  
 107497676.421 7  83764491.155 7  20456129.187                    20456145.841  
        43.023          33.227          45.000          44.000  
 126900499.302 6  98883581.345 6  24148365.084                    24148383.825  
     -3373.144       -2628.707          40.000          40.000  
 115316504.725 7  89857103.835 7  21944001.000                    21944020.247  
      2847.633        2218.602          44.000          42.000  
 24  1 10  3 20 17.0000000  0  8G08G24G18G23G16G10G15G32
 128741133.288 6 100317848.643 6  24498636.203                    24498656.149  
      2777.766        2164.629          37.000          37.000  
 128006856.506 6  99745694.785 6  24358894.626                    24358915.865  
       264.230         205.672          39.000          41.000  
 112924580.665 7  87993243.943 7  21488835.321                    21488850.086  
     -1818.809       -1416.969          45.000          45.000  
 109606273.059 7  85407543.225 6  20857380.809                    20857395.547  
     -1839.805       -1433.406          43.000          41.000  
 127823402.613 5                  24323990.776                                  
     -2289.789                          32.000                  
 107497672.204 7  83764487.914 7  20456128.181                    20456144.776  
        42.129          32.555          45.000          44.000  
 126900836.629 6  98883844.157 6  24148429.455                    24148447.694  
     -3373.422       -2628.773          41.000          40.000  
 115316219.998 7  89856881.967 7  21943946.888                    21943966.409  
      2846.984        2218.238          44.000          42.000  
 24  1 10  3 20 17.1000000  0  8G08G24G18G23G16G10G15G32
 128740855.509 6 100317632.190 6  24498583.343                    24498603.289  
      2777.914        2164.391          37.000          37.000  
 128006830.101 6  99745674.226 6  24358889.601                    24358910.844  
       264.004         205.484          39.000          40.000  
 112924762.504 7  87993385.635 7  21488869.924                    21488884.689  
     -1818.559       -1417.102          45.000          45.000  
 109606457.001 7  85407686.560 6  20857415.812                    20857430.550  
     -1839.359       -1433.512          44.000          41.000  
 127823631.660 5                  24324034.362                                  
     -2290.316                          32.000                  
 107497668.006 7  83764484.581 7  20456127.382                    20456143.962  
        41.988          33.117          45.000          44.000  
 126901174.014 6  98884107.120 6  24148493.657                    24148511.912  
     -3373.438       -2628.793          41.000          40.000  
 115315935.289 7  89856660.134 7  21943892.710                    21943912.235  
      2846.953        2218.391          44.000          42.000  
 24  1 10  3 20 17.2000000  0  8G08G24G18G23G16G10G15G32
 128740577.750 6 100317415.721 6  24498530.331                    24498550.675  
      2777.758        2164.789          36.000          38.000  
 128006803.688 6  99745653.646 6  24358884.692                    24358905.576  
       264.215         205.746          40.000          40.000  
 112924944.296 7  87993527.301 7  21488904.244                    21488919.332  
     -1818.133       -1416.871          45.000          45.000  
 109606640.902 7  85407829.802 6  20857451.471                    20857465.375  
     -1839.215       -1432.945          44.000          41.000  
 127823860.659 5                  24324078.440                                  
     -2289.957                          32.000                  
 107497663.765 7  83764481.292 7  20456126.505                    20456143.416  
        42.363          32.926          45.000          44.000  
 126901511.340 7  98884369.992 6  24148558.411                    24148575.835  
     -3373.262       -2628.898          42.000          40.000  
 115315650.593 7  89856438.268 7  21943838.800                    21943857.561  
      2847.195        2218.617          44.000          42.000  
 24  1 10  3 20 17.3000000  0  8G08G24G18G23G16G10G15G32
 128740299.934 6 100317199.306 6  24498477.465                    24498497.824  
      2778.027        2164.199          36.000          38.000  
 128006777.220 6  99745633.045 6  24358879.655                    24358900.545  
       264.328         206.074          39.000          40.000  
 112925126.133 7  87993668.990 7  21488938.847                    21488953.934  
     -1818.168       -1416.668          45.000          45.000  
 109606824.850 7  85407973.153 6  20857486.475                    20857500.383  
     -1839.312       -1433.016          44.000          41.000  
 127824089.694 5                  24324122.023                                  
     -2290.148                          32.000                  
 107497659.567 7  83764478.049 7  20456125.706                    20456142.624  
        42.285          32.879          45.000          44.000  
 126901848.724 6  98884632.823 6  24148622.613                    24148640.020  
     -3373.695       -2628.629          41.000          40.000  
 115315365.876 7  89856216.452 7  21943784.620                    21943803.391  
      2847.230        2218.441          44.000          42.000  
 24  1 10  3 20 17.4000000  0  8G08G24G18G23G16G10G15G32
 128740022.212 6 100316982.852 6  24498424.421                    24498445.488  
      2777.602        2164.551          36.000          38.000  
 128006750.826 6  99745612.464 6  24358874.617                    24358895.175  
       264.094         205.742          39.000          40.000  
 112925307.942 7  87993810.650 7  21488973.053                    21488988.545  
     -1818.270       -1416.856          45.000          45.000  
 109607008.807 7  85408116.506 6  20857521.505                    20857535.899  
     -1839.395       -1433.641          44.000          41.000  
 127824318.726 5                  24324165.724                                  
     -2290.219                          32.000                  
 107497655.351 7  83764474.731 7  20456124.935                    20456141.087  
        42.078          32.770          45.000          44.000  
 126902186.078 6  98884895.747 6  24148687.137                    24148704.495  
     -3373.324       -2628.789          41.000          40.000  
 115315081.193 7  89855994.583 7  21943730.197                    21943749.333  
      2846.918        2218.438          44.000          42.000  
 24  1 10  3 20 17.5000000  0  8G08G24G18G23G16G10G15G32
 128739744.443 6 100316766.446 6  24498371.563                    24498392.639  
      2777.621        2164.145          36.000          38.000  
 128006724.459 6  99745591.899 6  24358869.600                    24358890.153  
       264.027         205.797          39.000          40.000  
 112925489.833 7  87993952.378 7  21489007.666                    21489023.156  
     -1818.543       -1417.086          45.000          45.000  
 109607192.721 7  85408259.809 6  20857556.502                    20857570.895  
     -1839.250       -1433.316          43.000          41.000  
 127824547.787 5                  24324209.313                                  
     -2290.438                          32.000                  
 107497651.158 7  83764471.494 7  20456124.137                    20456140.297  
        42.062          32.582          45.000          44.000  
 126902523.468 6  98885158.613 6  24148751.341                    24148768.689  
     -3373.926       -2628.965          41.000          40.000  
 115314796.518 7  89855772.751 7  21943676.025                    21943695.160  
      2846.707        2218.016          44.000          42.000  
 24  1 10  3 20 17.6000000  0  8G08G24G18G23G16G10G15G32
 128739466.712 6 100316550.012 6  24498318.533                    24498339.627  
      2777.539        2164.461          37.000          38.000  
 128006698.038 6  99745571.304 6  24358864.361                    24358885.608  
       264.035         205.898          39.000          40.000  
 112925671.688 7  87994094.105 7  21489041.983                    21489057.462  
     -1818.570       -1417.332          45.000          44.000  
 109607376.715 7  85408403.147 6  20857591.367                    20857605.431  
     -1839.816       -1433.356          42.000          41.000  
 127824776.854 5                  24324253.051                                  
     -2290.648                          33.000                  
 107497646.991 7  83764468.232 7  20456123.844                    20456139.625  
        41.801          32.582          45.000          43.000  
 126902860.785 6  98885421.458 6  24148815.577                    24148832.801  
     -3373.574       -2628.801          40.000          40.000  
 115314511.855 7  89855550.952 7  21943622.011                    21943640.924  
      2846.727        2218.148          44.000          42.000  
 24  1 10  3 20 17.7000000  0  8G08G24G18G23G16G10G15G32
 128739188.943 6 100316333.550 6  24498265.675                    24498286.765  
      2777.613        2164.500          37.000          38.000  
 128006671.647 6  99745550.719 6  24358859.339                    24358880.581  
       264.188         205.812          39.000          40.000  
 112925853.525 7  87994235.768 7  21489076.585                    21489092.058  
     -1818.496       -1416.856          45.000          44.000  
 109607560.649 7  85408546.548 6  20857626.368                    20857640.451  
     -1839.410       -1433.676          43.000          41.000  
 127825005.943 5                  24324296.645                                  
     -2290.754                          33.000                  
 107497642.802 7  83764464.968 7  20456123.047                    20456138.828  
        41.914          32.566          45.000          43.000  
 126903198.177 6  98885684.382 6  24148879.780                    24148897.009  
     -3373.652       -2629.195          40.000          39.000  
 115314227.182 7  89855329.129 7  21943567.840                    21943586.752  
      2846.684        2218.250          44.000          42.000  
 24  1 10  3 20 17.8000000  0  8G08G24G18G23G16G10G15G32
 128738911.170 6 100316117.130 6  24498212.715                    24498233.695  
      2777.629        2164.207          37.000          38.000  
 128006645.237 6  99745530.184 6  24358854.087                    24358876.027  
       263.941         205.422          39.000          40.000  
 112926035.403 7  87994377.571 7  21489111.578                    21489126.813  
     -1818.418       -1417.406          45.000          44.000  
 109607744.649 7  85408689.831 6  20857661.445                    20857675.614  
     -1839.793       -1433.246          43.000          41.000  
 127825234.951 5                  24324340.123                                  
     -2290.262                          32.000                  
 107497638.641 7  83764461.740 7  20456122.060                    20456138.173  
        41.883          32.488          45.000          43.000  
 126903535.564 6  98885947.280 6  24148943.655                    24148960.649  
     -3373.859       -2628.762          39.000          39.000  
 115313942.533 7  89855107.321 7  21943513.860                    21943532.327  
      2846.656        2217.984          44.000          42.000  
 24  1 10  3 20 17.9000000  0  8G08G24G18G23G16G10G15G32
 128738633.428 6 100315900.707 6  24498159.863                    24498180.842  
      2777.594        2164.434          36.000          38.000  
 128006618.883 6  99745509.655 6  24358849.072                    24358871.014  
       263.770         205.367          39.000          39.000  
 112926217.252 7  87994519.206 7  21489146.183                    21489161.401  
     -1818.625       -1417.020          45.000          44.000  
 109607928.577 7  85408833.206 6  20857696.445                    20857710.628  
     -1839.520       -1433.543          43.000          41.000  
 127825463.996 5                  24324383.708                                  
     -2290.523                          33.000                  
 107497634.417 7  83764458.438 7  20456121.256                    20456137.366  
        41.879          32.746          45.000          43.000  
 126903872.939 6  98886210.120 6  24149007.855                    24149024.838  
     -3373.633       -2628.594          38.000          39.000  
 115313657.904 7  89854885.534 7  21943459.697                    21943478.164  
      2846.672        2218.039          44.000          42.000  
 24  1 10  3 20 18.0000000  0  8G08G24G18G23G16G10G15G32
 128738355.619 6 100315684.255 6  24498107.036                    24498127.834  
      2777.828        2164.539          36.000          38.000  
 128006592.509 6  99745489.198 6  24358843.818                    24358865.760  
       263.750         205.195          39.000          39.000  
 112926399.088 7  87994660.910 7  21489180.746                    21489195.749  
     -1818.402       -1416.887          45.000          44.000  
 109608112.441 7  85408976.454 7  20857731.136                    20857745.946  
     -1839.168       -1433.027          43.000          42.000  
 127825693.084 5                  24324426.967                                  
     -2290.586                          33.000                  
 107497630.211 7  83764455.139 7  20456120.292                    20456136.811  
        42.062          33.000          45.000          43.000  
 126904210.291 6  98886472.971 6  24149071.700                    24149088.833  
     -3373.551       -2628.551          39.000          39.000  
 115313373.205 7  89854663.719 7  21943405.349                    21943423.917  
      2846.656        2218.109          44.000          42.000  
 24  1 10  3 20 18.1000000  0  8G08G24G18G23G16G10G15G32
 128738077.826 6 100315467.748 6  24498054.174                    24498074.960  
      2777.898        2164.789          36.000          38.000  
 128006566.104 6  99745468.556 6  24358838.794                    24358860.719  
       263.977         205.953          39.000          39.000  
 112926580.910 7  87994802.558 7  21489215.346                    21489230.341  
     -1818.312       -1416.680          45.000          44.000  
 109608296.348 7  85409119.812 7  20857766.133                    20857780.956  
     -1838.832       -1432.621          43.000          42.000  
 127825922.103 5                  24324470.547                                  
     -2290.328                          33.000                  
 107497625.916 7  83764451.814 7  20456119.474                    20456135.999  
        42.566          33.105          45.000          43.000  
 126904547.447 6  98886735.822 6  24149135.858                    24149153.024  
     -3372.543       -2628.566          39.000          40.000  
 115313088.547 7  89854441.844 7  21943351.180                    21943369.732  
      2846.691        2218.648          44.000          42.000  
 24  1 10  3 20 18.2000000  0  8G08G24G18G23G16G10G15G32
 128737800.003 6 100315251.286 6  24498001.447                    24498022.090  
      2778.086        2164.707          37.000          38.000  
 128006539.753 6  99745447.990 6  24358833.865                    24358855.657  
       263.625         205.645          40.000          39.000  
 112926762.710 7  87994944.238 7  21489250.215                    21489265.284  
     -1818.141       -1416.762          46.000          44.000  
 109608480.177 7  85409262.976 7  20857801.771                    20857816.113  
     -1838.715       -1432.324          43.000          42.000  
 127826151.082 5                  24324513.863                                  
     -2290.043                          34.000                  
 107497621.629 7  83764448.485 7  20456118.565                    20456134.881  
        42.832          33.691          45.000          43.000  
 126904884.763 6  98886998.707 6  24149200.094                    24149217.833  
     -3373.020       -2628.664          38.000          40.000  
 115312803.821 7  89854220.034 7  21943296.882                    21943315.791  
      2847.039        2218.367          44.000          42.000  
 24  1 10  3 20 18.3000000  0  8G08G24G18G23G16G10G15G32
 128737522.162 6 100315034.794 6  24497948.575                    24497969.221  
      2778.168        2164.871          37.000          38.000  
 128006513.340 6  99745427.441 6  24358828.839                    24358850.639  
       263.902         205.309          39.000          39.000  
 112926944.558 7  87995085.971 7  21489284.819                    21489299.897  
     -1818.207       -1416.930          45.000          44.000  
 109608664.050 7  85409406.309 7  20857836.760                    20857851.117  
     -1838.449       -1432.898          44.000          42.000  
 127826380.116 5                  24324557.447                                  
     -2290.230                          33.000                  
 107497617.324 7  83764445.119 7  20456117.746                    20456134.059  
        42.887          33.504          45.000          43.000  
 126905222.194 6  98887261.528 6  24149264.305                    24149282.016  
     -3373.562       -2628.355          39.000          40.000  
 115312519.135 7  89853998.176 7  21943242.708                    21943261.611  
      2846.805        2218.316          44.000          42.000  
 24  1 10  3 20 18.4000000  0  8G08G24G18G23G16G10G15G32
 128737244.328 6 100314818.310 6  24497895.963                    24497916.478  
      2778.355        2164.930          37.000          38.000  
 128006487.024 6  99745406.919 6  24358823.706                    24358845.166  
       263.496         205.355          39.000          39.000  
 112927126.423 7  87995227.647 7  21489319.591                    21489334.394  
     -1818.715       -1417.168          45.000          44.000  
 109608847.943 7  85409549.624 7  20857871.926                    20857885.991  
     -1838.832       -1433.078          43.000          42.000  
 127826609.127 5                  24324601.377                                  
     -2290.312                          33.000                  
 107497613.084 7  83764441.809 7  20456117.056                    20456133.188  
        42.629          33.074          45.000          43.000  
 126905559.693 6  98887524.434 6  24149328.396                    24149346.767  
     -3374.426       -2629.020          38.000          40.000  
 115312234.504 7  89853776.394 7  21943188.818                    21943207.191  
      2846.438        2218.062          43.000          42.000  
 24  1 10  3 20 18.5000000  0  8G08G24G18G23G16G10G15G32
 128736966.529 6 100314601.815 6  24497843.100                    24497863.608  
      2778.191        2164.961          37.000          38.000  
 128006460.684 6  99745386.357 6  24358818.694                    24358840.145  
       263.422         205.484          39.000          39.000  
 112927308.303 7  87995369.377 7  21489354.202                    21489369.006  
     -1818.609       -1417.121          45.000          44.000  
 109609031.842 7  85409692.863 7  20857906.921                    20857920.971  
     -1839.070       -1432.867          43.000          42.000  
 127826838.198 5                  24324644.968                                  
     -2290.289                          34.000                  
 107497608.827 7  83764438.498 7  20456116.246                    20456132.380  
        42.633          33.191          45.000          43.000  
 126905897.006 6  98887787.290 6  24149392.585                    24149410.959  
     -3373.520       -2628.543          37.000          40.000  
 115311949.884 7  89853554.598 7  21943134.656                    21943153.027  
      2846.477        2217.992          43.000          42.000  
 24  1 10  3 20 18.6000000  0  8G08G24G18G23G16G10G15G32
 128736688.682 6 100314385.335 6  24497790.141                    24497810.851  
      2778.270        2165.004          37.000          38.000  
 128006434.364 6  99745365.855 6  24358813.724                    24358835.154  
       263.266         205.168          39.000          39.000  
 112927490.221 7  87995511.123 7  21489388.780                    21489403.677  
     -1819.000       -1417.461          45.000          44.000  
 109609215.736 7  85409836.231 7  20857941.516                    20857956.303  
     -1838.887       -1433.215          43.000          42.000  
 127827067.180 5                  24324689.112                                  
     -2290.160                          34.000                  
 107497604.596 7  83764435.195 7  20456115.128                    20456131.393  
        42.375          32.859          45.000          43.000  
 126906234.426 6  98888050.200 6  24149456.278                    24149475.509  
     -3374.035       -2629.039          37.000          40.000  
 115311665.250 7  89853332.821 7  21943080.281                    21943098.359  
      2846.352        2217.652          44.000          42.000  
 24  1 10  3 20 18.7000000  0  8G08G24G18G23G16G10G15G32
 128736410.865 6 100314168.824 6  24497737.275                    24497757.977  
      2778.332        2164.977          37.000          38.000  
 128006408.050 6  99745345.374 6  24358808.717                    24358830.152  
       263.316         204.777          39.000          39.000  
 112927672.139 7  87995652.863 7  21489423.398                    21489438.291  
     -1818.977       -1417.434          45.000          44.000  
 109609399.672 7  85409979.501 7  20857976.518                    20857991.291  
     -1839.281       -1433.211          43.000          42.000  
 127827296.201 5                  24324732.694                                  
     -2290.121                          33.000                  
 107497600.365 7  83764431.887 7  20456114.323                    20456130.585  
        42.273          32.973          45.000          43.000  
 126906571.774 6  98888313.074 6  24149520.473                    24149539.705  
     -3373.488       -2628.637          37.000          40.000  
 115311380.628 7  89853111.041 7  21943026.119                    21943044.198  
      2846.184        2217.797          44.000          42.000  
 24  1 10  3 20 18.8000000  0  8G08G24G18G23G16G10G15G32
 128736133.047 6 100313952.350 6  24497684.673                    24497704.838  
      2778.199        2164.727          37.000          38.000  
 128006381.744 6  99745324.938 6  24358803.453                    24358825.279  
       263.125         204.746          39.000          39.000  
 112927854.043 7  87995794.631 7  21489457.927                    21489473.162  
     -1819.082       -1417.617          45.000          44.000  
 109609583.603 7  85410122.853 6  20858011.292                    20858026.026  
     -1839.246       -1433.359          43.000          41.000  
 127827525.255 5                  24324776.023                                  
     -2290.305                          33.000                  
 107497596.136 7  83764428.607 7  20456113.698                    20456129.589  
        42.387          32.957          45.000          43.000  
 126906908.970 6  98888575.925 6  24149584.358                    24149603.912  
     -3373.024       -2628.609          37.000          40.000  
 115311096.060 7  89852889.313 7  21942971.624                    21942990.643  
      2846.070        2217.434          44.000          42.000  
 24  1 10  3 20 18.9000000  0  8G08G24G18G23G16G10G15G32
 128735855.234 6 100313735.862 6  24497631.807                    24497651.969  
      2778.125        2164.992          37.000          37.000  
 128006355.446 6  99745304.386 6  24358798.449                    24358820.260  
       263.066         205.113          39.000          39.000  
 112928035.964 7  87995936.397 7  21489492.546                    21489507.783  
     -1819.137       -1417.645          45.000          44.000  
 109609767.539 7  85410266.176 6  20858046.294                    20858061.027  
     -1839.328       -1433.344          43.000          41.000  
 127827754.340 5                  24324819.617                                  
     -2290.652                          32.000                  
 107497591.935 7  83764425.343 7  20456112.899                    20456128.792  
        42.230          32.754          45.000          43.000  
 126907246.351 6  98888838.820 6  24149648.560                    24149668.113  
     -3373.293       -2628.832          37.000          40.000  
 115310811.450 7  89852667.545 7  21942917.465                    21942936.485  
      2845.988        2217.520          44.000          42.000  
 24  1 10  3 20 19.0000000  0  8G08G24G18G23G16G10G15G32
 128735577.396 6 100313519.372 6  24497578.585                    24497598.725  
      2778.211        2164.984          37.000          38.000  
 128006329.155 6  99745283.924 6  24358793.477                    24358815.638  
       262.938         204.664          39.000          40.000  
 112928217.944 7  87996078.196 7  21489527.183                    21489542.091  
     -1819.590       -1417.934          46.000          44.000  
 109609951.508 7  85410409.492 7  20858081.318                    20858095.924  
     -1839.492       -1433.016          44.000          42.000  
 127827983.377 5                  24324863.224                                  
     -2290.332                          32.000                  
 107497587.755 7  83764422.082 7  20456112.361                    20456128.519  
        41.992          32.664          45.000          43.000  
 126907583.707 6  98889101.704 6  24149712.499                    24149732.508  
     -3373.406       -2628.961          38.000          40.000  
 115310526.900 7  89852445.796 7  21942863.489                    21942883.027  
      2845.719        2217.402          44.000          42.000  
 24  1 10  3 20 19.1000000  0  8G08G24G18G23G16G10G15G32
 128735299.611 6 100313302.902 6  24497525.724                    24497545.861  
      2778.059        2164.902          37.000          38.000  
 128006302.915 6  99745263.442 6  24358788.484                    24358810.636  
       262.785         205.078          40.000          40.000  
 112928399.843 7  87996219.918 7  21489561.797                    21489576.701  
     -1819.262       -1417.523          46.000          44.000  
 109610135.441 7  85410552.803 7  20858116.319                    20858130.922  
     -1839.586       -1433.340          43.000          42.000  
 127828212.412 5                  24324906.808                                  
     -2290.574                          32.000                  
 107497583.522 7  83764418.768 7  20456111.556                    20456127.710  
        42.023          32.688          45.000          43.000  
 126907921.135 6  98889364.595 6  24149776.709                    24149796.708  
     -3373.942       -2628.633          39.000          40.000  
 115310242.296 7  89852224.045 7  21942809.330                    21942828.873  
      2845.793        2217.574          44.000          42.000  
 24  1 10  3 20 19.2000000  0  8G08G24G18G23G16G10G15G32
 128735021.764 6 100313086.408 6  24497472.625                    24497493.397  
      2778.320        2164.977          37.000          38.000  
 128006276.600 6  99745242.911 6  24358783.992                    24358805.497  
       263.066         205.211          40.000          40.000  
 112928581.742 7  87996361.696 7  21489596.490                    21489611.809  
     -1818.914       -1417.301          46.000          45.000  
 109610319.331 7  85410696.105 6  20858151.703                    20858166.246  
     -1839.023       -1433.000          43.000          41.000  
 127828441.390 5                  24324950.085                                  
     -2290.023                          33.000                  
 107497579.278 7  83764415.485 7  20456110.318                    20456126.502  
        42.434          33.086          45.000          43.000  
 126908258.409 6  98889627.449 6  24149841.242                    24149861.025  
     -3373.164       -2628.539          38.000          40.000  
 115309957.678 7  89852002.226 7  21942755.333                    21942775.054  
      2846.105        2218.027          44.000          42.000  
 24  1 10  3 20 19.3000000  0  8G08G24G18G23G16G10G15G32
 128734743.920 6 100312869.902 6  24497419.753                    24497440.524  
      2778.305        2164.828          37.000          38.000  
 128006250.242 6  99745222.422 6  24358778.976                    24358800.493  
       263.234         204.793          40.000          40.000  
 112928763.649 7  87996503.383 7  21489631.106                    21489646.411  
     -1819.043       -1417.332          46.000          45.000  
 109610503.201 7  85410839.445 6  20858186.692                    20858201.252  
     -1838.656       -1432.840          44.000          41.000  
 127828670.396 5                  24324993.663                                  
     -2289.949                          33.000                  
 107497575.038 7  83764412.178 7  20456109.511                    20456125.694  
        42.395          33.105          45.000          43.000  
 126908595.748 6  98889890.304 6  24149905.435                    24149925.217  
     -3373.371       -2628.605          38.000          40.000  
 115309673.080 7  89851780.503 7  21942701.176                    21942720.907  
      2846.180        2217.652          44.000          42.000  
 24  1 10  3 20 19.4000000  0  8G08G24G18G23G16G10G15G32
 128734466.085 6 100312653.418 6  24497366.961                    24497387.383  
      2778.312        2164.801          37.000          38.000  
 128006223.947 6  99745201.933 6  24358773.902                    24358795.325  
       263.172         204.961          40.000          39.000  
 112928945.519 7  87996645.141 7  21489665.535                    21489680.709  
     -1818.855       -1417.418          46.000          45.000  
 109610687.073 7  85410982.666 6  20858221.791                    20858236.220  
     -1838.879       -1432.883          44.000          41.000  
 127828899.515 5                  24325037.317                                  
     -2290.602                          33.000                  
 107497570.798 7  83764408.880 7  20456108.853                    20456124.936  
        42.500          33.125          44.000          43.000  
 126908933.141 6  98890153.173 6  24149969.709                    24149989.646  
     -3373.684       -2628.797          39.000          40.000  
 115309388.474 7  89851558.705 7  21942646.955                    21942666.000  
      2846.039        2217.793          44.000          42.000  
 24  1 10  3 20 19.5000000  0  8G08G24G18G23G16G10G15G32
 128734188.283 6 100312436.934 6  24497314.097                    24497334.516  
      2778.215        2164.711          37.000          38.000  
 128006197.632 6  99745181.443 6  24358768.895                    24358790.322  
       263.129         204.805          40.000          39.000  
 112929127.387 7  87996786.826 7  21489700.143                    21489715.310  
     -1818.906       -1417.113          45.000          45.000  
 109610870.948 7  85411126.027 6  20858256.782                    20858271.230  
     -1838.641       -1432.688          43.000          41.000  
 127829128.548 5                  24325080.901                                  
     -2290.426                          33.000                  
 107497566.512 7  83764405.502 7  20456108.037                    20456124.111  
        42.551          33.500          44.000          43.000  
 126909270.524 6  98890416.047 6  24150033.911                    24150053.843  
     -3373.660       -2628.617          40.000          40.000  
 115309103.849 7  89851336.924 7  21942592.793                    21942611.839  
      2846.184        2217.637          43.000          42.000  
 24  1 10  3 20 19.6000000  0  8G08G24G18G23G16G10G15G32
 128733910.453 6 100312220.451 6  24497260.993                    24497281.476  
      2778.238        2164.953          37.000          38.000  
 128006171.352 6  99745160.943 6  24358763.925                    24358784.636  
       263.023         205.012          39.000          39.000  
 112929309.211 7  87996928.532 7  21489734.251                    21489749.737  
     -1818.270       -1416.863          45.000          44.000  
 109611054.791 7  85411269.187 6  20858291.594                    20858305.894  
     -1838.762       -1432.219          43.000          41.000  
 127829357.582 5                  24325124.532                                  
     -2290.484                          32.000                  
 107497562.208 7  83764402.161 7  20456107.343                    20456123.310  
        42.844          33.355          44.000          43.000  
 126909607.913 6  98890678.903 6  24150098.833                    24150117.965  
     -3373.832       -2628.695          40.000          40.000  
 115308819.244 7  89851115.178 7  21942538.587                    21942557.616  
      2846.191        2217.836          43.000          42.000  
 24  1 10  3 20 19.7000000  0  8G08G24G18G23G16G10G15G32
 128733632.674 6 100312003.981 6  24497208.134                    24497228.612  
      2778.047        2164.691          37.000          38.000  
 128006145.021 6  99745140.456 6  24358758.914                    24358779.633  
       263.070         204.863          40.000          39.000  
 112929491.099 7  87997070.229 7  21489768.863                    21489784.340  
     -1818.750       -1417.125          45.000          44.000  
 109611238.624 7  85411412.452 7  20858326.576                    20858340.881  
     -1838.324       -1432.527          43.000          42.000  
 127829586.757 5                  24325168.142                                  
     -2291.016                          33.000                  
 107497557.961 7  83764398.856 7  20456106.535                    20456122.503  
        42.645          33.297          45.000          43.000  
 126909945.191 6  98890941.682 6  24150163.015                    24150182.138  
     -3373.547       -2628.430          40.000          40.000  
 115308534.650 7  89850893.401 7  21942484.431                    21942503.455  
      2845.977        2217.695          43.000          42.000  
 24  1 10  3 20 19.8000000  0  8G08G24G18G23G16G10G15G32
 128733354.836 6 100311787.484 6  24497154.653                    24497176.249  
      2778.184        2164.879          37.000          38.000  
 128006118.753 6  99745119.947 6  24358753.728                    24358774.312  
       262.926         205.074          39.000          39.000  
 112929672.989 7  87997211.994 7  21489803.585                    21489818.289  
     -1818.793       -1417.551          46.000          44.000  
 109611422.488 7  85411555.788 7  20858361.408                    20858376.315  
     -1838.520       -1432.906          43.000          42.000  
 127829815.729 5                  24325211.456                                  
     -2290.438                          32.000                  
 107497553.694 7  83764395.532 7  20456105.879                    20456121.363  
        42.617          33.188          45.000          43.000  
 126910282.533 6  98891204.629 6  24150227.396                    24150246.134  
     -3373.215       -2628.863          39.000          40.000  
 115308250.043 7  89850671.629 7  21942430.280                    21942449.336  
      2846.008        2217.379          44.000          42.000  
 24  1 10  3 20 19.9000000  0  8G08G24G18G23G16G10G15G32
 128733077.048 6 100311571.037 6  24497101.792                    24497123.391  
      2778.004        2164.715          37.000          38.000  
 128006092.457 6  99745099.451 6  24358748.724                    24358769.306  
       262.910         204.836          39.000          38.000  
 112929854.792 7  87997353.656 7  21489838.181                    21489852.884  
     -1818.375       -1416.703          46.000          45.000  
 109611606.299 7  85411698.942 7  20858396.386                    20858411.274  
     -1838.383       -1432.285          44.000          42.000  
 127830044.838 5                  24325255.054                                  
     -2290.781                          32.000                  
 107497549.409 7  83764392.194 7  20456105.064                    20456120.548  
        42.824          33.387          45.000          43.000  
 126910619.867 6  98891467.489 6  24150291.589                    24150310.327  
     -3373.308       -2628.602          39.000          40.000  
 115307965.431 7  89850449.867 7  21942376.120                    21942395.179  
      2846.113        2218.031          44.000          42.000  
 24  1 10  3 20 20.0000000  0  8G08G24G18G23G16G10G15G32
 128732799.238 6 100311354.570 6  24497048.724                    24497070.488  
      2778.141        2164.723          36.000          39.000  
 128006066.105 6  99745078.972 6  24358743.921                    24358764.289  
       263.395         204.715          39.000          39.000  
 112930036.621 7  87997495.341 7  21489873.165                    21489888.024  
     -1818.312       -1416.766          45.000          45.000  
 109611790.125 7  85411842.191 6  20858431.633                    20858445.648  
     -1838.242       -1432.113          44.000          41.000  
 127830273.936 5                  24325298.291                                  
     -2290.820                          32.000                  
 107497545.096 7  83764388.846 7  20456103.564                    20456119.598  
        43.020          33.625          45.000          44.000  
 126910957.211 6  98891730.322 6  24150355.635                    24150374.146  
     -3373.473       -2628.230          39.000          40.000  
 115307680.817 7  89850228.109 7  21942321.217                    21942340.914  
      2846.242        2217.734          44.000          42.000  
 24  1 10  3 20 20.1000000  0  8G08G24G18G23G16G10G15G32
 128732521.407 6 100311138.088 6  24496995.854                    24497017.621  
      2778.266        2164.883          36.000          39.000  
 128006039.812 6  99745058.479 6  24358738.917                    24358759.285  
       262.980         205.012          39.000          38.000  
 112930218.461 7  87997637.013 7  21489907.767                    21489922.622  
     -1818.449       -1416.785          45.000          44.000  
 109611973.921 7  85411985.410 6  20858466.608                    20858480.623  
     -1838.031       -1432.641          44.000          41.000  
 127830502.929 5                  24325341.867                                  
     -2290.234                          33.000                  
 107497540.759 7  83764385.460 7  20456102.738                    20456118.771  
        43.199          33.680          45.000          44.000  
 126911294.523 6  98891993.109 6  24150419.823                    24150438.321  
     -3373.246       -2628.121          40.000          40.000  
 115307396.142 7  89850006.228 7  21942267.046                    21942286.728  
      2846.371        2218.363          44.000          42.000  
 24  1 10  3 20 20.2000000  0  8G08G24G18G23G16G10G15G32
 128732243.558 6 100310921.589 6  24496943.442                    24496964.648  
      2778.207        2164.969          36.000          38.000  
 128006013.537 6  99745037.965 6  24358733.613                    24358754.455  
       262.941         204.980          39.000          38.000  
 112930400.263 7  87997778.712 7  21489942.262                    21489957.289  
     -1818.094       -1416.844          45.000          44.000  
 109612157.718 7  85412128.651 6  20858501.451                    20858515.300  
     -1837.973       -1431.820          44.000          41.000  
 127830731.927 5                  24325385.733                                  
     -2290.520                          33.000                  
 107497536.437 7  83764382.069 7  20456101.994                    20456118.560  
        43.203          33.836          45.000          44.000  
 126911631.751 6  98892256.001 6  24150484.285                    24150502.046  
     -3372.672       -2628.738          39.000          40.000  
 115307111.497 7  89849784.448 7  21942213.122                    21942232.567  
      2846.566        2218.117          44.000          42.000  
 24  1 10  3 20 20.3000000  0  8G08G24G18G23G16G10G15G32
 128731965.795 6 100310705.140 6  24496890.585                    24496911.789  
      2778.094        2164.668          36.000          39.000  
 128005987.247 6  99745017.497 6  24358728.610                    24358749.456  
       263.008         204.887          39.000          38.000  
 112930582.117 7  87997920.445 7  21489976.867                    21489991.902  
     -1818.289       -1417.027          45.000          44.000  
 109612341.520 7  85412271.869 6  20858536.427                    20858550.275  
     -1837.949       -1432.191          44.000          41.000  
 127830961.017 5                  24325429.327                                  
     -2290.516                          33.000                  
 107497532.115 7  83764378.734 7  20456101.172                    20456117.746  
        43.258          33.652          45.000          44.000  
 126911969.170 6  98892518.903 6  24150548.493                    24150566.249  
     -3373.594       -2629.145          39.000          40.000  
 115306826.812 7  89849562.596 7  21942158.948                    21942178.389  
      2846.570        2218.008          44.000          42.000  
 24  1 10  3 20 20.4000000  0  8G08G24G18G23G16G10G15G32
 128731687.918 6 100310488.665 6  24496837.668                    24496859.010  
      2778.348        2164.746          36.000          39.000  
 128005960.981 6  99744996.970 6  24358723.588                    24358743.740  
       262.723         205.203          39.000          37.000  
 112930763.950 7  87998062.034 7  21490011.672                    21490026.417  
     -1818.504       -1416.707          45.000          44.000  
 109612525.322 7  85412415.068 6  20858572.060                    20858585.300  
     -1838.121       -1432.559          44.000          41.000  
 127831190.038 5                  24325473.174                                  
     -2290.598                          32.000                  
 107497527.780 7  83764375.355 7  20456100.409                    20456117.537  
        43.340          33.773          45.000          44.000  
 126912306.530 6  98892781.833 6  24150612.253                    24150630.178  
     -3373.418       -2629.121          39.000          40.000  
 115306542.167 7  89849340.838 7  21942105.063                    21942124.561  
      2846.602        2218.008          44.000          42.000  
 24  1 10  3 20 20.5000000  0  8G08G24G18G23G16G10G15G32
 128731410.157 6 100310272.197 6  24496784.812                    24496806.146  
      2777.836        2164.734          36.000          39.000  
 128005934.741 6  99744976.521 6  24358718.595                    24358738.747  
       262.594         204.496          39.000          38.000  
 112930945.801 7  87998203.813 7  21490046.277                    21490061.040  
     -1818.359       -1417.270          45.000          44.000  
 109612709.157 7  85412558.344 6  20858607.042                    20858620.290  
     -1838.227       -1432.520          44.000          41.000  
 127831419.115 5                  24325516.766                                  
     -2290.461                          32.000                  
 107497523.458 7  83764371.981 7  20456099.587                    20456116.714  
        43.195          33.711          45.000          44.000  
 126912644.046 6  98893044.674 6  24150676.480                    24150694.366  
     -3374.379       -2628.320          40.000          40.000  
 115306257.531 7  89849119.021 7  21942050.899                    21942070.392  
      2846.422        2217.941          44.000          42.000  
 24  1 10  3 20 20.6000000  0  8G08G24G18G23G16G10G15G32
 128731132.357 6 100310055.726 6  24496732.097                    24496753.149  
      2778.074        2164.758          36.000          39.000  
 128005908.502 6  99744956.064 6  24358713.500                    24358733.212  
       262.500         204.500          39.000          38.000  
 112931127.659 7  87998345.489 7  21490081.173                    21490096.038  
     -1818.473       -1417.016          45.000          44.000  
 109612892.987 7  85412701.581 6  20858641.727                    20858655.160  
     -1838.133       -1432.309          44.000          41.000  
 127831648.076 5                  24325560.445                                  
     -2290.109                          32.000                  
 107497519.156 7  83764368.632 7  20456099.151                    20456115.286  
        43.168          33.574          45.000          44.000  
 126912981.317 6  98893307.403 6  24150741.059                    24150758.457  
     -3374.070       -2628.590          40.000          40.000  
 115305972.871 7  89848897.200 7  21941996.573                    21942016.416  
      2846.570        2218.227          44.000          42.000  
 24  1 10  3 20 20.7000000  0  8G08G24G18G23G16G10G15G32
 128730854.547 6 100309839.271 6  24496679.231                    24496700.288  
      2778.020        2164.430          36.000          39.000  
 128005882.289 6  99744935.647 6  24358708.512                    24358728.226  
       262.316         204.199          39.000          38.000  
 112931309.533 7  87998487.240 7  21490115.782                    21490130.655  
     -1818.539       -1417.531          45.000          45.000  
 109613076.863 7  85412844.860 6  20858676.717                    20858690.151  
     -1838.516       -1432.473          44.000          41.000  
 127831877.139 5                  24325604.034                                  
     -2290.348                          32.000                  
 107497514.865 7  83764365.266 7  20456098.334                    20456114.464  
        42.988          33.566          45.000          44.000  
 126913318.601 6  98893570.416 6  24150805.242                    24150822.688  
     -3373.035       -2629.027          39.000          40.000  
 115305688.241 7  89848675.436 7  21941942.410                    21941962.259  
      2846.410        2217.938          44.000          42.000  
 24  1 10  3 20 20.8000000  0  8G08G24G18G23G16G10G15G32
 128730576.786 6 100309622.810 6  24496626.328                    24496647.551  
      2777.820        2164.344          36.000          39.000  
 128005856.027 6  99744915.242 6  24358703.632                    24358723.703  
       262.480         204.129          39.000          39.000  
 112931491.423 7  87998628.958 7  21490149.996                    21490165.678  
     -1818.855       -1417.000          45.000          45.000  
 109613260.674 7  85412988.069 6  20858711.570                    20858725.241  
     -1838.605       -1432.488          44.000          41.000  
 127832106.157 5                  24325647.693                                  
     -2290.188                          32.000                  
 107497510.556 7  83764361.941 7  20456097.757                    20456113.418  
        42.992          33.406          46.000          44.000  
 126913656.093 6  98893833.309 6  24150869.981                    24150887.131  
     -3374.152       -2628.941          41.000          40.000  
 115305403.555 7  89848453.565 7  21941888.267                    21941907.841  
      2846.457        2218.270          44.000          42.000  
 24  1 10  3 20 20.9000000  0  8G08G24G18G23G16G10G15G32
 128730298.964 6 100309406.349 6  24496573.461                    24496594.689  
      2778.184        2164.836          36.000          38.000  
 128005829.826 6  99744894.828 6  24358698.646                    24358718.718  
       262.172         204.281          39.000          39.000  
 112931673.248 7  87998770.619 7  21490184.596                    21490200.273  
     -1818.621       -1416.977          45.000          44.000  
 109613444.507 7  85413131.375 6  20858746.553                    20858760.238  
     -1838.043       -1432.535          44.000          41.000  
 127832335.204 5                  24325691.279                                  
     -2290.430                          33.000                  
 107497506.233 7  83764358.555 7  20456096.934                    20456112.591  
        43.105          33.652          45.000          44.000  
 126913993.375 6  98894096.237 6  24150934.163                    24150951.341  
     -3373.379       -2629.137          39.000          40.000  
 115305118.915 7  89848231.799 7  21941834.102                    21941853.684  
      2846.617        2217.828          44.000          42.000  
 24  1 10  3 20 21.0000000  0  8G08G24G18G23G16G10G15G32
 128730021.164 6 100309189.871 6  24496520.402                    24496542.237  
      2778.047        2164.281          36.000          38.000  
 128005803.570 6  99744874.375 6  24358693.751                    24358715.122  
       262.422         204.160          39.000          40.000  
 112931855.169 7  87998912.378 7  21490219.285                    21490234.470  
     -1818.664       -1416.988          45.000          44.000  
 109613628.346 7  85413274.580 7  20858781.185                    20858795.397  
     -1838.375       -1432.434          43.000          42.000  
 127832564.180 5                  24325734.914                                  
     -2290.047                          33.000                  
 107497501.869 7  83764355.172 7  20456096.158                    20456112.007  
        43.500          33.910          45.000          44.000  
 126914330.802 6  98894359.169 6  24150997.920                    24151015.504  
     -3373.816       -2629.445          39.000          40.000  
 115304834.249 7  89848009.985 7  21941780.096                    21941799.202  
      2846.578        2218.234          44.000          42.000  
 24  1 10  3 20 21.1000000  0  8G08G24G18G23G16G10G15G32
 128729743.383 6 100308973.403 6  24496467.542                    24496489.374  
      2777.848        2164.598          36.000          38.000  
 128005777.403 6  99744854.000 6  24358688.771                    24358710.146  
       262.027         203.840          39.000          40.000  
 112932036.998 7  87999054.064 7  21490253.886                    21490269.071  
     -1818.566       -1417.121          45.000          45.000  
 109613812.136 7  85413417.803 7  20858816.159                    20858830.374  
     -1838.109       -1432.231          43.000          42.000  
 127832793.267 5                  24325778.508                                  
     -2290.426                          33.000                  
 107497497.570 7  83764351.806 7  20456095.340                    20456111.185  
        43.281          33.789          45.000          44.000  
 126914668.263 6  98894622.115 6  24151062.137                    24151079.719  
     -3374.141       -2629.309          40.000          40.000  
 115304549.583 7  89847788.141 7  21941725.926                    21941745.025  
      2846.773        2218.383          44.000          42.000  
 24  1 10  3 20 21.2000000  0  8G08G24G18G23G16G10G15G32
 128729465.619 6 100308756.987 6  24496414.638                    24496436.601  
      2777.746        2164.547          36.000          38.000  
 128005751.219 6  99744833.632 6  24358683.515                    24358706.015  
       261.887         203.715          39.000          40.000  
 112932218.902 7  87999195.819 7  21490288.196                    21490303.548  
     -1819.012       -1417.488          45.000          45.000  
 109613996.035 7  85413561.070 7  20858850.193                    20858866.111  
     -1838.641       -1432.598          43.000          42.000  
 127833022.211 5                  24325822.090                                  
     -2289.855                          32.000                  
 107497493.268 7  83764348.441 7  20456094.318                    20456110.254  
        43.148          33.594          45.000          43.000  
 126915005.731 6  98894884.976 6  24151126.464                    24151144.224  
     -3374.457       -2628.812          41.000          40.000  
 115304264.943 7  89847566.362 7  21941671.925                    21941690.927  
      2846.582        2218.113          44.000          42.000  
 24  1 10  3 20 21.3000000  0  8G08G24G18G23G16G10G15G32
 128729187.885 6 100308540.544 6  24496361.787                    24496383.743  
      2777.551        2164.184          36.000          38.000  
 128005725.110 6  99744813.271 6  24358678.547                    24358701.043  
       261.562         203.773          40.000          41.000  
 112932400.793 7  87999337.578 7  21490322.809                    21490338.167  
     -1818.777       -1417.539          45.000          44.000  
 109614179.874 7  85413704.328 7  20858885.176                    20858901.096  
     -1838.539       -1433.016          43.000          42.000  
 127833251.242 5                  24325865.674                                  
     -2290.145                          32.000                  
 107497488.970 7  83764345.105 7  20456093.501                    20456109.439  
        43.039          33.340          45.000          43.000  
 126915343.194 7  98895147.956 6  24151190.682                    24151208.447  
     -3374.535       -2629.613          42.000          40.000  
 115303980.287 7  89847344.545 7  21941617.757                    21941636.757  
      2846.500        2218.129          44.000          42.000  
 24  1 10  3 20 21.4000000  0  8G08G24G18G23G16G10G15G32
 128728910.141 6 100308324.141 6  24496309.090                    24496330.848  
      2777.520        2164.023          36.000          38.000  
 128005698.922 6  99744792.854 6  24358673.876                    24358696.463  
       261.641         203.836          39.000          41.000  
 112932582.745 7  87999479.321 7  21490357.574                    21490372.228  
     -1819.422       -1417.715          45.000          44.000  
 109614363.757 7  85413847.624 7  20858920.285                    20858935.255  
     -1838.805       -1432.957          44.000          42.000  
 127833480.279 5                  24325909.367                                  
     -2290.301                          32.000                  
 107497484.693 7  83764341.785 7  20456092.929                    20456108.761  
        42.773          33.164          45.000          43.000  
 126915680.644 7  98895410.859 6  24151255.841                    24151272.627  
     -3374.570       -2629.297          42.000          40.000  
 115303695.669 7  89847122.775 7  21941563.455                    21941582.904  
      2846.367        2217.559          44.000          42.000  
 24  1 10  3 20 21.5000000  0  8G08G24G18G23G16G10G15G32
 128728632.420 6 100308107.726 6  24496256.242                    24496277.997  
      2777.316        2164.094          36.000          38.000  
 128005672.809 6  99744772.510 6  24358668.907                    24358691.495  
       261.609         203.477          39.000          41.000  
 112932764.687 7  87999621.098 7  21490392.197                    21490406.851  
     -1819.297       -1417.680          45.000          44.000  
 109614547.685 7  85413990.928 6  20858955.285                    20858970.251  
     -1838.988       -1433.141          44.000          41.000  
 127833709.407 5                  24325952.969                                  
     -2290.613                          33.000                  
 107497480.479 7  83764338.487 7  20456092.127                    20456107.956  
        42.434          32.988          45.000          44.000  
 126916018.135 6  98895673.874 6  24151320.064                    24151336.858  
     -3374.578       -2629.754          40.000          40.000  
 115303411.039 7  89846900.986 7  21941509.291                    21941528.740  
      2846.172        2217.551          44.000          42.000  
 24  1 10  3 20 21.6000000  0  8G08G24G18G23G16G10G15G32
 128728354.759 6 100307891.354 6  24496203.936                    24496225.204  
      2776.934        2163.723          36.000          38.000  
 128005646.639 6  99744752.173 6  24358664.232                    24358686.896  
       261.418         203.562          39.000          40.000  
 112932946.652 7  87999762.884 7  21490427.128                    21490441.703  
     -1819.473       -1417.715          45.000          45.000  
 109614731.621 7  85414134.268 7  20858991.342                    20859004.350  
     -1839.277       -1433.203          44.000          42.000  
 127833938.420 5                  24325996.471                                  
     -2290.398                          33.000                  
 107497476.258 7  83764335.174 7  20456091.167                    20456107.256  
        42.223          32.902          45.000          43.000  
 126916355.429 6  98895936.850 6  24151383.952                    24151401.251  
     -3373.726       -2629.883          38.000          40.000  
 115303126.436 7  89846679.219 7  21941455.204                    21941474.684  
      2846.098        2217.766          44.000          42.000  
 24  1 10  3 20 21.7000000  0  8G08G24G18G23G16G10G15G32
 128728077.041 6 100307674.961 6  24496151.088                    24496172.359  
      2777.070        2163.812          37.000          38.000  
 128005620.572 6  99744731.764 6  24358659.271                    24358681.912  
       261.145         203.895          38.000          40.000  
 112933128.611 7  87999904.675 7  21490461.754                    21490476.330  
     -1819.527       -1418.066          45.000          45.000  
 109614915.572 7  85414277.643 7  20859026.346                    20859039.363  
     -1839.223       -1433.500          44.000          42.000  
 127834167.485 5                  24326040.060                                  
     -2290.516                          34.000                  
 107497472.055 7  83764331.914 7  20456090.368                    20456106.460  
        42.199          32.625          45.000          43.000  
 126916692.992 6  98896199.812 6  24151448.188                    24151465.469  
     -3374.934       -2629.719          37.000          40.000  
 115302841.854 7  89846457.444 7  21941401.049                    21941420.525  
      2846.078        2217.809          44.000          42.000  
 24  1 10  3 20 21.8000000  0  8G08G24G18G23G16G10G15G32
 128727799.372 6 100307458.576 6  24496098.015                    24496119.390  
      2776.980        2163.863          36.000          38.000  
 128005594.374 6  99744711.395 6  24358653.997                    24358676.687  
       261.555         203.926          38.000          40.000  
 112933310.593 7  88000046.469 7  21490496.345                    21490511.731  
     -1819.668       -1417.871          45.000          45.000  
 109615099.494 7  85414420.958 7  20859061.846                    20859075.019  
     -1839.371       -1433.324          44.000          42.000  
 127834396.562 5                  24326084.183                                  
     -2290.434                          34.000                  
 107497467.839 7  83764328.628 7  20456089.300                    20456105.259  
        42.141          32.793          45.000          43.000  
 126917030.577 6  98896462.809 6  24151511.788                    24151529.805  
     -3375.301       -2629.938          39.000          40.000  
 115302557.230 7  89846235.685 7  21941347.301                    21941366.376  
      2845.934        2217.449          44.000          42.000  
 24  1 10  3 20 21.9000000  0  8G08G24G18G23G16G10G15G32
 128727521.655 6 100307242.155 6  24496045.167                    24496066.538  
      2777.031        2164.199          37.000          38.000  
 128005568.226 6  99744691.018 6  24358649.021                    24358671.711  
       261.621         203.773          38.000          40.000  
 112933492.501 7  88000188.227 7  21490530.961                    21490546.350  
     -1819.285       -1417.473          45.000          45.000  
 109615283.435 7  85414564.289 7  20859096.848                    20859110.021  
     -1839.176       -1433.039          44.000          42.000  
 127834625.568 5                  24326127.762                                  
     -2290.391                          33.000                  
 107497463.630 7  83764325.373 7  20456088.499                    20456104.464  
        42.277          32.875          45.000          43.000  
 126917368.123 6  98896725.728 6  24151576.020                    24151594.013  
     -3375.180       -2629.273          39.000          40.000  
 115302272.643 7  89846013.929 7  21941293.146                    21941312.221  
      2846.121        2217.703          44.000          42.000  
 24  1 10  3 20 22.0000000  0  8G08G24G18G23G16G10G15G32
 128727243.956 6 100307025.778 6  24495992.229                    24496013.923  
      2777.051        2163.941          37.000          38.000  
 128005542.094 6  99744670.623 6  24358644.033                    24358666.293  
       261.477         203.871          38.000          40.000  
 112933674.476 7  88000330.016 7  21490565.542                    21490581.531  
     -1819.457       -1417.754          45.000          45.000  
 109615467.340 7  85414707.554 7  20859131.579                    20859145.422  
     -1839.473       -1433.426          45.000          42.000  
 127834854.625 5                  24326171.498                                  
     -2290.512                          33.000                  
 107497459.417 7  83764322.062 7  20456088.064                    20456103.562  
        42.016          32.824          45.000          43.000  
 126917705.428 6  98896988.695 6  24151640.223                    24151658.138  
     -3374.352       -2629.383          39.000          40.000  
 115301988.036 7  89845792.164 7  21941238.589                    21941258.056  
      2846.160        2217.742          44.000          42.000  
 24  1 10  3 20 22.1000000  0  8G08G24G18G23G16G10G15G32
 128726966.263 6 100306809.413 6  24495939.386                    24495961.085  
      2776.887        2163.578          37.000          38.000  
 128005515.992 6  99744650.257 6  24358639.066                    24358661.319  
       261.168         203.871          39.000          40.000  
 112933856.443 7  88000471.814 7  21490600.169                    21490616.159  
     -1819.672       -1418.125          45.000          45.000  
 109615651.301 7  85414850.906 7  20859166.585                    20859180.430  
     -1839.395       -1433.273          44.000          42.000  
 127835083.732 5                  24326215.096                                  
     -2290.672                          33.000                  
 107497455.218 7  83764318.803 7  20456087.265                    20456102.766  
        42.105          32.648          45.000          43.000  
 126918042.936 6  98897251.678 6  24151704.449                    24151722.361  
     -3374.715       -2630.109          39.000          40.000  
 115301703.440 7  89845570.385 7  21941184.432                    21941203.896  
      2845.949        2217.629          44.000          42.000  
 24  1 10  3 20 22.2000000  0  8G08G24G18G23G16G10G15G32
 128726688.620 6 100306593.065 6  24495886.537                    24495908.610  
      2776.715        2163.547          37.000          38.000  
 128005489.841 6  99744629.917 6  24358634.128                    24358655.915  
       261.402         203.395          38.000          40.000  
 112934038.396 7  88000613.606 7  21490634.380                    21490650.060  
     -1819.562       -1418.137          45.000          45.000  
 109615835.236 7  85414994.222 7  20859201.775                    20859214.758  
     -1839.457       -1433.309          45.000          42.000  
 127835312.817 5                  24326258.400                                  
     -2290.734                          33.000                  
 107497451.057 7  83764315.552 7  20456086.387                    20456102.160  
        41.812          32.547          45.000          43.000  
 126918380.493 6  98897514.694 6  24151767.918                    24151786.303  
     -3375.144       -2630.031          39.000          40.000  
 115301418.890 7  89845348.663 7  21941130.237                    21941149.843  
      2845.707        2217.227          44.000          42.000  
 24  1 10  3 20 22.3000000  0  8G08G24G18G23G16G10G15G32
 128726410.921 6 100306376.670 6  24495833.692                    24495855.764  
      2776.898        2163.871          37.000          38.000  
 128005463.808 6  99744609.587 6  24358629.174                    24358650.950  
       260.887         203.383          39.000          39.000  
 112934220.357 7  88000755.405 7  21490669.006                    21490684.689  
     -1819.688       -1418.031          45.000          45.000  
 109616019.201 7  85415137.606 7  20859236.782                    20859249.774  
     -1839.402       -1433.266          44.000          42.000  
 127835541.873 5                  24326301.988                                  
     -2290.773                          33.000                  
 107497446.848 7  83764312.279 7  20456085.586                    20456101.360  
        41.988          32.594          45.000          43.000  
 126918717.893 6  98897777.620 6  24151832.123                    24151850.513  
     -3374.606       -2629.742          40.000          41.000  
 115301134.311 7  89845126.925 7  21941076.084                    21941095.692  
      2845.777        2217.391          44.000          42.000  
 24  1 10  3 20 22.4000000  0  8G08G24G18G23G16G10G15G32
 128726133.259 6 100306160.319 6  24495780.589                    24495802.882  
      2776.684        2163.832          37.000          38.000  
 128005437.633 6  99744589.256 6  24358624.100                    24358645.961  
       261.293         203.398          39.000          39.000  
 112934402.374 7  88000897.186 7  21490704.072                    21490718.813  
     -1819.867       -1417.684          45.000          44.000  
 109616203.170 7  85415280.978 7  20859271.728                    20859284.943  
     -1839.473       -1433.582          44.000          42.000  
 127835770.999 5                  24326345.894                                  
     -2290.992                          32.000                  
 107497442.687 7  83764309.036 7  20456084.857                    20456100.615  
        41.836          32.520          45.000          43.000  
 126919055.368 6  98898040.627 6  24151896.889                    24151914.601  
     -3374.742       -2629.754          40.000          41.000  
 115300849.750 7  89844905.165 6  21941022.090                    21941041.528  
      2845.680        2217.531          44.000          41.000  
 24  1 10  3 20 22.5000000  0  8G08G24G18G23G16G10G15G32
 128725855.595 6 100305943.947 6  24495727.751                    24495750.042  
      2776.750        2163.645          37.000          38.000  
 128005411.572 6  99744568.915 6  24358619.141                    24358640.994  
       260.875         203.602          39.000          39.000  
 112934584.350 7  88001039.005 7  21490738.701                    21490753.447  
     -1819.840       -1418.238          45.000          44.000  
 109616387.099 7  85415424.216 7  20859306.728                    20859319.923  
     -1839.645       -1433.106          44.000          42.000  
 127836000.119 5                  24326389.494                                  
     -2290.996                          33.000                  
 107497438.503 7  83764305.768 7  20456084.061                    20456099.817  
        41.816          32.711          45.000          43.000  
 126919392.873 6  98898303.612 6  24151961.114                    24151978.825  
     -3374.719       -2629.816          39.000          41.000  
 115300565.169 7  89844683.436 7  21940967.936                    21940987.379  
      2845.766        2217.465          44.000          42.000  
 24  1 10  3 20 22.6000000  0  8G08G24G18G23G16G10G15G32
 128725577.890 6 100305727.575 6  24495674.883                    24495697.115  
      2776.910        2163.586          37.000          38.000  
 128005385.437 6  99744548.515 6  24358614.136                    24358635.731  
       261.207         203.973          39.000          40.000  
 112934766.306 7  88001180.799 7  21490772.865                    21490788.113  
     -1819.809       -1418.059          45.000          45.000  
 109616571.038 7  85415567.654 7  20859341.715                    20859355.569  
     -1839.184       -1433.590          44.000          42.000  
 127836229.210 5                  24326433.042                                  
     -2291.020                          33.000                  
 107497434.311 7  83764302.502 7  20456083.107                    20456098.855  
        41.805          32.523          45.000          43.000  
 126919730.390 6  98898566.587 6  24152025.014                    24152043.046  
     -3374.887       -2629.688          39.000          41.000  
 115300280.617 7  89844461.690 7  21940913.967                    21940933.102  
      2845.543        2217.352          44.000          42.000  
 24  1 10  3 20 22.7000000  0  8G08G24G18G23G16G10G15G32
 128725300.209 6 100305511.225 6  24495622.042                    24495644.280  
      2776.715        2163.426          37.000          38.000  
 128005359.378 6  99744528.226 6  24358609.177                    24358630.776  
       260.914         203.004          39.000          39.000  
 112934948.339 7  88001322.621 7  21490807.505                    21490822.748  
     -1819.918       -1418.020          45.000          44.000  
 109616755.038 7  85415710.943 7  20859376.729                    20859390.562  
     -1839.719       -1433.184          43.000          42.000  
 127836458.210 5                  24326476.619                                  
     -2290.617                          33.000                  
 107497430.158 7  83764299.274 7  20456082.317                    20456098.067  
        41.789          32.445          45.000          43.000  
 126920067.785 6  98898829.554 6  24152089.218                    24152107.265  
     -3374.570       -2629.738          39.000          41.000  
 115299996.045 7  89844239.980 7  21940859.815                    21940878.958  
      2845.676        2217.270          44.000          42.000  
 24  1 10  3 20 22.8000000  0  8G08G24G18G23G16G10G15G32
 128725022.611 6 100305294.883 6  24495569.271                    24495590.955  
      2776.352        2163.625          37.000          38.000  
 128005333.291 6  99744507.896 6  24358604.275                    24358625.639  
       260.863         203.316          39.000          39.000  
 112935130.369 7  88001464.494 7  21490842.137                    21490858.019  
     -1820.145       -1418.762          45.000          44.000  
 109616939.007 7  85415854.331 7  20859411.120                    20859425.172  
     -1839.859       -1434.148          43.000          42.000  
 127836687.411 5                  24326520.352                                  
     -2291.273                          34.000                  
 107497426.042 7  83764296.062 7  20456081.455                    20456097.345  
        41.438          32.156          45.000          43.000  
 126920405.435 6  98899092.549 6  24152153.556                    24152171.491  
     -3375.465       -2629.941          40.000          41.000  
 115299711.545 7  89844018.248 7  21940805.356                    21940824.832  
      2845.336        2217.148          44.000          42.000  
 24  1 10  3 20 22.9000000  0  8G08G24G18G23G16G10G15G32
 128724744.984 6 100305078.570 6  24495516.441                    24495538.130  
      2776.355        2163.137          37.000          38.000  
 128005307.272 6  99744487.613 6  24358599.324                    24358620.686  
       260.453         202.930          39.000          39.000  
 112935312.414 7  88001606.345 7  21490876.778                    21490892.661  
     -1820.441       -1418.523          45.000          45.000  
 109617123.114 7  85415997.758 7  20859446.154                    20859460.199  
     -1840.398       -1434.086          43.000          42.000  
 127836916.515 5                  24326563.949                                  
     -2291.137                          34.000                  
 107497421.967 7  83764292.868 7  20456080.680                    20456096.565  
        40.973          31.727          45.000          43.000  
 126920742.950 6  98899355.573 6  24152217.783                    24152235.724  
     -3375.308       -2630.227          40.000          41.000  
 115299427.039 7  89843796.569 7  21940751.216                    21940770.696  
      2845.199        2216.828          44.000          42.000  
 24  1 10  3 20 23.0000000  0  8G08G24G18G23G16G10G15G32
 128724467.415 6 100304862.264 6  24495463.238                    24495485.337  
      2775.938        2162.914          37.000          38.000  
 128005281.235 6  99744467.363 6  24358594.369                    24358615.366  
       260.254         202.484          39.000          39.000  
 112935494.479 7  88001748.224 7  21490911.917                    21490927.145  
     -1820.562       -1418.832          45.000          45.000  
 109617307.134 7  85416141.202 7  20859480.938                    20859494.995  
     -1840.414       -1434.520          44.000          42.000  
 127837145.645 5                  24326607.418                                  
     -2291.324                          33.000                  
 107497417.883 7  83764289.699 7  20456079.426                    20456095.588  
        40.867          31.656          44.000          43.000  
 126921080.526 6  98899618.647 6  24152282.827                    24152299.962  
     -3375.512       -2630.520          41.000          41.000  
 115299142.537 7  89843574.877 7  21940696.726                    21940716.619  
      2845.023        2216.766          44.000          42.000  
 24  1 10  3 20 23.1000000  0  8G08G24G18G23G16G10G15G32
 128724189.817 6 100304645.965 6  24495410.413                    24495432.514  
      2776.012        2162.957          37.000          37.000  
 128005255.239 6  99744447.076 6  24358589.423                    24358610.412  
       260.332         202.961          39.000          39.000  
 112935676.522 7  88001890.074 7  21490946.558                    21490961.787  
     -1820.555       -1418.672          45.000          45.000  
 109617491.228 7  85416284.595 7  20859515.970                    20859530.013  
     -1840.723       -1434.102          44.000          42.000  
 127837374.793 5                  24326651.023                                  
     -2291.387                          33.000                  
 107497413.835 7  83764286.569 7  20456078.656                    20456094.824  
        40.719          31.488          44.000          44.000  
 126921418.186 6  98899881.694 6  24152347.081                    24152364.201  
     -3376.293       -2630.598          40.000          40.000  
 115298858.047 7  89843353.176 7  21940642.589                    21940662.477  
      2844.953        2216.949          44.000          42.000  
 24  1 10  3 20 23.2000000  0  8G08G24G18G23G16G10G15G32
 128723912.234 6 100304429.687 6  24495357.349                    24495379.580  
      2775.895        2162.844          37.000          37.000  
 128005229.160 6  99744426.796 6  24358584.390                    24358605.357  
       260.387         202.734          38.000          40.000  
 112935858.635 7  88002031.989 7  21490980.955                    21490996.404  
     -1820.770       -1418.668          45.000          45.000  
 109617675.281 7  85416428.061 7  20859551.142                    20859565.080  
     -1840.484       -1434.258          44.000          42.000  
 127837603.917 5                  24326694.288                                  
     -2291.309                          33.000                  
 107497409.759 7  83764283.383 7  20456077.951                    20456094.233  
        40.652          31.516          44.000          44.000  
 126921755.743 6  98900144.718 6  24152411.097                    24152428.191  
     -3375.484       -2630.254          39.000          41.000  
 115298573.557 7  89843131.511 7  21940588.187                    21940608.173  
      2844.906        2216.734          44.000          42.000  
 24  1 10  3 20 23.3000000  0  8G08G24G18G23G16G10G15G32
 128723634.622 6 100304213.331 6  24495304.521                    24495326.743  
      2776.023        2163.285          37.000          37.000  
 128005203.155 6  99744406.470 6  24358579.441                    24358600.393  
       260.367         203.184          39.000          40.000  
 112936040.665 7  88002173.798 7  21491015.594                    21491031.036  
     -1820.562       -1418.531          46.000          45.000  
 109617859.302 7  85416571.413 7  20859586.160                    20859600.088  
     -1840.512       -1433.859          44.000          42.000  
 127837833.043 5                  24326737.890                                  
     -2291.223                          32.000                  
 107497405.673 7  83764280.203 7  20456077.173                    20456093.457  
        40.852          31.957          44.000          44.000  
 126922093.119 6  98900407.726 6  24152475.298                    24152492.421  
     -3375.016       -2630.070          38.000          41.000  
 115298289.037 7  89842909.829 7  21940534.044                    21940554.036  
      2845.184        2217.055          44.000          42.000  
 24  1 10  3 20 23.4000000  0  8G08G24G18G23G16G10G15G32
 128723356.997 6 100303996.995 6  24495252.073                    24495273.967  
      2776.176        2163.387          38.000          37.000  
 128005177.085 6  99744386.194 6  24358574.464                    24358596.278  
       260.496         202.820          39.000          41.000  
 112936222.725 7  88002315.689 7  21491050.349                    21491065.687  
     -1820.367       -1418.469          45.000          44.000  
 109618043.315 7  85416714.861 7  20859621.153                    20859635.815  
     -1840.012       -1433.902          44.000          42.000  
 127838062.149 5                  24326781.393                                  
     -2291.137                          32.000                  
 107497401.567 7  83764277.018 7  20456076.196                    20456093.171  
        41.047          31.957          44.000          44.000  
 126922430.812 6  98900670.725 6  24152538.926                    24152556.796  
     -3375.789       -2630.207          38.000          41.000  
 115298004.518 7  89842688.104 6  21940480.074                    21940499.568  
      2845.184        2217.254          43.000          41.000  
 24  1 10  3 20 23.5000000  0  8G08G24G18G23G16G10G15G32
 128723079.385 6 100303780.657 6  24495199.245                    24495221.135  
      2776.125        2163.262          38.000          37.000  
 128005151.025 6  99744365.890 6  24358569.505                    24358591.319  
       260.590         202.891          39.000          41.000  
 112936404.731 7  88002457.466 7  21491084.983                    21491100.310  
     -1820.371       -1418.203          45.000          44.000  
 109618227.334 7  85416858.183 7  20859656.171                    20859670.815  
     -1840.297       -1433.703          44.000          42.000  
 127838291.220 5                  24326824.984                                  
     -2291.000                          32.000                  
 107497397.439 7  83764273.779 7  20456075.411                    20456092.380  
        41.129          32.023          45.000          44.000  
 126922768.304 6  98900933.729 6  24152603.148                    24152621.025  
     -3375.305       -2629.934          39.000          41.000  
 115297719.987 7  89842466.382 6  21940425.930                    21940445.421  
      2845.340        2217.023          44.000          41.000  
 24  1 10  3 20 23.6000000  0  8G08G24G18G23G16G10G15G32
 128722801.742 6 100303564.335 6  24495146.654                    24495167.924  
      2776.367        2163.133          38.000          38.000  
 128005124.966 6  99744345.660 6  24358564.859                    24358587.559  
       260.484         202.504          39.000          41.000  
 112936586.773 7  88002599.360 7  21491119.468                    21491135.243  
     -1820.293       -1418.582          45.000          45.000  
 109618411.286 7  85417001.572 7  20859691.066                    20859705.700  
     -1839.719       -1433.676          44.000          42.000  
 127838520.379 5                  24326868.677                                  
     -2291.281                          32.000                  
 107497393.330 7  83764270.588 7  20456075.160                    20456091.335  
        41.215          32.156          45.000          44.000  
 126923105.812 6  98901196.740 6  24152666.952                    24152685.114  
     -3375.254       -2630.086          39.000          40.000  
 115297435.502 7  89842244.744 6  21940371.739                    21940391.287  
      2844.977        2216.742          44.000          41.000  
 24  1 10  3 20 23.7000000  0  8G08G24G18G23G16G10G15G32
 128722524.105 6 100303348.009 6  24495093.821                    24495115.095  
      2776.391        2163.305          38.000          38.000  
 128005098.993 6  99744325.327 6  24358559.917                    24358582.593  
       260.270         203.094          39.000          41.000  
 112936768.851 7  88002741.207 7  21491154.117                    21491169.884  
     -1820.676       -1418.645          45.000          45.000  
 109618595.251 7  85417144.949 7  20859726.074                    20859740.714  
     -1839.828       -1433.746          44.000          42.000  
 127838749.524 5                  24326912.282                                  
     -2291.336                          32.000                  
 107497389.181 7  83764267.345 7  20456074.371                    20456090.543  
        41.184          32.176          45.000          44.000  
 126923443.329 6  98901459.762 6  24152731.180                    24152749.346  
     -3375.113       -2630.305          39.000          40.000  
 115297151.025 7  89842023.037 7  21940317.605                    21940337.144  
      2844.785        2216.730          44.000          42.000  
 24  1 10  3 20 23.8000000  0  8G08G24G18G23G16G10G15G32
 128722246.436 6 100303131.625 6  24495041.006                    24495062.252  
      2776.973        2163.926          38.000          38.000  
 128005072.854 6  99744305.013 6  24358554.989                    24358577.398  
       261.047         203.375          38.000          41.000  
 112936950.802 7  88002883.015 7  21491188.585                    21491204.421  
     -1818.863       -1417.977          45.000          44.000  
 109618779.132 7  85417288.163 7  20859762.011                    20859775.305  
     -1838.566       -1432.590          44.000          42.000  
 127838978.602 5                  24326955.702                                  
     -2290.562                          32.000                  
 107497384.942 7  83764264.049 7  20456073.228                    20456089.801  
        43.000          32.820          45.000          44.000  
 126923780.753 6  98901722.720 6  24152795.569                    24152813.306  
     -3374.367       -2629.504          40.000          40.000  
 115296866.435 7  89841801.307 7  21940263.504                    21940283.300  
      2846.410        2217.246          44.000          42.000  
 24  1 10  3 20 23.9000000  0  8G08G24G18G23G16G10G15G32
 128721968.687 6 100302915.190 6  24494988.152                    24495009.396  
      2777.488        2164.195          38.000          38.000  
 128005046.759 6  99744284.661 6  24358550.024                    24358572.428  
       260.457         203.379          38.000          40.000  
 112937132.743 7  88003024.766 7  21491223.207                    21491239.038  
     -1819.145       -1417.570          45.000          45.000  
 109618962.952 7  85417431.439 7  20859796.990                    20859810.295  
     -1837.680       -1432.547          43.000          42.000  
 127839207.697 5                  24326999.298                                  
     -2290.469                          32.000                  
 107497380.687 7  83764260.721 7  20456072.418                    20456088.988  
        42.695          33.391          45.000          44.000  
 126924118.283 6  98901985.682 6  24152859.799                    24152877.524  
     -3375.320       -2629.469          41.000          40.000  
 115296581.918 7  89841579.599 7  21940209.362                    21940229.156  
      2845.559        2217.414          44.000          42.000  
 24  1 10  3 20 24.0000000  0  8G08G24G18G23G16G10G15G32
 128721690.976 6 100302698.823 6  24494935.071                    24494956.432  
      2776.961        2163.828          38.000          38.000  
 128005020.824 6  99744264.353 6  24358544.596                    24358566.890  
       260.121         203.051          39.000          40.000  
 112937314.678 7  88003166.559 7  21491258.203                    21491273.580  
     -1819.621       -1417.848          45.000          44.000  
 109619146.871 7  85417574.736 7  20859831.817                    20859845.844  
     -1838.945       -1432.652          43.000          42.000  
 127839436.794 5                  24327042.690                                  
     -2291.078                          33.000                  
 107497376.408 7  83764257.388 7  20456071.542                    20456088.244  
        42.605          33.477          45.000          44.000  
 126924455.902 6  98902248.579 6  24152924.858                    24152942.109  
     -3375.922       -2629.422          41.000          40.000  
 115296297.354 7  89841357.863 7  21940155.524                    21940174.694  
      2845.578        2217.223          44.000          42.000  
 24  1 10  3 20 24.1000000  0  8G08G24G18G23G16G10G15G32
 128721413.304 6 100302482.456 6  24494882.232                    24494903.593  
      2776.906        2163.676          37.000          38.000  
 128004994.730 6  99744244.055 6  24358539.631                    24358561.933  
       260.555         202.867          39.000          40.000  
 112937496.653 7  88003308.336 7  21491292.832                    21491308.203  
     -1819.621       -1417.953          45.000          44.000  
 109619330.687 7  85417717.949 7  20859866.796                    20859880.818  
     -1838.633       -1432.469          43.000          42.000  
 127839665.936 5                  24327086.295                                  
     -2291.328                          33.000                  
 107497372.167 7  83764254.062 7  20456070.735                    20456087.432  
        42.531          33.246          45.000          44.000  
 126924793.70936  98902511.537 6  24152989.117                    24153006.326  
     -3376.863       -2629.477          39.000          40.000  
 115296012.835 7  89841136.150 7  21940101.382                    21940120.549  
      2845.355        2217.348          44.000          42.000  
 24  1 10  3 20 24.2000000  0  8G08G24G18G23G16G10G15G32
 128721135.615 6 100302266.063 6  24494829.304                    24494850.841  
      2776.602        2163.848          37.000          38.000  
 128004968.732 6  99744223.810 6  24358534.801                    24358556.786  
       259.699         202.496          39.000          40.000  
 112937678.687 7  88003450.176 7  21491327.206                    21491342.818  
     -1820.445       -1418.504          45.000          45.000  
 109619514.640 7  85417861.331 7  20859901.497                    20859915.974  
     -1839.090       -1433.285          43.000          42.000  
 127839895.100 5                  24327130.075                                  
     -2291.184                          34.000                  
 107497367.954 7  83764250.820 7  20456070.238                    20456086.469  
        42.023          32.523          45.000          44.000  
 126925131.20326  98902774.543 6  24153053.418                    24153070.640  
     -3375.762       -2630.086          38.000          40.000  
 115295728.333 7  89840914.468 7  21940047.641                    21940066.537  
      2844.824        2216.527          44.000          42.000  
 24  1 10  3 20 24.3000000  0  8G08G24G18G23G16G10G15G32
 128720857.981 6 100302049.720 6  24494776.472                    24494798.008  
      2776.609        2163.855          36.000          37.000  
 128004942.754 6  99744203.577 6  24358529.857                    24358551.845  
       260.160         202.562          39.000          41.000  
 112937860.704 7  88003591.995 7  21491361.843                    21491377.452  
     -1820.145       -1418.285          45.000          45.000  
 109619698.506 7  85418004.570 7  20859936.485                    20859950.954  
     -1839.223       -1433.145          43.000          42.000  
 127840124.181 5                  24327173.668                                  
     -2291.258                          34.000                  
 107497363.766 7  83764247.543 7  20456069.441                    20456085.668  
        41.711          32.684          45.000          44.000  
 126925468.58026  98903037.530 6  24153117.619                    24153134.865  
     -3373.480       -2629.855          37.000          40.000  
 115295443.842 7  89840692.797 7  21939993.505                    21940012.403  
      2844.898        2216.664          44.000          42.000  
 24  1 10  3 20 24.4000000  0  8G08G24G18G23G16G10G15G32
 128720580.288 6 100301833.343 6  24494723.933                    24494745.198  
      2776.766        2163.645          36.000          37.000  
 128004916.712 6  99744183.350 6  24358525.401                    24358547.319  
       260.078         202.262          39.000          41.000  
 112938042.749 7  88003733.888 7  21491396.328                    21491411.658  
     -1820.145       -1418.840          45.000          44.000  
 109619882.482 7  85418147.972 7  20859971.120                    20859986.256  
     -1839.125       -1433.106          43.000          42.000  
 127840353.337 5                  24327217.439                                  
     -2291.340                          33.000                  
 107497359.566 7  83764244.256 7  20456068.688                    20456084.873  
        41.926          32.637          45.000          44.000  
 126925806.10026  98903300.528 6  24153181.011                    24153199.060  
     -3375.301       -2630.078          39.000          40.000  
 115295159.355 7  89840471.127 7  21939939.197                    21939958.089  
      2844.957        2216.926          44.000          42.000  
 24  1 10  3 20 24.5000000  0  8G08G24G18G23G16G10G15G32
 128720302.630 6 100301617.021 6  24494671.096                    24494692.370  
      2776.480        2163.004          36.000          37.000  
 128004890.804 6  99744163.091 7  24358520.471                    24358542.372  
       259.758         202.441          39.000          42.000  
 112938224.787 7  88003875.716 7  21491430.969                    21491446.294  
     -1820.445       -1418.445          45.000          44.000  
 109620066.466 7  85418291.240 7  20860006.131                    20860021.244  
     -1839.844       -1433.527          44.000          42.000  
 127840582.420 5                  24327261.032                                  
     -2291.031                          33.000                  
 107497355.415 7  83764241.029 7  20456067.898                    20456084.085  
        41.738          32.340          45.000          44.000  
 126926143.65426  98903563.577 6  24153245.245                    24153263.299  
     -3375.156       -2630.457          40.000          40.000  
 115294874.910 7  89840249.462 7  21939885.069                    21939903.956  
      2844.727        2216.625          44.000          42.000  
 24  1 10  3 20 24.6000000  0  8G08G24G18G23G16G10G15G32
 128720025.088 5 100301400.701 6  24494618.649                    24494639.699  
      2776.148        2163.242          35.000          37.000  
 128004864.833 6  99744142.895 7  24358515.482                    24358537.979  
       259.609         202.129          39.000          42.000  
 112938406.865 7  88004017.563 7  21491465.977                    21491480.341  
     -1820.652       -1418.789          45.000          44.000  
 109620250.432 7  85418434.635 6  20860041.599                    20860055.528  
     -1839.852       -1433.957          44.000          41.000  
 127840811.664 5                  24327304.812                                  
     -2291.742                          33.000                  
 107497351.306 7  83764237.838 7  20456067.335                    20456083.587  
        41.375          31.906          45.000          44.000  
 126926481.26726  98903826.599 6  24153310.007                    24153327.899  
     -3375.894       -2630.191          41.000          40.000  
 115294590.444 7  89840027.790 7  21939830.624                    21939850.087  
      2844.484        2216.445          44.000          42.000  
 24  1 10  3 20 24.7000000  0  8G08G24G18G23G16G10G15G32
 128719747.444 5 100301184.354 6  24494565.815                    24494586.864  
      2776.074        2163.492          35.000          37.000  
 128004838.828 6  99744122.658 6  24358510.534                    24358533.037  
       259.980         202.211          38.000          41.000  
 112938588.904 7  88004159.457 7  21491500.618                    21491514.993  
     -1820.461       -1418.621          45.000          44.000  
 109620434.396 7  85418578.004 7  20860076.606                    20860090.540  
     -1839.473       -1433.500          44.000          42.000  
 127841040.777 5                  24327348.410                                  
     -2291.570                          33.000                  
 107497347.166 7  83764234.618 7  20456066.547                    20456082.801  
        41.363          32.105          45.000          44.000  
 126926818.78226  98904089.611 6  24153374.234                    24153392.129  
     -3375.402       -2630.109          39.000          41.000  
 115294305.981 7  89839806.140 7  21939776.493                    21939795.958  
      2844.730        2216.762          44.000          42.000  
