     2.11           OBSERVATION DATA    M (MIXED)           RINEX VERSION / TYPE
GPP.DLL V3.2.21                         18 - MAR - 24 07:42 PGM / RUN BY / DATE 
                                                            MARKER NAME         
                                                            MARKER NUMBER       
                                                            OBSERVER / AGENCY   
6028C00128          APX-15v3 AV         5.50                REC # / TYPE / VERS 
                    E                                       ANT # / TYPE        
 -4668069.5663  2554510.5281 -3504581.9619                  APPROX POSITION XYZ 
        0.0000       -0.0000       -0.0000                  ANTENNA: DELTA H/E/N
     1     1                                                WAVELENGTH FACT L1/2
     9    L1    L2    C1    P2    C2    D1    D2    S1    S2# / TYPES OF OBSERV 
     0.100                                                  INTERVAL            
  2024     1    10     3    16    0.0000000     GPS         TIME OF FIRST OBS   
  2024     1    10     3    16   59.9000000     GPS         TIME OF LAST OBS    
    18                                                      LEAP SECONDS        
     7                                                      # OF SATELLITES     
   G10   600   600   600     0   600   600   600   600   600PRN / # OF OBS      
   G15   600   600   600     0   600   600   600   600   600PRN / # OF OBS      
   G16   580   512   580   512     0   580   512   580   512PRN / # OF OBS      
   G18   600   600   600     0   600   600   600   600   600PRN / # OF OBS      
   G23   600   600   600     0   600   600   600   600   600PRN / # OF OBS      
   G24   594   594   594     0   594   594   594   594   594PRN / # OF OBS      
   G32   600   600   600     0   600   600   600   600   600PRN / # OF OBS      
                                                            END OF HEADER       
 24  1 10  3 16  0.0000000  0  7G24G16G18G23G10G32G15
 129670671.892 6 101042173.159 6  24675507.916                    24675529.211  
       470.992         367.102          36.000          38.000  
 128830456.921 6 100387538.687 3  24515641.660    24515663.951                  
     -2108.262       -1642.879          37.000          19.000  
 114050617.180 7  88870675.641 7  21703111.680                    21703127.642  
     -1632.930       -1272.496          45.000          46.000  
 110727627.571 7  86281326.369 7  21070767.775                    21070782.666  
     -1668.262       -1299.844          43.000          46.000  
 109109098.044 7  85020144.511 7  20762772.237                    20762788.574  
       256.844         200.137          46.000          45.000  
 117642229.967 7  91669356.167 7  22386572.220                    22386592.417  
      3039.840        2368.641          43.000          44.000  
 127625735.026 7  99448701.563 6  24286371.580                    24286390.219  
     -3213.766       -2504.480          42.000          40.000  
 24  1 10  3 16  0.1000000  0  7G24G16G18G23G10G32G15
 129670624.804 6 101042136.442 6  24675498.956                    24675520.245  
       470.910         367.004          36.000          38.000  
 128830667.732 6 100387702.954 3  24515681.776    24515704.067                  
     -2108.195       -1642.805          37.000          19.000  
 114050780.455 7  88870802.866 7  21703142.750                    21703158.712  
     -1632.879       -1272.473          45.000          45.000  
 110727794.359 7  86281456.351 7  21070799.513                    21070814.409  
     -1667.922       -1299.816          43.000          46.000  
 109109072.387 7  85020124.508 7  20762767.354                    20762783.689  
       256.738         200.078          46.000          45.000  
 117641926.015 7  91669119.340 7  22386514.380                    22386534.581  
      3039.781        2368.465          43.000          44.000  
 127626056.444 6  99448951.996 6  24286432.744                    24286451.378  
     -3213.918       -2504.340          41.000          40.000  
 24  1 10  3 16  0.2000000  0  7G24G16G18G23G10G32G15
 129670577.784 6 101042099.801 6  24675490.133                    24675510.788  
       470.605         366.480          37.000          38.000  
 128830878.601 6 100387867.276 3  24515721.512    24515744.290                  
     -2108.559       -1643.301          37.000          19.000  
 114050943.759 7  88870930.126 7  21703174.638                    21703189.360  
     -1632.852       -1272.461          45.000          45.000  
 110727961.223 7  86281586.327 7  21070831.454                    21070845.791  
     -1668.469       -1299.941          43.000          46.000  
 109109046.737 7  85020104.538 7  20762762.192                    20762778.609  
       256.602         199.852          46.000          44.000  
 117641622.025 7  91668882.473 7  22386456.235                    22386477.064  
      3039.488        2368.336          42.000          43.000  
 127626377.900 6  99449202.443 6  24286493.876                    24286512.555  
     -3214.379       -2504.539          41.000          39.000  
 24  1 10  3 16  0.3000000  0  7G24G16G18G23G10G32G15
 129670530.740 6 101042063.123 6  24675481.181                    24675501.831  
       470.477         366.637          37.000          38.000  
 128831089.437 6 100388031.568 3  24515761.633    24515784.411                  
     -2108.277       -1642.703          37.000          19.000  
 114051107.046 7  88871057.388 7  21703205.710                    21703220.439  
     -1632.852       -1272.488          45.000          46.000  
 110728127.994 7  86281716.324 7  21070863.189                    21070877.538  
     -1667.996       -1300.164          43.000          46.000  
 109109021.080 7  85020084.530 7  20762757.310                    20762773.723  
       256.566         199.875          46.000          44.000  
 117641318.076 7  91668645.631 7  22386398.396                    22386419.225  
      3039.688        2368.648          42.000          43.000  
 127626699.360 6  99449452.970 6  24286555.048                    24286573.736  
     -3214.398       -2504.992          41.000          39.000  
 24  1 10  3 16  0.4000000  0  7G24G16G18G23G10G32G15
 129670483.646 6 101042026.466 6  24675472.266                    24675493.356  
       470.656         366.688          37.000          38.000  
 128831300.315 6 100388195.894 3  24515801.879    24515824.619                  
     -2108.648       -1643.293          37.000          18.000  
 114051270.382 7  88871184.642 7  21703236.449                    21703251.625  
     -1633.133       -1272.738          45.000          46.000  
 110728294.848 7  86281846.408 7  21070894.784                    21070909.063  
     -1668.117       -1300.133          43.000          45.000  
 109108995.467 7  85020064.590 7  20762752.100                    20762768.447  
       256.418         199.660          46.000          44.000  
 117641014.125 7  91668408.779 7  22386340.673                    22386360.493  
      3039.602        2368.473          42.000          43.000  
 127627020.819 6  99449703.410 6  24286615.970                    24286634.592  
     -3214.609       -2504.621          40.000          39.000  
 24  1 10  3 16  0.5000000  0  7G24G16G18G23G10G32G15
 129670436.659 6 101041989.846 6  24675463.325                    24675484.413  
       470.203         366.188          37.000          38.000  
 128831511.248 6 100388360.250 3  24515842.018    24515864.757                  
     -2109.016       -1643.555          37.000          18.000  
 114051433.742 7  88871311.936 7  21703267.535                    21703282.711  
     -1633.387       -1272.707          44.000          45.000  
 110728461.796 7  86281976.411 7  21070926.553                    21070940.811  
     -1668.988       -1300.305          43.000          45.000  
 109108969.871 7  85020044.662 7  20762747.229                    20762763.580  
       256.090         199.176          46.000          44.000  
 117640710.212 7  91668171.985 7  22386282.840                    22386302.665  
      3039.418        2367.945          42.000          43.000  
 127627342.316 6  99449953.968 6  24286677.149                    24286695.780  
     -3214.703       -2505.504          40.000          39.000  
 24  1 10  3 16  0.6000000  0  7G24G16G18G23G10G32G15
 129670389.697 6 101041953.258 6  24675454.326                    24675475.595  
       469.980         365.863          36.000          38.000  
 128831722.173 6 100388524.595 3  24515882.202    24515904.954                  
     -2109.121       -1643.523          37.000          18.000  
 114051597.091 7  88871439.208 7  21703298.260                    21703314.144  
     -1633.516       -1272.996          44.000          45.000  
 110728628.658 7  86282106.423 7  21070959.080                    21070972.351  
     -1668.934       -1300.387          43.000          45.000  
 109108944.309 7  85020024.741 7  20762742.849                    20762759.403  
       255.812         199.191          47.000          44.000  
 117640406.303 7  91667935.182 7  22386225.251                    22386244.241  
      3039.199        2368.141          42.000          43.000  
 127627663.785 6  99450204.514 6  24286738.189                    24286756.505  
     -3214.648       -2505.242          39.000          39.000  
 24  1 10  3 16  0.7000000  0  7G24G16G18G23G10G32G15
 129670342.688 5 101041916.605 6  24675445.380                    24675466.644  
       470.031         366.496          35.000          39.000  
 128831933.069 6 100388688.932 3  24515922.335    24515945.087                  
     -2108.938       -1643.215          37.000          18.000  
 114051760.415 7  88871566.501 7  21703329.339                    21703345.230  
     -1633.375       -1272.727          44.000          46.000  
 110728795.570 7  86282236.483 7  21070990.842                    21071004.113  
     -1668.856       -1300.270          44.000          45.000  
 109108918.732 7  85020004.782 7  20762737.982                    20762754.529  
       255.801         199.543          47.000          44.000  
 117640102.355 7  91667698.321 7  22386167.411                    22386186.398  
      3039.414        2368.488          42.000          43.000  
 127627985.286 6  99450455.055 6  24286799.369                    24286817.690  
     -3214.949       -2505.504          39.000          39.000  
 24  1 10  3 16  0.8000000  0  7G24G16G18G23G10G32G15
 129670295.634 5 101041879.988 6  24675436.168                    24675457.874  
       470.254         366.012          34.000          39.000  
 128832144.008 6 100388853.302 3  24515962.295    24515985.259                  
     -2109.258       -1643.742          37.000          18.000  
 114051923.807 7  88871693.795 7  21703360.205                    21703376.231  
     -1633.625       -1273.043          45.000          45.000  
 110728962.426 7  86282366.507 7  21071022.703                    21071036.022  
     -1668.883       -1300.773          43.000          45.000  
 109108893.178 7  85019984.853 7  20762733.440                    20762749.357  
       255.691         199.199          47.000          44.000  
 117639798.421 7  91667461.499 7  22386109.731                    22386129.009  
      3039.359        2368.152          42.000          43.000  
 127628306.864 6  99450705.611 6  24286860.290                    24286878.917  
     -3215.340       -2505.516          41.000          39.000  
 24  1 10  3 16  0.9000000  0  7G24G16G18G23G10G32G15
 129670248.708 5 101041843.396 6  24675427.239                    24675448.937  
       469.695         365.793          34.000          39.000  
 128832354.969 6 100389017.688 3  24516002.440    24516025.404                  
     -2109.414       -1643.785          37.000          18.000  
 114052087.188 7  88871821.100 7  21703391.296                    21703407.320  
     -1633.754       -1273.141          45.000          45.000  
 110729129.439 7  86282496.694 7  21071054.484                    21071067.815  
     -1669.312       -1301.164          42.000          46.000  
 109108867.664 7  85019964.985 7  20762728.585                    20762744.505  
       255.414         198.820          47.000          44.000  
 117639494.544 7  91667224.684 7  22386051.905                    22386071.176  
      3038.918        2368.145          42.000          43.000  
 127628628.438 7  99450956.146 6  24286921.483                    24286940.101  
     -3215.594       -2505.473          43.000          39.000  
 24  1 10  3 16  1.0000000  0  7G24G16G18G23G10G32G15
 129670201.749 5 101041806.788 6  24675418.287                    24675440.302  
       469.812         366.078          33.000          40.000  
 128832565.877 6 100389182.027 3  24516042.941    24516065.529                  
     -2109.258       -1643.523          37.000          18.000  
 114052250.531 7  88871948.414 7  21703422.566                    21703437.583  
     -1633.676       -1273.234          44.000          45.000  
 110729296.375 7  86282626.695 7  21071085.658                    21071100.649  
     -1669.606       -1300.820          43.000          46.000  
 109108842.129 7  85019945.111 7  20762723.757                    20762739.472  
       255.336         198.727          47.000          44.000  
 117639190.639 7  91666987.876 7  22385994.246                    22386013.923  
      3039.188        2368.090          43.000          43.000  
 127628949.980 7  99451206.649 6  24286983.366                    24287001.635  
     -3215.445       -2505.016          43.000          39.000  
 24  1 10  3 16  1.1000000  0  7G24G16G18G23G10G32G15
 129670154.747 5 101041770.228 6  24675409.343                    24675431.374  
       469.664         365.586          32.000          40.000  
 128832776.837 6 100389346.409 3  24516083.086    24516105.673                  
     -2109.469       -1643.820          38.000          18.000  
 114052414.011 7  88872075.773 7  21703453.676                    21703468.686  
     -1634.203       -1273.535          44.000          45.000  
 110729463.326 7  86282756.841 7  21071117.427                    21071132.432  
     -1669.379       -1301.141          42.000          46.000  
 109108816.640 7  85019925.239 7  20762718.906                    20762734.619  
       255.188         198.824          47.000          44.000  
 117638886.759 7  91666751.114 7  22385936.419                    22385956.104  
      3038.918        2367.629          43.000          44.000  
 127629271.569 7  99451457.211 6  24287044.562                    24287062.825  
     -3215.594       -2505.773          43.000          38.000  
 24  1 10  3 16  1.2000000  0  7G24G16G18G23G10G32G15
 129670107.850 5 101041733.678 6  24675400.442                    24675422.909  
       469.512         365.406          31.000          40.000  
 128832987.834 6 100389510.821 2  24516123.425    24516145.809                  
     -2109.715       -1644.043          37.000          17.000  
 114052577.397 7  88872203.111 7  21703484.759                    21703499.916  
     -1634.109       -1273.535          44.000          45.000  
 110729630.401 7  86282886.978 7  21071148.955                    21071163.712  
     -1670.277       -1301.258          42.000          46.000  
 109108791.158 7  85019905.350 7  20762714.010                    20762729.911  
       254.836         198.453          47.000          44.000  
 117638582.896 7  91666514.334 7  22385878.908                    22385898.350  
      3038.652        2367.660          43.000          44.000  
 127629593.115 7  99451707.817 6  24287106.157                    24287123.869  
     -3215.594       -2505.977          42.000          39.000  
 24  1 10  3 16  1.3000000  0  7G24G16G18G23G10G32G15
 129670060.885 5 101041697.119 6  24675391.505                    24675413.981  
       469.551         365.562          31.000          40.000  
 128833198.785 6 100389675.205 2  24516163.567    24516185.953                  
     -2109.602       -1643.883          38.000          17.000  
 114052740.885 7  88872330.504 7  21703515.870                    21703531.026  
     -1634.422       -1273.570          44.000          45.000  
 110729797.325 7  86283017.067 7  21071180.720                    21071195.482  
     -1669.731       -1301.621          42.000          46.000  
 109108765.708 7  85019885.531 7  20762709.167                    20762725.070  
       254.684         198.504          47.000          44.000  
 117638279.046 7  91666277.547 7  22385821.088                    22385840.524  
      3038.562        2367.730          43.000          43.000  
 127629914.724 7  99451958.451 6  24287167.357                    24287185.077  
     -3215.754       -2506.371          42.000          40.000  
 24  1 10  3 16  1.4000000  0  7G24G16G18G23G10G32G15
 129670014.037 5 101041660.566 6  24675382.567                    24675405.414  
       468.965         365.523          32.000          40.000  
 128833409.770 6 100389839.614 2  24516203.615    24516226.158                  
     -2109.746       -1644.113          38.000          17.000  
 114052904.324 7  88872457.830 7  21703547.096                    21703562.051  
     -1634.555       -1273.820          44.000          46.000  
 110729964.327 7  86283147.275 7  21071212.280                    21071227.022  
     -1669.652       -1301.125          43.000          46.000  
 109108740.221 7  85019865.723 7  20762704.130                    20762720.046  
       254.926         198.402          47.000          44.000  
 117637975.212 7  91666040.799 7  22385763.395                    22385782.497  
      3038.496        2367.547          43.000          43.000  
 127630236.347 7  99452209.111 6  24287228.325                    24287246.916  
     -3216.000       -2506.445          43.000          40.000  
 24  1 10  3 16  1.5000000  0  7G24G16G18G23G10G32G15
 129669967.154 5 101041624.054 6  24675373.645                    24675396.497  
       468.922         365.301          33.000          39.000  
 128833620.799 6 100390004.059 2  24516243.772    24516266.317                  
     -2109.988       -1644.293          37.000          17.000  
 114053067.817 7  88872585.271 7  21703578.208                    21703593.173  
     -1634.586       -1273.918          43.000          45.000  
 110730131.384 7  86283277.361 7  21071244.070                    21071258.790  
     -1670.352       -1301.145          43.000          46.000  
 109108714.728 7  85019845.816 7  20762699.279                    20762715.184  
       254.746         198.590          46.000          44.000  
 117637671.399 7  91665804.092 7  22385705.581                    22385724.691  
      3038.371        2367.258          42.000          43.000  
 127630557.950 7  99452459.677 6  24287289.524                    24287308.106  
     -3216.121       -2505.984          43.000          41.000  
 24  1 10  3 16  1.6000000  0  7G24G16G18G23G10G32G15
 129669920.244 5 101041587.471 6  24675364.976                    24675387.375  
       468.977         365.496          34.000          39.000  
 128833831.758 6 100390168.444 2  24516283.627    24516306.462                  
     -2109.715       -1643.856          37.000          17.000  
 114053231.292 7  88872712.623 7  21703609.332                    21703624.399  
     -1634.688       -1273.555          43.000          45.000  
 110730298.382 7  86283407.434 7  21071276.489                    21071290.798  
     -1669.996       -1300.941          42.000          46.000  
 109108689.246 7  85019825.997 7  20762694.336                    20762710.594  
       254.996         198.844          47.000          44.000  
 117637367.597 7  91665567.312 7  22385647.434                    22385666.601  
      3038.199        2367.875          43.000          43.000  
 127630879.518 7  99452710.247 6  24287351.318                    24287370.392  
     -3215.879       -2505.867          43.000          41.000  
 24  1 10  3 16  1.7000000  0  7G24G16G18G23G10G32G15
 129669873.356 5 101041550.984 6  24675356.054                    24675378.465  
       468.859         365.027          35.000          39.000  
 128834042.763 6 100390332.852 2  24516323.780    24516346.611                  
     -2109.848       -1643.941          37.000          17.000  
 114053394.759 7  88872839.967 7  21703640.438                    21703655.497  
     -1634.609       -1273.606          43.000          45.000  
 110730465.265 7  86283537.506 7  21071308.246                    21071322.562  
     -1669.504       -1300.965          42.000          46.000  
 109108663.745 7  85019806.086 7  20762689.483                    20762705.732  
       254.910         198.777          47.000          44.000  
 117637063.749 7  91665330.540 7  22385589.613                    22385608.779  
      3038.262        2367.461          43.000          43.000  
 127631201.127 7  99452960.837 6  24287412.518                    24287431.589  
     -3215.934       -2505.629          43.000          41.000  
 24  1 10  3 16  1.8000000  0  7G24G16G18G23G10G32G15
 129669826.523 6 101041514.451 6  24675347.689                    24675369.129  
       468.676         365.184          36.000          39.000  
 128834253.718 6 100390497.226 2  24516363.846    24516386.777                  
     -2109.797       -1643.891          37.000          17.000  
 114053558.239 7  88872967.361 7  21703671.462                    21703686.702  
     -1634.699       -1273.766          44.000          45.000  
 110730632.249 6  86283667.733 7  21071339.897                    21071354.217  
     -1669.305       -1301.356          41.000          46.000  
 109108638.236 7  85019786.221 7  20762684.692                    20762701.013  
       255.047         198.531          46.000          44.000  
 117636759.939 7  91665093.836 7  22385531.855                    22385551.207  
      3038.262        2367.395          42.000          44.000  
 127631522.706 7  99453211.393 6  24287473.518                    24287492.628  
     -3215.848       -2505.605          43.000          40.000  
 24  1 10  3 16  1.9000000  0  7G24G16G18G23G10G32G15
 129669779.697 6 101041477.924 6  24675338.778                    24675360.209  
       468.395         365.484          37.000          38.000  
 128834464.719 6 100390661.647 3  24516403.998    24516426.930                  
     -2109.875       -1644.148          37.000          18.000  
 114053721.681 7  88873094.737 7  21703702.564                    21703717.808  
     -1634.555       -1274.066          44.000          45.000  
 110730799.347 6  86283797.837 7  21071371.695                    21071385.990  
     -1670.410       -1301.285          41.000          46.000  
 109108612.780 7  85019766.388 7  20762679.847                    20762696.170  
       254.816         198.488          47.000          44.000  
 117636456.116 7  91664857.116 7  22385474.039                    22385493.398  
      3038.234        2366.906          42.000          44.000  
 127631844.332 7  99453462.016 6  24287534.721                    24287553.833  
     -3216.004       -2506.074          43.000          40.000  
 24  1 10  3 16  2.0000000  0  7G24G16G18G23G10G32G15
 129669732.848 6 101041441.413 6  24675330.222                    24675350.949  
       468.434         364.891          37.000          38.000  
 128834675.761 6 100390826.102 3  24516444.408    24516467.013                  
     -2110.160       -1644.516          37.000          18.000  
 114053885.237 7  88873222.220 7  21703733.914                    21703748.738  
     -1635.191       -1274.344          44.000          45.000  
 110730966.357 7  86283927.952 7  21071402.781                    21071417.359  
     -1670.398       -1301.594          43.000          46.000  
 109108587.328 7  85019746.541 7  20762674.973                    20762690.987  
       254.512         198.180          47.000          44.000  
 117636152.382 7  91664620.442 7  22385416.319                    22385435.920  
      3037.684        2366.836          42.000          43.000  
 127632165.972 7  99453712.631 6  24287595.935                    24287614.372  
     -3216.211       -2506.176          43.000          40.000  
 24  1 10  3 16  2.1000000  0  7G24G16G18G23G10G32G15
 129669686.021 6 101041404.954 6  24675321.311                    24675342.045  
       468.215         364.727          37.000          38.000  
 128834886.772 6 100390990.535 3  24516484.562    24516507.170                  
     -2110.090       -1644.277          37.000          18.000  
 114054048.766 7  88873349.606 7  21703765.032                    21703779.847  
     -1635.238       -1274.125          44.000          45.000  
 110731133.283 7  86284058.078 7  21071434.545                    21071449.137  
     -1669.676       -1301.309          43.000          46.000  
 109108561.873 7  85019726.722 7  20762670.129                    20762686.147  
       254.617         198.438          47.000          44.000  
 117635848.608 7  91664383.713 7  22385358.513                    22385378.108  
      3037.812        2367.238          42.000          43.000  
 127632487.644 7  99453963.270 6  24287657.147                    24287675.581  
     -3216.445       -2506.293          43.000          40.000  
 24  1 10  3 16  2.2000000  0  7G24G16G18G23G10G32G15
 129669639.246 6 101041368.458 6  24675312.395                    24675332.984  
       468.164         364.844          37.000          38.000  
 128835097.829 6 100391155.002 3  24516524.998    24516547.295                  
     -2110.438       -1644.738          37.000          18.000  
 114054212.311 7  88873477.031 7  21703796.412                    21703811.106  
     -1635.406       -1274.352          44.000          45.000  
 110731300.307 7  86284188.305 7  21071466.946                    21071480.768  
     -1669.719       -1301.578          43.000          46.000  
 109108536.421 7  85019706.875 7  20762665.567                    20762681.378  
       254.527         198.164          47.000          44.000  
 117635544.858 7  91664147.056 7  22385300.773                    22385320.002  
      3037.590        2366.641          42.000          43.000  
 127632809.233 7  99454213.876 6  24287718.429                    24287736.297  
     -3216.379       -2506.535          42.000          40.000  
 24  1 10  3 16  2.3000000  0  7G24G16G18G23G10G32G15
 129669592.460 6 101041332.020 6  24675303.492                    24675324.085  
       467.938         364.570          37.000          39.000  
 128835308.940 6 100391319.503 3  24516565.171    24516587.468                  
     -2110.715       -1644.883          37.000          18.000  
 114054375.754 7  88873604.432 7  21703827.514                    21703842.219  
     -1634.859       -1274.270          44.000          45.000  
 110731467.367 7  86284318.397 7  21071498.737                    21071512.537  
     -1670.625       -1301.305          43.000          46.000  
 109108510.992 7  85019687.109 7  20762660.728                    20762676.551  
       254.383         197.992          47.000          44.000  
 117635241.121 7  91663910.346 7  22385242.974                    22385262.195  
      3037.273        2366.879          42.000          43.000  
 127633130.887 7  99454464.535 6  24287779.638                    24287797.510  
     -3216.258       -2506.090          42.000          39.000  
 24  1 10  3 16  2.4000000  0  7G24G16G18G23G10G32G15
 129669545.651 6 101041295.544 6  24675294.272                    24675315.935  
       467.992         364.738          37.000          40.000  
 128835519.994 6 100391483.962 3  24516605.193    24516627.599                  
     -2110.668       -1644.742          37.000          18.000  
 114054539.267 7  88873731.854 7  21703858.364                    21703873.493  
     -1634.938       -1273.637          44.000          45.000  
 110731634.450 7  86284448.462 7  21071530.938                    21071544.441  
     -1670.512       -1300.770          43.000          45.000  
 109108485.511 7  85019667.202 7  20762655.808                    20762671.229  
       254.602         198.793          47.000          44.000  
 117634937.366 7  91663673.662 7  22385185.007                    22385204.339  
      3037.512        2366.953          42.000          43.000  
 127633452.533 7  99454715.122 6  24287840.548                    24287858.292  
     -3216.340       -2506.074          43.000          40.000  
 24  1 10  3 16  2.5000000  0  7G24G16G18G23G10G32G15
 129669498.771 6 101041259.051 6  24675285.351                    24675307.023  
       468.367         364.930          36.000          40.000  
 128835731.073 6 100391648.431 3  24516645.360    24516667.764                  
     -2110.754       -1644.773          37.000          18.000  
 114054702.639 7  88873859.078 7  21703889.453                    21703904.562  
     -1634.523       -1273.188          44.000          45.000  
 110731801.113 7  86284578.565 7  21071562.653                    21071576.214  
     -1668.074       -1300.895          42.000          46.000  
 109108459.958 7  85019647.307 7  20762650.946                    20762666.370  
       255.227         199.117          47.000          44.000  
 117634633.584 7  91663436.918 7  22385127.200                    22385146.524  
      3037.562        2367.312          42.000          43.000  
 127633774.090 7  99454965.708 6  24287901.738                    24287919.488  
     -3216.074       -2506.207          43.000          40.000  
 24  1 10  3 16  2.6000000  0  7G24G16G18G23G10G32G15
 129669451.921 5 101041222.529 6  24675275.779                    24675298.644  
       468.629         365.156          35.000          40.000  
 128835942.184 6 100391812.929 3  24516685.533    24516707.960                  
     -2111.020       -1644.887          37.000          18.000  
 114054866.027 7  88873986.489 7  21703920.701                    21703935.396  
     -1633.383       -1272.844          43.000          45.000  
 110731968.004 7  86284708.562 7  21071594.020                    21071608.812  
     -1669.309       -1299.559          42.000          46.000  
 109108434.332 7  85019627.320 7  20762645.976                    20762661.724  
       256.434         199.488          47.000          44.000  
 117634329.791 7  91663200.209 7  22385069.335                    22385088.342  
      3038.520        2367.387          42.000          43.000  
 127634095.642 7  99455216.334 6  24287963.108                    24287981.279  
     -3215.043       -2505.699          43.000          41.000  
 24  1 10  3 16  2.7000000  0  7G24G16G18G23G10G32G15
 129669404.842 5 101041186.021 6  24675266.820                    24675289.728  
       469.906         365.172          34.000          40.000  
 128836153.280 6 100391977.415 3  24516725.703    24516748.129                  
     -2111.348       -1645.020          38.000          18.000  
 114055029.234 7  88874113.615 7  21703951.758                    21703966.441  
     -1631.543       -1272.188          44.000          45.000  
 110732134.762 7  86284838.465 7  21071625.754                    21071640.536  
     -1667.477       -1299.117          43.000          46.000  
 109108408.671 7  85019607.358 7  20762641.093                    20762656.849  
       256.887         200.234          47.000          44.000  
 117634025.931 6  91662963.453 7  22385011.512                    22385030.524  
      3038.719        2367.629          41.000          43.000  
 127634417.204 7  99455466.849 6  24288024.299                    24288042.457  
     -3216.121       -2505.781          44.000          41.000  
 24  1 10  3 16  2.8000000  0  7G24G16G18G23G10G32G15
 129669358.139 6 101041149.453 6  24675257.261                    24675281.165  
       466.793         365.676          36.000          40.000  
 128836364.438 6 100392141.950 3  24516765.994    24516788.318                  
     -2111.020       -1645.086          38.000          18.000  
 114055192.526 7  88874240.875 7  21703982.714                    21703997.738  
     -1632.879       -1271.508          44.000          45.000  
 110732301.343 7  86284968.241 7  21071657.406                    21071672.291  
     -1664.523       -1299.078          42.000          46.000  
 109108382.909 7  85019587.255 7  20762636.339                    20762652.205  
       257.746         200.758          47.000          44.000  
 117633722.008 6  91662726.639 7  22384953.256                    22384972.747  
      3039.656        2368.199          41.000          43.000  
 127634738.604 7  99455717.381 6  24288085.357                    24288104.194  
     -3213.074       -2504.621          42.000          40.000  
 24  1 10  3 16  2.8000000  5  0
 24  1 10  3 16  2.8000000  5  0
 24  1 10  3 16  2.9000000  0  7G24G16G18G23G10G32G15
 129669311.76336 101041112.831 6  24675248.303                    24675272.221  
       470.766         366.012          36.000          39.000  
 128836575.484 6 100392306.399 3  24516806.155    24516828.478                  
     -2110.539       -1644.648          38.000          18.000  
 114055355.635 7  88874367.933 7  21704013.753                    21704028.767  
     -1630.863       -1271.188          44.000          45.000  
 110732468.004 7  86285098.121 7  21071689.121                    21071704.009  
     -1666.606       -1297.816          43.000          46.000  
 109108357.083 7  85019567.161 7  20762631.424                    20762647.298  
       258.766         201.090          47.000          44.000  
 117633418.079 7  91662489.797 7  22384895.420                    22384914.907  
      3038.590        2367.945          42.000          43.000  
 127635060.136 7  99455967.783 6  24288146.543                    24288165.345  
     -3215.973       -2504.684          42.000          40.000  
 24  1 10  3 16  3.0000000  0  7G24G16G18G23G10G32G15
 129669264.57725 101041076.264 6  24675239.402                    24675262.377  
       468.949         365.562          35.000          39.000  
 128836786.591 6 100392470.891 3  24516846.710    24516868.672                  
     -2110.641       -1644.742          37.000          18.000  
 114055518.727 7  88874495.068 7  21704044.897                    21704059.502  
     -1630.793       -1270.785          44.000          45.000  
 110732634.506 7  86285227.910 7  21071720.516                    21071735.470  
     -1665.004       -1297.684          43.000          46.000  
 109108331.171 7  85019546.930 7  20762626.556                    20762642.803  
       259.219         201.648          47.000          44.000  
 117633114.089 7  91662252.902 7  22384837.744                    22384856.938  
      3039.969        2368.922          42.000          43.000  
 127635381.526 7  99456218.259 6  24288207.061                    24288225.873  
     -3213.652       -2505.078          42.000          40.000  
 24  1 10  3 16  3.1000000  0  7G24G16G18G23G10G32G15
 129669217.79625 101041039.742 6  24675230.500                    24675253.458  
       470.285         365.484          35.000          39.000  
 128836997.634 6 100392635.331 2  24516886.870    24516908.830                  
     -2110.344       -1644.445          37.000          17.000  
 114055681.746 7  88874622.071 7  21704075.919                    21704090.518  
     -1630.027       -1270.356          44.000          45.000  
 110732800.962 7  86285357.567 7  21071752.191                    21071767.134  
     -1664.145       -1297.270          42.000          45.000  
 109108305.243 7  85019526.753 7  20762621.622                    20762637.875  
       259.734         202.484          47.000          44.000  
 117632810.073 7  91662016.046 7  22384779.892                    22384799.095  
      3040.656        2369.070          42.000          43.000  
 127635703.025 7  99456468.819 6  24288268.240                    24288287.063  
     -3215.023       -2504.988          43.000          40.000  
 24  1 10  3 16  3.2000000  0  7G24G16G18G23G10G32G15
 129669170.75525 101041003.078 6  24675221.767                    24675244.176  
       468.203         366.391          35.000          39.000  
 128837208.748 6 100392799.825 3  24516926.732    24516949.017                  
     -2111.445       -1644.992          37.000          18.000  
 114055844.742 7  88874749.066 7  21704107.116                    21704121.633  
     -1630.109       -1270.047          44.000          45.000  
 110732967.361 7  86285487.232 7  21071784.036                    21071798.252  
     -1664.062       -1296.926          42.000          45.000  
 109108279.261 7  85019506.495 7  20762616.607                    20762632.670  
       260.195         202.547          46.000          44.000  
 117632506.002 7  91661779.099 7  22384722.209                    22384741.629  
      3040.621        2369.148          42.000          43.000  
 127636024.513 7  99456719.302 6  24288329.558                    24288347.983  
     -3215.234       -2504.617          42.000          40.000  
 24  1 10  3 16  3.3000000  0  7G24G16G18G23G10G32G15
 129669123.95636 101040966.540 6  24675212.791                    24675235.253  
       471.727         365.492          36.000          39.000  
 128837419.889 6 100392964.352 2  24516966.910    24516989.196                  
     -2111.129       -1645.125          38.000          17.000  
 114056007.687 7  88874876.039 7  21704138.123                    21704152.641  
     -1629.055       -1269.637          44.000          45.000  
 110733133.786 7  86285616.912 7  21071815.705                    21071829.922  
     -1663.656       -1296.332          43.000          45.000  
 109108253.203 7  85019486.197 7  20762611.649                    20762627.713  
       260.418         202.961          46.000          44.000  
 117632201.911 7  91661542.121 7  22384664.343                    22384683.756  
      3041.531        2369.625          43.000          43.000  
 127636345.857 7  99456969.699 6  24288390.708                    24288409.133  
     -3213.246       -2504.418          42.000          40.000  
 24  1 10  3 16  3.4000000  0  7G24G16G18G23G10G32G15
 129669076.77325 101040929.846 6  24675203.727                    24675226.144  
       468.781         366.785          35.000          39.000  
 128837630.930 6 100393128.805 3  24517007.055    24517029.381                  
     -2110.270       -1644.602          38.000          18.000  
 114056170.571 7  88875002.955 7  21704168.814                    21704183.846  
     -1628.504       -1269.254          44.000          45.000  
 110733300.046 7  86285746.451 7  21071847.398                    21071861.931  
     -1662.629       -1296.207          43.000          45.000  
 109108227.112 7  85019465.861 7  20762606.317                    20762622.528  
       261.270         203.371          46.000          44.000  
 117631897.735 7  91661305.111 7  22384606.358                    22384626.079  
      3041.859        2370.191          42.000          43.000  
 127636667.255 7  99457220.204 6  24288452.149                    24288470.629  
     -3213.543       -2505.074          42.000          40.000  
 24  1 10  3 16  3.5000000  0  7G24G16G18G23G10G32G15
 129669029.90025 101040893.330 6  24675194.807                    24675217.226  
       470.164         365.449          35.000          39.000  
 128837842.012 6 100393293.281 3  24517047.222    24517069.547                  
     -2110.555       -1644.668          37.000          18.000  
 114056333.389 7  88875129.830 7  21704199.797                    21704214.830  
     -1628.109       -1268.648          44.000          45.000  
 110733466.383 7  86285876.095 7  21071879.051                    21071893.592  
     -1662.188       -1295.660          43.000          45.000  
 109108200.972 7  85019445.489 7  20762601.342                    20762617.553  
       261.777         203.922          47.000          44.000  
 117631593.529 7  91661068.092 7  22384548.470                    22384568.197  
      3042.594        2370.438          43.000          43.000  
 127636988.664 7  99457470.550 6  24288513.311                    24288531.766  
     -3213.879       -2504.039          42.000          39.000  
 24  1 10  3 16  3.6000000  0  7G24G16G18G23G10G32G15
 129668982.79725 101040856.598 6  24675185.570                    24675207.920  
       470.207         367.195          34.000          39.000  
 128838053.103 6 100393457.765 3  24517087.501    24517109.747                  
     -2110.863       -1644.816          38.000          18.000  
 114056496.157 7  88875256.686 7  21704230.638                    21704246.052  
     -1627.574       -1268.387          44.000          45.000  
 110733632.594 7  86286005.603 7  21071910.696                    21071925.063  
     -1662.410       -1295.270          43.000          45.000  
 109108174.761 7  85019425.066 7  20762596.425                    20762612.456  
       262.047         204.164          47.000          44.000  
 117631289.280 7  91660831.005 7  22384490.456                    22384510.360  
      3042.598        2370.930          43.000          43.000  
 127637310.051 7  99457721.038 6  24288574.602                    24288592.609  
     -3214.301       -2505.012          42.000          40.000  
 24  1 10  3 16  3.7000000  0  7G24G16G18G23G10G32G15
 129668935.85925 101040820.045 6  24675176.638                    24675198.993  
       469.930         365.523          35.000          39.000  
 128838264.137 6 100393622.203 3  24517127.659    24517149.905                  
     -2110.262       -1644.356          37.000          19.000  
 114056658.876 7  88875383.467 7  21704261.603                    21704277.013  
     -1626.938       -1267.922          44.000          45.000  
 110733798.754 7  86286135.087 7  21071942.315                    21071956.684  
     -1661.688       -1294.793          43.000          44.000  
 109108148.481 7  85019404.602 7  20762591.424                    20762607.459  
       262.844         204.996          47.000          44.000  
 117630984.936 7  91660593.845 7  22384432.541                    22384452.443  
      3043.133        2371.469          43.000          43.000  
 127637631.416 7  99457971.357 6  24288635.755                    24288653.740  
     -3214.164       -2503.242          42.000          39.000  
 24  1 10  3 16  3.8000000  0  7G24G16G18G23G10G32G15
 129668888.75825 101040783.328 6  24675167.675                    24675190.206  
       470.348         367.047          34.000          39.000  
 128838475.156 6 100393786.638 3  24517167.799    24517190.132                  
     -2110.469       -1644.520          37.000          18.000  
 114056821.526 7  88875510.199 7  21704292.679                    21704307.955  
     -1626.734       -1267.371          44.000          44.000  
 110733964.859 7  86286264.515 7  21071973.986                    21071988.174  
     -1661.094       -1294.344          43.000          44.000  
 109108122.169 7  85019384.092 7  20762586.440                    20762602.762  
       263.191         205.199          47.000          43.000  
 117630680.616 7  91660356.727 7  22384374.319                    22384394.568  
      3043.441        2371.523          42.000          43.000  
 127637952.837 7  99458221.939 6  24288696.967                    24288714.763  
     -3213.961       -2504.738          42.000          39.000  
 24  1 10  3 16  3.9000000  0  7G24G16G18G23G10G32G15
 129668841.83625 101040746.723 6  24675158.746                    24675181.267  
       470.121         366.266          35.000          39.000  
 128838686.262 6 100393951.134 3  24517207.971    24517230.303                  
     -2110.891       -1644.848          37.000          19.000  
 114056984.135 7  88875636.911 7  21704323.622                    21704338.899  
     -1626.125       -1267.250          44.000          44.000  
 110734130.955 7  86286393.938 7  21072005.593                    21072019.781  
     -1660.617       -1294.000          42.000          44.000  
 109108095.787 7  85019363.547 7  20762581.420                    20762597.745  
       263.672         205.516          46.000          43.000  
 117630376.182 7  91660119.478 7  22384316.387                    22384336.629  
      3044.035        2371.977          42.000          43.000  
 127638274.210 7  99458472.310 6  24288758.122                    24288775.906  
     -3213.922       -2503.836          42.000          39.000  
 24  1 10  3 16  4.0000000  0  7G24G16G18G23G10G32G15
 129668794.79736 101040710.065 6  24675149.834                    24675172.135  
       468.840         366.051          36.000          39.000  
 128838897.275 6 100394115.557 3  24517247.985    24517270.473                  
     -2110.188       -1644.305          37.000          18.000  
 114057146.763 7  88875763.638 7  21704354.554                    21704370.003  
     -1626.246       -1267.090          44.000          44.000  
 110734296.963 7  86286523.279 7  21072037.035                    21072051.563  
     -1660.481       -1294.059          43.000          44.000  
 109108069.401 7  85019342.972 7  20762576.672                    20762592.666  
       263.746         205.570          46.000          44.000  
 117630071.812 7  91659882.325 7  22384258.295                    22384278.074  
      3044.070        2371.766          42.000          43.000  
 127638595.563 7  99458722.719 6  24288819.203                    24288836.566  
     -3213.488       -2504.801          42.000          40.000  
 24  1 10  3 16  4.1000000  0  7G24G16G18G23G10G32G15
 129668747.71325 101040673.394 6  24675140.874                    24675163.180  
       469.992         367.027          35.000          38.000  
 128839108.364 6 100394280.050 3  24517288.154    24517310.644                  
     -2110.523       -1644.574          37.000          18.000  
 114057309.401 7  88875890.364 7  21704385.503                    21704400.951  
     -1626.094       -1267.379          44.000          44.000  
 110734463.062 7  86286652.718 7  21072068.642                    21072083.173  
     -1660.668       -1294.121          42.000          44.000  
 109108043.030 7  85019322.422 7  20762571.654                    20762587.647  
       263.695         205.535          46.000          43.000  
 117629767.419 7  91659645.137 7  22384200.371                    22384220.150  
      3043.930        2371.914          42.000          43.000  
 127638916.919 7  99458973.127 6  24288880.355                    24288897.718  
     -3213.566       -2504.516          42.000          39.000  
 24  1 10  3 16  4.2000000  0  7G24G16G18G23G10G32G15
 129668700.70825 101040636.823 6  24675132.164                    24675154.257  
       470.203         366.043          35.000          38.000  
 128839319.420 6 100394444.503 3  24517328.129    24517350.781                  
     -2110.746       -1644.914          37.000          18.000  
 114057472.012 7  88876017.083 7  21704416.205                    21704431.577  
     -1626.324       -1267.312          44.000          44.000  
 110734629.170 7  86286782.153 7  21072100.119                    21072115.056  
     -1660.781       -1294.242          42.000          44.000  
 109108016.686 7  85019301.887 7  20762566.438                    20762582.711  
       263.629         205.270          47.000          43.000  
 117629463.046 7  91659407.951 7  22384142.693                    22384162.320  
      3043.797        2371.559          42.000          43.000  
 127639238.361 7  99459223.564 6  24288941.516                    24288959.096  
     -3214.035       -2503.996          43.000          39.000  
 24  1 10  3 16  4.3000000  0  7G24G16G18G23G10G32G15
 129668653.80125 101040600.223 6  24675123.238                    24675145.318  
       469.566         365.922          34.000          38.000  
 128839530.558 6 100394609.023 3  24517368.307    24517390.959                  
     -2111.023       -1645.094          37.000          19.000  
 114057634.706 7  88876143.852 7  21704447.164                    21704462.535  
     -1626.539       -1267.465          44.000          44.000  
 110734795.147 7  86286911.511 7  21072131.703                    21072146.646  
     -1660.996       -1294.262          43.000          44.000  
 109107990.312 7  85019281.341 7  20762561.419                    20762577.693  
       263.512         205.297          47.000          43.000  
 117629158.705 6  91659170.811 7  22384084.779                    22384104.408  
      3043.512        2371.605          41.000          43.000  
 127639559.764 7  99459474.059 6  24289002.677                    24289020.270  
     -3214.203       -2504.445          43.000          39.000  
 24  1 10  3 16  4.4000000  0  7G24G16G18G23G10G32G15
 129668606.72425 101040563.610 6  24675114.404                    24675136.182  
       470.574         366.406          34.000          38.000  
 128839741.676 6 100394773.528 3  24517408.287    24517431.117                  
     -2110.988       -1644.852          37.000          19.000  
 114057797.269 7  88876270.530 7  21704478.146                    21704493.385  
     -1626.250       -1267.199          44.000          44.000  
 110734961.242 7  86287040.899 7  21072163.709                    21072177.783  
     -1660.594       -1293.805          43.000          44.000  
 109107963.948 7  85019260.796 7  20762556.574                    20762572.816  
       263.637         205.656          47.000          43.000  
 117628854.322 6  91658933.624 7  22384026.622                    22384046.555  
      3043.684        2371.605          41.000          43.000  
 127639881.186 7  99459724.479 6  24289063.466                    24289081.089  
     -3214.043       -2504.449          42.000          39.000  
 24  1 10  3 16  4.5000000  0  7G24G16G18G23G10G32G15
 129668559.76225 101040526.993 6  24675105.468                    24675127.240  
       470.074         366.117          35.000          38.000  
 128839952.769 6 100394938.018 3  24517448.456    24517471.287                  
     -2110.918       -1644.805          37.000          19.000  
 114057959.905 7  88876397.273 7  21704509.094                    21704524.337  
     -1626.297       -1267.375          44.000          44.000  
 110735127.340 7  86287170.343 7  21072195.316                    21072209.395  
     -1660.547       -1293.992          42.000          44.000  
 109107937.593 7  85019240.258 7  20762551.559                    20762567.801  
       263.551         205.211          46.000          43.000  
 117628550.023 6  91658696.521 7  22383968.716                    22383988.652  
      3043.445        2371.520          41.000          43.000  
 127640202.567 7  99459974.968 6  24289124.623                    24289142.261  
     -3213.828       -2504.293          43.000          39.000  
 24  1 10  3 16  4.6000000  0  7G24G16G18G23G10G32G15
 129668512.85625 101040490.346 6  24675096.362                    24675118.071  
       469.574         365.969          35.000          38.000  
 128840163.946 6 100395102.571 3  24517488.290    24517511.465                  
     -2111.535       -1645.688          37.000          18.000  
 114058122.559 7  88876524.004 7  21704540.140                    21704555.067  
     -1626.398       -1267.453          44.000          44.000  
 110735293.327 7  86287299.702 7  21072226.871                    21072241.188  
     -1660.656       -1294.137          42.000          44.000  
 109107911.244 7  85019219.751 7  20762546.287                    20762562.683  
       263.512         205.234          47.000          43.000  
 117628245.723 6  91658459.391 7  22383911.138                    22383930.789  
      3043.305        2371.379          41.000          42.000  
 127640523.958 7  99460225.341 6  24289185.813                    24289203.717  
     -3213.746       -2503.758          42.000          39.000  
 24  1 10  3 16  4.7000000  0  7G24G16G18G23G10G32G15
 129668465.82325 101040453.758 6  24675087.412                    24675109.136  
       469.707         366.805          35.000          38.000  
 128840375.078 6 100395267.081 3  24517528.467    24517551.640                  
     -2111.246       -1644.945          37.000          19.000  
 114058285.187 7  88876650.715 7  21704571.087                    21704586.012  
     -1626.301       -1267.137          44.000          44.000  
 110735459.425 7  86287429.117 7  21072258.478                    21072272.793  
     -1660.504       -1293.648          42.000          44.000  
 109107884.878 7  85019199.190 7  20762541.270                    20762557.662  
       263.656         205.547          47.000          43.000  
 117627941.366 6  91658222.228 7  22383853.221                    22383872.872  
      3043.258        2371.184          41.000          42.000  
 127640845.319 7  99460475.843 6  24289246.966                    24289264.892  
     -3213.766       -2504.434          43.000          39.000  
 24  1 10  3 16  4.8000000  0  7G24G16G18G23G10G32G15
 129668418.82125 101040417.181 6  24675078.710                    24675100.375  
       469.508         365.805          35.000          38.000  
 128840586.217 6 100395431.593 3  24517568.818    24517591.870                  
     -2111.438       -1645.273          37.000          19.000  
 114058447.808 7  88876777.436 7  21704602.174                    21704616.817  
     -1626.168       -1267.289          44.000          44.000  
 110735625.453 7  86287558.466 7  21072289.830                    21072304.421  
     -1660.387       -1293.617          42.000          44.000  
 109107858.521 7  85019178.656 7  20762536.113                    20762552.249  
       263.621         205.543          47.000          43.000  
 117627637.052 6  91657985.113 7  22383795.585                    22383815.224  
      3043.223        2371.238          41.000          43.000  
 127641166.688 7  99460726.165 6  24289308.097                    24289325.945  
     -3213.852       -2504.602          42.000          39.000  
 24  1 10  3 16  4.9000000  0  7G24G16G18G23G10G32G15
 129668371.82125 101040380.570 6  24675069.767                    24675091.435  
       470.203         365.863          35.000          38.000  
 128840797.378 6 100395596.131 3  24517609.000    24517632.052                  
     -2111.551       -1645.441          37.000          19.000  
 114058610.476 7  88876904.190 7  21704633.128                    21704647.772  
     -1626.457       -1267.418          44.000          44.000  
 110735791.485 7  86287687.860 7  21072321.425                    21072336.020  
     -1660.352       -1293.867          42.000          44.000  
 109107832.154 7  85019158.099 7  20762531.096                    20762547.229  
       263.617         205.418          47.000          42.000  
 117627332.791 6  91657748.024 7  22383737.686                    22383757.324  
      3042.961        2371.023          41.000          43.000  
 127641488.018 7  99460976.551 6  24289369.244                    24289387.092  
     -3213.707       -2503.891          42.000          38.000  
 24  1 10  3 16  5.0000000  0  7G24G16G18G23G10G32G15
 129668324.93425 101040343.965 6  24675061.180                    24675082.558  
       469.797         366.379          35.000          38.000  
 128841008.570 6 100395760.693 3  24517649.447    24517672.177                  
     -2111.574       -1645.324          38.000          19.000  
 114058773.097 7  88877030.921 7  21704664.332                    21704678.830  
     -1626.426       -1267.324          44.000          44.000  
 110735957.539 7  86287817.224 7  21072352.821                    21072367.549  
     -1660.430       -1293.863          42.000          44.000  
 109107805.819 7  85019137.573 7  20762526.092                    20762542.115  
       263.531         205.414          47.000          42.000  
 117627028.500 7  91657510.914 7  22383679.820                    22383699.420  
      3042.832        2370.926          42.000          43.000  
 127641809.442 7  99461227.007 6  24289430.323                    24289448.116  
     -3213.816       -2503.891          42.000          39.000  
 24  1 10  3 16  5.1000000  0  7G24G16G18G23G10G32G15
 129668277.98425 101040307.427 6  24675052.246                    24675073.635  
       469.434         364.992          34.000          38.000  
 128841219.734 6 100395925.228 3  24517689.630    24517712.358                  
     -2111.797       -1645.613          37.000          18.000  
 114058935.795 7  88877157.676 7  21704695.292                    21704709.785  
     -1626.680       -1267.762          44.000          44.000  
 110736123.582 7  86287946.627 7  21072384.418                    21072399.151  
     -1660.559       -1294.098          42.000          44.000  
 109107779.473 7  85019117.072 7  20762521.079                    20762537.108  
       263.375         204.984          46.000          42.000  
 117626724.257 7  91657273.835 7  22383621.925                    22383641.522  
      3042.625        2370.824          42.000          43.000  
 127642130.852 7  99461477.504 6  24289491.485                    24289509.289  
     -3213.977       -2504.719          42.000          38.000  
 24  1 10  3 16  5.2000000  0  7G24G16G18G23G10G32G15
 129668231.10225 101040270.792 6  24675043.473                    24675064.806  
       469.195         366.164          34.000          38.000  
 128841430.922 6 100396089.771 3  24517729.888    24517752.572                  
     -2111.707       -1645.312          37.000          19.000  
 114059098.491 7  88877284.460 7  21704726.151                    21704740.857  
     -1626.727       -1267.543          44.000          44.000  
 110736289.658 7  86288076.050 7  21072416.146                    21072430.468  
     -1660.625       -1293.910          42.000          44.000  
 109107753.143 7  85019096.544 7  20762516.381                    20762532.329  
       263.410         205.320          47.000          42.000  
 117626419.990 7  91657036.748 7  22383564.009                    22383583.295  
      3042.641        2370.914          42.000          42.000  
 127642452.210 7  99461727.873 6  24289552.716                    24289570.315  
     -3213.836       -2504.508          42.000          38.000  
 24  1 10  3 16  5.3000000  0  7G24G16G18G23G10G32G15
 129668184.17925 101040234.307 6  24675034.544                    24675055.895  
       468.684         365.461          35.000          37.000  
 128841642.125 6 100396254.347 3  24517770.078    24517792.764                  
     -2111.957       -1645.770          38.000          19.000  
 114059261.172 7  88877411.223 7  21704757.108                    21704771.813  
     -1626.867       -1267.691          44.000          44.000  
 110736455.731 7  86288205.448 7  21072447.749                    21072462.069  
     -1660.672       -1294.094          42.000          44.000  
 109107726.812 7  85019076.021 7  20762511.370                    20762527.317  
       263.289         205.277          46.000          42.000  
 117626115.747 7  91656799.681 7  22383506.114                    22383525.401  
      3042.566        2370.781          42.000          42.000  
 127642773.702 7  99461978.392 6  24289613.894                    24289631.494  
     -3214.066       -2504.664          42.000          38.000  
 24  1 10  3 16  5.4000000  0  7G24G16G18G23G10G32G15
 129668137.24125 101040197.780 6  24675025.440                    24675047.014  
       469.191         365.289          34.000          37.000  
 128841853.248 6 100396418.854 3  24517810.527    24517833.008                  
     -2111.383       -1644.910          37.000          19.000  
 114059423.875 7  88877538.006 7  21704788.015                    21704802.939  
     -1626.820       -1267.637          44.000          44.000  
 110736621.856 7  86288334.893 7  21072479.314                    21072493.743  
     -1660.645       -1293.961          42.000          44.000  
 109107700.425 7  85019055.468 7  20762506.419                    20762522.415  
       263.512         205.332          46.000          42.000  
 117625811.437 7  91656562.553 7  22383448.065                    22383467.304  
      3042.648        2370.918          42.000          42.000  
 127643095.136 7  99462228.868 6  24289674.920                    24289692.983  
     -3214.293       -2504.516          42.000          38.000  
 24  1 10  3 16  5.5000000  0  7G24G16G18G23G10G32G15
 129668090.42125 101040161.215 6  24675016.530                    24675038.085  
       468.676         365.285          34.000          38.000  
 128842064.452 6 100396583.431 3  24517850.718    24517873.200                  
     -2111.863       -1645.812          37.000          19.000  
 114059586.529 7  88877664.751 7  21704818.967                    21704833.892  
     -1626.809       -1267.711          44.000          44.000  
 110736787.856 7  86288464.255 7  21072510.903                    21072525.334  
     -1660.621       -1293.938          42.000          44.000  
 109107674.078 7  85019034.935 7  20762501.406                    20762517.401  
       263.605         205.422          46.000          42.000  
 117625507.223 7  91656325.524 7  22383390.175                    22383409.420  
      3042.680        2370.719          42.000          42.000  
 127643416.558 7  99462479.327 6  24289736.084                    24289754.148  
     -3214.457       -2505.031          42.000          38.000  
 24  1 10  3 16  5.6000000  0  7G24G16G18G23G10G32G15
 129668043.53325 101040124.707 6  24675007.428                    24675029.646  
       468.738         365.754          34.000          37.000  
 128842275.562 6 100396747.941 3  24517890.766    24517913.336                  
     -2111.543       -1645.379          37.000          19.000  
 114059749.225 7  88877791.522 7  21704849.575                    21704864.819  
     -1626.867       -1267.777          44.000          44.000  
 110736953.917 7  86288593.637 7  21072542.316                    21072557.071  
     -1660.520       -1294.000          42.000          45.000  
 109107647.728 7  85019014.378 7  20762496.243                    20762512.498  
       263.676         205.566          46.000          42.000  
 117625202.901 7  91656088.368 7  22383332.358                    22383351.629  
      3042.699        2371.102          42.000          42.000  
 127643738.010 7  99462729.836 6  24289797.419                    24289815.544  
     -3214.461       -2504.930          42.000          38.000  
 24  1 10  3 16  5.7000000  0  7G24G16G18G23G10G32G15
 129667996.74225 101040088.275 6  24674998.524                    24675020.749  
       468.332         364.172          34.000          38.000  
 128842486.810 6 100396912.551 3  24517930.965    24517953.535                  
     -2111.727       -1645.465          38.000          19.000  
 114059911.958 7  88877918.328 7  21704880.542                    21704895.786  
     -1627.137       -1268.098          44.000          44.000  
 110737119.977 7  86288723.026 7  21072573.916                    21072588.669  
     -1660.738       -1294.164          42.000          44.000  
 109107621.373 7  85018993.858 7  20762491.228                    20762507.487  
       263.582         205.254          46.000          43.000  
 117624898.690 7  91655851.326 7  22383274.469                    22383293.740  
      3042.516        2370.539          42.000          42.000  
 127644059.404 7  99462980.202 6  24289858.578                    24289876.686  
     -3214.719       -2504.906          42.000          39.000  
 24  1 10  3 16  5.8000000  0  7G24G16G18G23G10G32G15
 129667949.97425 101040051.742 6  24674989.617                    24675011.944  
       468.000         365.254          34.000          37.000  
 128842697.997 6 100397077.117 3  24517971.512    24517993.646                  
     -2112.145       -1646.195          37.000          18.000  
 114060074.730 7  88878045.168 7  21704911.853                    21704926.598  
     -1627.406       -1268.250          44.000          44.000  
 110737286.063 7  86288852.473 7  21072605.435                    21072620.461  
     -1660.914       -1294.367          42.000          44.000  
 109107595.048 7  85018973.346 7  20762485.961                    20762502.282  
       263.367         205.078          47.000          43.000  
 117624594.459 7  91655614.260 7  22383216.161                    22383235.948  
      3042.168        2370.410          42.000          42.000  
 127644380.902 7  99463230.797 6  24289920.288                    24289938.079  
     -3214.773       -2505.238          42.000          39.000  
 24  1 10  3 16  5.9000000  0  7G24G16G18G23G10G32G15
 129667903.15325 101040015.349 6  24674980.707                    24675003.056  
       468.062         364.238          34.000          38.000  
 128842909.155 6 100397241.669 3  24518011.694    24518033.831                  
     -2111.543       -1645.191          38.000          18.000  
 114060237.493 7  88878171.987 7  21704942.825                    21704957.568  
     -1627.606       -1268.270          44.000          44.000  
 110737452.215 7  86288981.939 7  21072637.053                    21072652.078  
     -1661.035       -1294.383          42.000          44.000  
 109107568.726 7  85018952.838 7  20762480.952                    20762497.274  
       263.227         204.996          47.000          43.000  
 117624290.290 7  91655377.256 7  22383158.280                    22383178.069  
      3042.188        2370.477          42.000          42.000  
 127644702.457 7  99463481.305 6  24289981.478                    24289999.255  
     -3214.910       -2505.516          42.000          38.000  
 24  1 10  3 16  6.0000000  0  7G24G16G18G23G10G32G15
 129667856.38825 101039978.855 6  24674971.878                    24674993.816  
       467.551         364.734          34.000          37.000  
 128843120.348 6 100397406.248 3  24518052.023    24518074.046                  
     -2112.215       -1646.016          37.000          18.000  
 114060400.329 7  88878298.874 7  21704973.781                    21704988.485  
     -1628.164       -1268.703          44.000          44.000  
 110737618.378 7  86289111.387 7  21072668.899                    21072683.613  
     -1661.625       -1294.594          42.000          44.000  
 109107542.443 7  85018932.376 7  20762476.091                    20762491.925  
       262.992         204.918          46.000          43.000  
 117623986.134 6  91655140.234 7  22383100.213                    22383120.530  
      3041.633        2370.090          41.000          42.000  
 127645023.977 7  99463731.863 6  24290042.411                    24290060.827  
     -3214.934       -2505.461          42.000          38.000  
 24  1 10  3 16  6.1000000  0  7G24G16G18G23G10G32G15
 129667809.73025 101039942.516 6  24674963.000                    24674984.942  
       466.391         363.520          35.000          37.000  
 128843331.605 6 100397570.861 3  24518092.224    24518114.246                  
     -2112.539       -1646.152          37.000          19.000  
 114060563.177 7  88878425.766 7  21705004.770                    21705019.474  
     -1628.695       -1269.141          44.000          44.000  
 110737784.570 7  86289240.907 7  21072700.525                    21072715.243  
     -1661.977       -1295.004          42.000          45.000  
 109107516.203 7  85018911.909 7  20762471.097                    20762486.927  
       262.273         204.406          47.000          43.000  
 117623682.008 7  91654903.265 7  22383042.340                    22383062.660  
      3041.238        2369.867          42.000          42.000  
 127645345.550 7  99463982.431 6  24290103.605                    24290122.018  
     -3215.438       -2505.492          42.000          38.000  
 24  1 10  3 16  6.2000000  0  7G24G16G18G23G10G32G15
 129667762.98225 101039906.077 6  24674954.299                    24674975.926  
       467.242         364.594          34.000          37.000  
 128843542.824 6 100397735.450 3  24518132.191    24518154.441                  
     -2112.094       -1645.684          38.000          19.000  
 114060726.035 7  88878552.690 7  21705035.518                    21705050.478  
     -1628.555       -1269.176          44.000          44.000  
 110737950.783 7  86289370.432 7  21072732.029                    21072746.983  
     -1661.883       -1295.043          42.000          45.000  
 109107489.964 7  85018891.476 7  20762466.276                    20762482.156  
       262.492         204.441          47.000          43.000  
 117623377.905 7  91654666.272 7  22382984.401                    22383004.666  
      3041.262        2369.652          42.000          42.000  
 127645667.095 7  99464233.004 6  24290164.871                    24290182.969  
     -3215.285       -2505.664          42.000          38.000  
 24  1 10  3 16  6.3000000  0  7G24G16G18G23G10G32G15
 129667716.29325 101039869.743 6  24674945.414                    24674967.053  
       466.770         363.312          34.000          37.000  
 128843754.115 6 100397900.087 3  24518172.399    24518194.647                  
     -2112.621       -1646.418          37.000          19.000  
 114060888.982 7  88878679.640 7  21705066.526                    21705081.480  
     -1629.059       -1269.680          44.000          44.000  
 110738117.003 7  86289499.942 7  21072763.660                    21072778.611  
     -1662.293       -1295.492          42.000          45.000  
 109107463.798 7  85018871.075 7  20762461.297                    20762477.174  
       262.055         204.035          47.000          43.000  
 117623073.828 7  91654429.354 7  22382926.537                    22382946.809  
      3040.703        2369.066          42.000          42.000  
 127645988.701 7  99464483.589 6  24290226.070                    24290244.164  
     -3215.508       -2506.004          42.000          38.000  
 24  1 10  3 16  6.4000000  0  7G24G16G18G23G10G32G15
 129667669.64225 101039833.421 6  24674936.568                    24674958.073  
       467.016         363.113          34.000          38.000  
 128843965.298 6 100398064.645 3  24518212.359    24518234.771                  
     -2112.180       -1645.699          37.000          19.000  
 114061051.933 7  88878806.628 7  21705097.535                    21705112.632  
     -1629.344       -1269.731          44.000          44.000  
 110738283.288 7  86289629.514 7  21072795.388                    21072810.246  
     -1662.352       -1295.566          42.000          45.000  
 109107437.595 7  85018850.655 7  20762456.170                    20762472.070  
       261.906         203.996          46.000          42.000  
 117622769.786 6  91654192.447 7  22382869.063                    22382889.524  
      3040.621        2368.969          41.000          42.000  
 127646310.320 7  99464734.189 6  24290287.155                    24290305.285  
     -3215.773       -2505.344          42.000          38.000  
 24  1 10  3 16  6.5000000  0  7G24G16G18G23G10G32G15
 129667622.589 5 101039797.027 6  24674927.614                    24674949.185  
       466.293         363.527          34.000          37.000  
 128844176.699 6 100398229.361 3  24518252.587    24518274.996                  
     -2112.953       -1646.574          38.000          19.000  
 114061214.906 7  88878933.608 7  21705128.547                    21705143.642  
     -1629.598       -1269.891          43.000          44.000  
 110738449.573 7  86289759.087 7  21072827.031                    21072841.889  
     -1662.523       -1295.559          42.000          45.000  
 109107411.438 7  85018830.276 7  20762451.193                    20762467.093  
       261.832         203.930          47.000          43.000  
 117622465.779 6  91653955.564 7  22382811.212                    22382831.674  
      3040.316        2368.977          41.000          42.000  
 127646631.933 7  99464984.845 6  24290348.356                    24290366.498  
     -3216.117       -2506.441          42.000          38.000  
 24  1 10  3 16  6.6000000  0  7G24G16G18G23G10G32G15
 129667575.972 5 101039760.814 6  24674919.189                    24674940.287  
       466.230         362.730          34.000          38.000  
 128844387.863 6 100398393.897 3  24518292.567    24518315.178                  
     -2112.539       -1646.039          37.000          19.000  
 114061377.890 7  88879060.614 7  21705159.968                    21705174.940  
     -1629.731       -1269.871          44.000          44.000  
 110738615.782 7  86289888.611 7  21072859.011                    21072873.684  
     -1662.465       -1295.449          42.000          45.000  
 109107385.268 7  85018809.865 7  20762446.134                    20762462.069  
       261.770         203.992          47.000          42.000  
 117622161.838 6  91653718.723 7  22382753.624                    22382773.773  
      3040.023        2368.738          41.000          42.000  
 127646953.573 7  99465235.410 6  24290409.695                    24290427.415  
     -3216.008       -2506.199          42.000          38.000  
 24  1 10  3 16  6.7000000  0  7G24G16G18G23G10G32G15
 129667529.427 5 101039724.438 6  24674910.331                    24674931.404  
       465.766         363.266          34.000          38.000  
 128844599.273 6 100398558.634 3  24518332.797    24518355.408                  
     -2113.043       -1646.555          38.000          20.000  
 114061540.883 7  88879187.615 7  21705190.985                    21705205.955  
     -1629.719       -1269.981          44.000          44.000  
 110738782.051 7  86290018.159 7  21072890.652                    21072905.321  
     -1662.617       -1295.438          42.000          45.000  
 109107359.068 7  85018789.473 7  20762441.149                    20762457.089  
       261.883         203.887          46.000          42.000  
 117621857.746 7  91653481.763 7  22382695.757                    22382715.905  
      3040.145        2368.863          42.000          42.000  
 127647275.115 7  99465485.939 6  24290470.883                    24290488.596  
     -3216.340       -2505.887          42.000          38.000  
 24  1 10  3 16  6.8000000  0  7G24G16G18G23G10G32G15
 129667482.785 5 101039688.188 6  24674901.573                    24674922.637  
       465.789         362.555          34.000          38.000  
 128844810.505 6 100398723.225 3  24518372.829    24518395.634                  
     -2112.879       -1646.449          37.000          20.000  
 114061703.860 7  88879314.628 7  21705222.045                    21705237.027  
     -1629.637       -1269.930          44.000          44.000  
 110738948.294 7  86290147.688 7  21072922.685                    21072936.719  
     -1662.426       -1295.312          42.000          44.000  
 109107332.876 7  85018769.054 7  20762436.087                    20762452.212  
       261.992         204.270          47.000          43.000  
 117621553.794 7  91653244.918 7  22382637.737                    22382657.760  
      3040.129        2368.770          42.000          42.000  
 127647596.807 7  99465736.685 6  24290532.138                    24290550.113  
     -3216.367       -2506.445          42.000          38.000  
 24  1 10  3 16  6.9000000  0  7G24G16G18G23G10G32G15
 129667436.203 5 101039651.873 6  24674892.709                    24674913.769  
       466.062         363.328          34.000          38.000  
 128845021.713 6 100398887.800 3  24518413.021    24518435.825                  
     -2112.484       -1645.953          37.000          20.000  
 114061866.825 7  88879441.587 7  21705253.056                    21705268.032  
     -1629.723       -1269.719          44.000          44.000  
 110739114.594 7  86290277.276 7  21072954.331                    21072968.366  
     -1662.441       -1295.383          42.000          44.000  
 109107306.668 7  85018748.634 7  20762431.099                    20762447.226  
       262.051         204.066          47.000          43.000  
 117621249.817 7  91653008.060 7  22382579.892                    22382599.917  
      3040.078        2368.812          42.000          42.000  
 127647918.456 7  99465987.265 6  24290593.345                    24290611.307  
     -3216.273       -2506.125          42.000          38.000  
 24  1 10  3 16  7.0000000  0  7G24G16G18G23G10G32G15
 129667389.690 5 101039615.589 6  24674883.615                    24674905.001  
       465.652         362.379          34.000          38.000  
 128845233.079 6 100399052.497 3  24518453.250    24518476.046                  
     -2112.871       -1646.371          37.000          20.000  
 114062029.818 7  88879568.599 7  21705283.768                    21705298.807  
     -1629.738       -1270.106          44.000          44.000  
 110739280.722 7  86290406.735 7  21072985.913                    21072999.981  
     -1662.289       -1295.492          43.000          44.000  
 109107280.463 7  85018728.219 7  20762426.105                    20762442.357  
       262.023         204.305          47.000          43.000  
 117620945.752 7  91652771.121 7  22382522.273                    22382541.953  
      3040.102        2368.973          42.000          42.000  
 127648240.091 7  99466237.934 6  24290654.332                    24290672.608  
     -3216.309       -2506.586          42.000          38.000  
 24  1 10  3 16  7.1000000  0  7G24G16G18G23G10G32G15
 129667343.165 5 101039579.355 6  24674874.762                    24674896.153  
       465.590         362.828          34.000          38.000  
 128845444.435 6 100399217.192 3  24518493.470    24518516.266                  
     -2113.480       -1647.293          37.000          20.000  
 114062192.783 7  88879695.590 7  21705314.780                    21705329.820  
     -1629.789       -1269.996          44.000          44.000  
 110739447.033 7  86290536.337 7  21073017.560                    21073031.631  
     -1662.430       -1295.453          43.000          44.000  
 109107254.249 7  85018707.783 7  20762421.117                    20762437.366  
       262.145         204.180          46.000          42.000  
 117620641.752 7  91652534.232 7  22382464.424                    22382484.102  
      3040.184        2368.914          42.000          42.000  
 127648561.785 7  99466488.557 6  24290715.548                    24290733.813  
     -3216.430       -2506.062          42.000          38.000  
 24  1 10  3 16  7.2000000  0  7G24G16G18G23G10G32G15
 129667296.605 5 101039543.036 6  24674866.316                    24674887.182  
       465.402         362.574          34.000          38.000  
 128845655.584 6 100399381.729 3  24518533.853    24518556.463                  
     -2112.438       -1645.801          37.000          20.000  
 114062355.745 7  88879822.576 7  21705345.728                    21705360.909  
     -1629.664       -1269.875          44.000          44.000  
 110739613.183 7  86290665.790 7  21073049.084                    21073062.909  
     -1662.305       -1295.406          43.000          44.000  
 109107228.016 7  85018687.352 7  20762416.390                    20762432.674  
       262.180         204.297          46.000          42.000  
 117620337.717 7  91652297.351 7  22382406.576                    22382426.503  
      3040.332        2369.027          42.000          42.000  
 127648883.433 7  99466739.202 6  24290776.935                    24290795.062  
     -3216.551       -2505.996          42.000          38.000  
 24  1 10  3 16  7.3000000  0  7G24G16G18G23G10G32G15
 129667250.048 5 101039506.796 6  24674857.456                    24674878.331  
       465.316         362.516          34.000          38.000  
 128845866.955 6 100399546.434 3  24518574.076    24518596.686                  
     -2112.809       -1646.277          38.000          19.000  
 114062518.746 7  88879949.588 7  21705376.746                    21705391.927  
     -1629.731       -1270.020          44.000          44.000  
 110739779.489 7  86290795.395 7  21073080.731                    21073094.560  
     -1662.430       -1295.457          43.000          44.000  
 109107201.843 7  85018666.946 7  20762411.410                    20762427.691  
       262.098         204.207          46.000          42.000  
 117620033.703 7  91652060.425 7  22382348.724                    22382368.643  
      3040.164        2369.008          42.000          42.000  
 127649205.144 7  99466989.921 6  24290838.155                    24290856.290  
     -3216.707       -2506.758          42.000          38.000  
 24  1 10  3 16  7.4000000  0  7G24G16G18G23G10G32G15
 129667203.561 5 101039470.581 6  24674848.532                    24674869.159  
       465.359         362.578          33.000          38.000  
 128846078.257 6 100399711.083 3  24518614.332    24518636.895                  
     -2113.234       -1646.996          37.000          19.000  
 114062681.720 7  88880076.576 7  21705407.735                    21705422.743  
     -1629.898       -1270.141          44.000          44.000  
 110739945.739 7  86290924.939 7  21073111.930                    21073126.508  
     -1662.594       -1295.426          43.000          44.000  
 109107175.640 7  85018646.531 7  20762406.330                    20762422.400  
       261.949         204.078          46.000          42.000  
 117619729.691 7  91651823.545 7  22382290.817                    22382310.639  
      3040.215        2369.016          42.000          42.000  
 127649526.773 7  99467240.477 6  24290899.343                    24290917.518  
     -3216.859       -2506.094          42.000          38.000  
 24  1 10  3 16  7.5000000  0  7G24G16G18G23G10G32G15
 129667157.098 5 101039434.376 6  24674839.690                    24674860.318  
       465.016         362.473          34.000          38.000  
 128846289.562 6 100399875.733 3  24518654.542    24518677.104                  
     -2113.281       -1646.918          37.000          19.000  
 114062844.752 7  88880203.622 7  21705438.759                    21705453.769  
     -1630.043       -1270.348          44.000          44.000  
 110740112.037 7  86291054.520 7  21073143.575                    21073158.153  
     -1662.863       -1295.859          43.000          44.000  
 109107149.461 7  85018626.138 7  20762401.348                    20762417.420  
       261.805         203.977          46.000          42.000  
 117619425.708 7  91651586.674 7  22382232.971                    22382252.792  
      3039.969        2368.676          42.000          42.000  
 127649848.523 7  99467491.275 6  24290960.570                    24290978.765  
     -3217.121       -2507.062          42.000          37.000  
 24  1 10  3 16  7.6000000  0  7G24G16G18G23G10G32G15
 129667110.617 5 101039398.144 6  24674830.689                    24674851.251  
       464.914         362.121          34.000          38.000  
 128846500.885 6 100400040.404 3  24518694.818    24518717.373                  
     -2112.977       -1646.219          37.000          19.000  
 114063007.789 7  88880330.662 7  21705469.495                    21705484.645  
     -1630.356       -1270.500          44.000          44.000  
 110740278.399 7  86291184.158 7  21073174.975                    21073189.547  
     -1662.981       -1295.996          43.000          44.000  
 109107123.333 7  85018605.766 7  20762396.360                    20762412.797  
       261.555         203.691          46.000          42.000  
 117619121.719 7  91651349.796 7  22382175.366                    22382194.936  
      3040.000        2368.707          42.000          42.000  
 127650170.305 7  99467741.969 6  24291021.834                    24291039.792  
     -3217.164       -2507.312          42.000          38.000  
 24  1 10  3 16  7.7000000  0  7G24G16G18G23G10G32G15
 129667064.151 5 101039362.003 6  24674821.847                    24674842.425  
       464.520         361.586          34.000          38.000  
 128846712.350 6 100400205.175 3  24518735.059    24518757.612                  
     -2113.926       -1647.582          37.000          19.000  
 114063170.909 7  88880457.768 7  21705500.536                    21705515.686  
     -1630.688       -1271.027          44.000          44.000  
 110740444.770 7  86291313.782 7  21073206.635                    21073221.202  
     -1663.559       -1296.539          43.000          44.000  
 109107097.267 7  85018585.465 7  20762391.400                    20762407.839  
       261.027         203.039          47.000          42.000  
 117618817.768 7  91651112.971 7  22382117.526                    22382137.101  
      3039.352        2368.152          42.000          42.000  
 127650492.094 7  99467992.728 6  24291083.069                    24291101.030  
     -3217.637       -2507.363          42.000          37.000  
 24  1 10  3 16  7.8000000  0  7G24G16G18G23G10G32G15
 129667017.745 5 101039325.777 6  24674813.008                    24674833.687  
       464.527         361.586          34.000          38.000  
 128846923.596 6 100400369.780 3  24518775.421    24518797.779                  
     -2113.566       -1647.152          36.000          19.000  
 114063333.999 7  88880584.848 7  21705531.789                    21705546.743  
     -1631.023       -1271.031          44.000          44.000  
 110740611.142 7  86291443.420 7  21073238.442                    21073252.697  
     -1663.793       -1296.621          42.000          44.000  
 109107071.213 7  85018565.170 7  20762386.536                    20762403.328  
       260.742         202.969          46.000          42.000  
 117618513.864 7  91650876.150 7  22382059.664                    22382079.174  
      3039.305        2368.094          42.000          42.000  
 127650813.837 7  99468243.407 6  24291144.193                    24291162.029  
     -3217.758       -2507.297          42.000          38.000  
 24  1 10  3 16  7.9000000  0  7G24G16G18G23G10G32G15
 129666971.337 5 101039289.656 6  24674804.177                    24674824.866  
       464.223         361.902          34.000          37.000  
 128847135.042 6 100400534.540 3  24518815.658    24518838.015                  
     -2113.402       -1646.430          38.000          19.000  
 114063497.149 7  88880711.979 7  21705562.836                    21705577.790  
     -1631.176       -1271.215          44.000          44.000  
 110740777.654 7  86291573.184 7  21073270.129                    21073284.387  
     -1664.047       -1296.824          42.000          44.000  
 109107045.176 7  85018544.872 7  20762381.581                    20762398.371  
       260.445         202.902          46.000          42.000  
 117618209.980 7  91650639.374 7  22382001.837                    22382021.351  
      3039.227        2368.137          42.000          42.000  
 127651135.654 7  99468494.231 6  24291205.433                    24291223.283  
     -3217.723       -2507.613          42.000          38.000  
 24  1 10  3 16  8.0000000  0  7G24G16G18G23G10G32G15
 129666924.946 5 101039253.462 6  24674795.435                    24674815.910  
       464.113         361.613          34.000          37.000  
 128847346.562 6 100400699.355 3  24518856.386    24518878.241                  
     -2114.695       -1648.356          38.000          19.000  
 114063660.301 7  88880839.109 7  21705593.945                    21705608.907  
     -1631.410       -1271.418          44.000          44.000  
 110740944.022 7  86291702.820 7  21073301.647                    21073316.131  
     -1664.383       -1297.039          43.000          44.000  
 109107019.179 7  85018524.628 7  20762376.619                    20762393.568  
       260.223         202.660          46.000          42.000  
 117617906.090 7  91650402.557 7  22381944.079                    22381963.314  
      3038.965        2367.793          42.000          42.000  
 127651457.533 7  99468745.006 6  24291266.442                    24291284.431  
     -3218.172       -2508.355          42.000          38.000  
 24  1 10  3 16  8.1000000  0  7G24G16G18G23G10G32G15
 129666878.600 5 101039217.378 6  24674786.616                    24674807.098  
       464.176         361.129          34.000          38.000  
 128847557.783 6 100400863.934 3  24518896.580    24518918.433                  
     -2113.645       -1646.852          37.000          19.000  
 114063823.486 7  88880966.272 7  21705624.998                    21705639.961  
     -1631.520       -1271.379          44.000          44.000  
 110741110.482 7  86291832.516 7  21073333.323                    21073347.804  
     -1664.348       -1297.035          43.000          44.000  
 109106993.186 7  85018504.368 7  20762371.672                    20762388.620  
       260.117         202.449          46.000          42.000  
 117617602.214 7  91650165.770 7  22381886.253                    22381905.488  
      3038.820        2367.938          42.000          42.000  
 127651779.417 7  99468995.805 6  24291327.694                    24291345.679  
     -3218.340       -2507.453          42.000          37.000  
 24  1 10  3 16  8.2000000  0  7G24G16G18G23G10G32G15
 129666832.199 5 101039181.210 6  24674777.692                    24674798.461  
       463.992         361.188          34.000          38.000  
 128847769.331 6 100401028.768 3  24518936.789    24518958.718                  
     -2113.988       -1646.984          38.000          20.000  
 114063986.635 7  88881093.390 7  21705656.084                    21705671.060  
     -1631.555       -1271.434          44.000          44.000  
 110741276.957 7  86291962.227 7  21073365.151                    21073379.848  
     -1664.559       -1297.137          42.000          44.000  
 109106967.202 7  85018484.111 7  20762366.610                    20762383.118  
       259.938         202.543          46.000          42.000  
 117617298.337 7  91649928.996 7  22381828.490                    22381847.447  
      3038.852        2367.797          42.000          42.000  
 127652101.226 7  99469246.594 6  24291389.237                    24291407.182  
     -3218.703       -2508.082          42.000          38.000  
 24  1 10  3 16  8.3000000  0  7G24G16G18G23G10G32G15
 129666785.862 5 101039145.121 6  24674768.875                    24674789.647  
       463.410         361.793          34.000          38.000  
 128847980.798 6 100401193.542 3  24518977.030    24518998.958                  
     -2114.816       -1648.348          37.000          19.000  
 114064149.804 7  88881220.543 7  21705687.134                    21705702.112  
     -1631.676       -1271.367          44.000          44.000  
 110741443.395 7  86292091.934 7  21073396.823                    21073411.524  
     -1664.492       -1297.180          42.000          44.000  
 109106941.198 7  85018463.861 7  20762361.662                    20762378.173  
       259.910         202.445          46.000          42.000  
 117616994.484 7  91649692.219 7  22381770.669                    22381789.624  
      3038.766        2367.938          42.000          42.000  
 127652423.060 7  99469497.345 6  24291450.480                    24291468.418  
     -3218.551       -2507.707          42.000          38.000  
 24  1 10  3 16  8.4000000  0  7G24G16G18G23G10G32G15
 129666739.472 5 101039108.988 6  24674760.086                    24674780.909  
       463.898         361.074          34.000          38.000  
 128848192.152 6 100401358.227 3  24519017.226    24519039.128                  
     -2114.238       -1647.402          37.000          19.000  
 114064312.978 7  88881347.694 7  21705718.146                    21705733.507  
     -1631.656       -1271.543          44.000          44.000  
 110741609.866 7  86292221.672 7  21073428.290                    21073443.090  
     -1664.500       -1297.043          42.000          44.000  
 109106915.254 7  85018443.637 7  20762356.256                    20762372.899  
       259.805         202.453          47.000          42.000  
 117616690.615 7  91649455.427 7  22381712.586                    22381731.500  
      3038.688        2367.883          42.000          42.000  
 127652744.938 7  99469748.200 6  24291511.951                    24291529.508  
     -3218.566       -2508.621          42.000          38.000  
 24  1 10  3 16  8.5000000  0  7G24G16G18G23G10G32G15
 129666693.197 5 101039072.872 6  24674751.280                    24674772.089  
       463.387         361.434          35.000          38.000  
 128848403.717 6 100401523.078 3  24519057.485    24519079.387                  
     -2114.262       -1647.031          38.000          19.000  
 114064476.163 7  88881474.850 7  21705749.199                    21705764.560  
     -1631.734       -1271.469          44.000          44.000  
 110741776.334 7  86292351.362 7  21073459.968                    21073474.762  
     -1664.758       -1297.293          43.000          44.000  
 109106889.299 7  85018423.415 7  20762351.317                    20762367.960  
       259.711         202.340          47.000          42.000  
 117616386.735 7  91649218.668 6  22381654.760                    22381673.681  
      3038.691        2367.566          42.000          41.000  
 127653066.790 7  99469998.988 6  24291573.197                    24291590.753  
     -3218.836       -2508.809          42.000          38.000  
 24  1 10  3 16  8.6000000  0  7G24G16G18G23G10G32G15
 129666646.854 5 101039036.821 6  24674741.954                    24674763.387  
       463.391         360.543          35.000          38.000  
 128848615.237 6 100401687.896 3  24519098.182    24519119.637                  
     -2115.414       -1648.996          37.000          19.000  
 114064639.337 7  88881601.985 7  21705780.554                    21705795.365  
     -1631.746       -1271.578          44.000          44.000  
 110741942.862 7  86292481.129 7  21073491.798                    21073506.538  
     -1664.766       -1297.211          42.000          44.000  
 109106863.345 7  85018403.186 7  20762346.636                    20762363.215  
       259.578         202.137          47.000          42.000  
 117616082.904 7  91648981.900 6  22381596.958                    22381616.500  
      3038.523        2367.977          42.000          41.000  
 127653388.712 7  99470249.788 6  24291634.355                    24291651.821  
     -3218.922       -2507.895          42.000          38.000  
 24  1 10  3 16  8.7000000  0  7G24G16G18G23G10G32G15
 129666600.520 5 101039000.676 6  24674733.137                    24674754.560  
       463.434         361.105          35.000          38.000  
 128848826.677 6 100401852.646 3  24519138.417    24519159.871                  
     -2114.754       -1647.699          37.000          19.000  
 114064802.507 7  88881729.144 7  21705811.605                    21705826.419  
     -1631.637       -1271.312          44.000          44.000  
 110742109.307 7  86292610.824 7  21073523.471                    21073538.211  
     -1664.680       -1297.109          43.000          44.000  
 109106837.373 7  85018382.949 7  20762341.694                    20762358.273  
       259.637         202.398          47.000          42.000  
 117615779.046 7  91648745.125 6  22381539.136                    22381558.677  
      3038.613        2367.617          42.000          41.000  
 127653710.675 7  99470500.690 6  24291695.623                    24291713.094  
     -3218.945       -2508.277          42.000          37.000  
 24  1 10  3 16  8.8000000  0  7G24G16G18G23G10G32G15
 129666554.164 5 101038964.567 6  24674723.901                    24674745.656  
       463.543         361.090          34.000          38.000  
 128849038.238 6 100402017.493 3  24519178.949    24519200.144                  
     -2114.699       -1647.406          38.000          19.000  
 114064965.670 7  88881856.265 7  21705842.544                    21705857.362  
     -1631.617       -1271.359          44.000          44.000  
 110742275.781 7  86292740.545 7  21073555.189                    21073570.132  
     -1664.766       -1297.242          43.000          44.000  
 109106811.426 7  85018362.735 7  20762336.842                    20762353.735  
       259.562         202.285          47.000          42.000  
 117615475.187 7  91648508.372 6  22381481.322                    22381500.547  
      3038.594        2367.645          42.000          41.000  
 127654032.535 7  99470751.473 6  24291756.870                    24291773.908  
     -3219.102       -2508.227          42.000          38.000  
 24  1 10  3 16  8.9000000  0  7G24G16G18G23G10G32G15
 129666507.887 5 101038928.488 6  24674715.095                    24674736.845  
       462.855         360.773          35.000          38.000  
 128849249.813 6 100402182.358 3  24519219.211    24519240.405                  
     -2115.645       -1649.047          37.000          19.000  
 114065128.836 7  88881983.425 7  21705873.594                    21705888.415  
     -1631.629       -1271.461          44.000          44.000  
 110742442.267 7  86292870.280 7  21073586.871                    21073601.815  
     -1664.801       -1297.266          43.000          44.000  
 109106785.494 7  85018342.527 7  20762331.908                    20762348.800  
       259.316         202.020          47.000          42.000  
 117615171.360 7  91648271.614 6  22381423.505                    22381442.729  
      3038.383        2367.527          42.000          41.000  
 127654354.390 7  99471002.281 6  24291818.118                    24291835.157  
     -3218.973       -2508.250          42.000          38.000  
 24  1 10  3 16  9.0000000  0  7G24G16G18G23G10G32G15
 129666461.543 5 101038892.380 6  24674706.284                    24674728.089  
       463.379         361.051          35.000          38.000  
 128849461.308 6 100402347.160 3  24519259.363    24519280.620                  
     -2115.359       -1648.441          37.000          19.000  
 114065292.031 7  88882110.596 7  21705904.727                    21705919.440  
     -1631.773       -1271.531          44.000          44.000  
 110742608.788 7  86293000.044 7  21073618.394                    21073633.114  
     -1665.000       -1297.418          43.000          44.000  
 109106759.580 7  85018322.332 7  20762327.406                    20762343.735  
       259.227         201.930          46.000          42.000  
 117614867.488 7  91648034.842 6  22381365.633                    22381384.860  
      3038.445        2367.586          42.000          41.000  
 127654676.310 7  99471253.086 6  24291879.541                    24291896.790  
     -3219.148       -2507.836          43.000          38.000  
 24  1 10  3 16  9.1000000  0  7G24G16G18G23G10G32G15
 129666415.189 5 101038856.247 6  24674697.463                    24674719.265  
       463.113         361.496          35.000          38.000  
 128849672.891 6 100402512.042 3  24519299.626    24519320.886                  
     -2115.273       -1648.172          37.000          19.000  
 114065455.200 7  88882237.741 7  21705935.777                    21705950.491  
     -1631.723       -1271.508          44.000          44.000  
 110742775.309 7  86293129.812 7  21073650.082                    21073664.805  
     -1665.043       -1297.543          43.000          44.000  
 109106733.706 7  85018302.174 7  20762322.482                    20762338.813  
       259.117         201.773          47.000          42.000  
 117614563.657 7  91647798.064 6  22381307.816                    22381327.036  
      3038.352        2367.430          42.000          41.000  
 127654998.237 7  99471504.022 6  24291940.801                    24291958.071  
     -3218.805       -2508.562          42.000          38.000  
 24  1 10  3 16  9.2000000  0  7G24G16G18G23G10G32G15
 129666368.875 5 101038820.203 6  24674688.736                    24674710.737  
       463.191         360.633          35.000          38.000  
 128849884.570 6 100402677.002 3  24519339.759    24519361.195                  
     -2116.383       -1649.805          37.000          19.000  
 114065618.417 7  88882364.916 7  21705966.547                    21705981.454  
     -1631.969       -1271.676          44.000          44.000  
 110742941.841 7  86293259.576 7  21073681.796                    21073696.471  
     -1665.176       -1297.691          43.000          44.000  
 109106707.853 7  85018282.018 7  20762317.320                    20762333.484  
       258.648         201.441          47.000          42.000  
 117614259.878 7  91647561.356 6  22381249.915                    22381269.651  
      3038.035        2367.070          42.000          41.000  
 127655320.194 7  99471754.880 6  24292002.162                    24292019.958  
     -3219.117       -2508.340          42.000          37.000  
 24  1 10  3 16  9.3000000  0  7G24G16G18G23G10G32G15
 129666322.564 5 101038784.090 6  24674679.923                    24674701.917  
       462.988         360.531          35.000          38.000  
 128850096.113 6 100402841.845 3  24519380.014    24519401.451                  
     -2115.793       -1648.652          37.000          19.000  
 114065781.638 7  88882492.106 7  21705997.607                    21706012.515  
     -1632.184       -1271.981          44.000          44.000  
 110743108.381 7  86293389.318 7  21073713.487                    21073728.155  
     -1665.512       -1298.031          42.000          44.000  
 109106682.040 7  85018261.910 7  20762312.409                    20762328.574  
       258.422         201.141          47.000          42.000  
 117613956.132 7  91647324.693 6  22381192.114                    22381211.856  
      3037.836        2367.023          42.000          41.000  
 127655642.143 7  99472005.767 6  24292063.427                    24292081.227  
     -3219.219       -2508.871          42.000          38.000  
 24  1 10  3 16  9.4000000  0  7G24G16G18G23G10G32G15
 129666276.314 5 101038748.043 6  24674671.161                    24674693.216  
       462.891         361.055          35.000          38.000  
 128850307.862 6 100403006.853 3  24519420.285    24519441.771                  
     -2116.664       -1649.750          37.000          18.000  
 114065944.881 7  88882619.298 7  21706028.483                    21706043.858  
     -1632.383       -1272.137          44.000          44.000  
 110743275.056 7  86293519.190 7  21073745.134                    21073759.942  
     -1665.902       -1298.137          42.000          44.000  
 109106656.244 7  85018241.817 7  20762307.656                    20762323.573  
       258.113         200.918          47.000          42.000  
 117613652.388 7  91647087.981 6  22381134.587                    22381154.384  
      3037.438        2366.688          42.000          41.000  
 127655964.100 7  99472256.637 6  24292124.646                    24292142.867  
     -3219.465       -2508.680          42.000          38.000  
 24  1 10  3 16  9.5000000  0  7G24G16G18G23G10G32G15
 129666230.013 5 101038712.007 6  24674662.350                    24674684.416  
       463.090         360.617          34.000          38.000  
 128850519.480 6 100403171.749 3  24519460.555    24519482.040                  
     -2116.531       -1649.426          37.000          18.000  
 114066108.180 7  88882746.536 7  21706059.558                    21706074.931  
     -1632.516       -1272.156          44.000          44.000  
 110743441.567 7  86293648.940 7  21073776.820                    21073791.628  
     -1665.691       -1298.020          43.000          44.000  
 109106630.446 7  85018221.715 7  20762302.747                    20762318.664  
       258.020         201.043          47.000          42.000  
 117613348.695 7  91646851.365 6  22381076.796                    22381096.600  
      3037.352        2366.707          42.000          41.000  
 127656286.015 7  99472507.442 6  24292185.904                    24292204.116  
     -3219.469       -2508.816          42.000          38.000  
 24  1 10  3 16  9.6000000  0  7G24G16G18G23G10G32G15
 129666183.786 5 101038675.916 6  24674653.694                    24674675.766  
       462.195         360.934          34.000          38.000  
 128850731.125 6 100403336.672 3  24519500.994    24519522.316                  
     -2116.441       -1649.199          37.000          18.000  
 114066271.420 7  88882873.740 7  21706090.762                    21706106.019  
     -1632.543       -1272.231          44.000          44.000  
 110743608.186 7  86293778.786 7  21073808.495                    21073823.525  
     -1665.879       -1298.012          42.000          44.000  
 109106604.659 7  85018201.611 7  20762297.879                    20762313.762  
       257.973         200.875          47.000          42.000  
 117613044.937 7  91646614.645 6  22381018.962                    22381038.330  
      3037.285        2366.809          42.000          41.000  
 127656608.003 7  99472758.372 6  24292246.927                    24292265.677  
     -3219.535       -2508.770          42.000          38.000  
 24  1 10  3 16  9.7000000  0  7G24G16G18G23G10G32G15
 129666138.00235 101038639.956 6  24674644.888                    24674666.984  
       462.664         359.664          35.000          38.000  
 128850942.896 6 100403501.691 3  24519541.292    24519562.616                  
     -2116.902       -1649.656          37.000          19.000  
 114066434.713 7  88883000.986 7  21706121.836                    21706137.094  
     -1632.680       -1272.438          44.000          44.000  
 110743774.780 7  86293908.583 7  21073840.197                    21073855.223  
     -1666.059       -1298.168          42.000          44.000  
 109106578.902 7  85018181.551 7  20762292.977                    20762308.863  
       257.805         200.762          47.000          43.000  
 117612741.215 7  91646377.979 7  22380961.165                    22380980.534  
      3037.129        2366.395          42.000          42.000  
 127656929.993 7  99473009.263 6  24292308.199                    24292326.947  
     -3219.789       -2509.160          42.000          38.000  
 24  1 10  3 16  9.8000000  0  7G24G16G18G23G10G32G15
 129666091.78525 101038603.900 6  24674636.117                    24674658.405  
       462.332         360.219          34.000          37.000  
 128851154.532 6 100403666.608 3  24519581.159    24519602.882                  
     -2116.895       -1649.727          37.000          19.000  
 114066598.030 7  88883128.247 7  21706153.305                    21706168.282  
     -1632.895       -1272.504          44.000          44.000  
 110743941.447 7  86294038.462 7  21073871.928                    21073886.683  
     -1666.125       -1298.457          42.000          44.000  
 109106553.141 7  85018161.466 7  20762287.927                    20762304.013  
       257.664         200.664          47.000          43.000  
 117612437.558 7  91646141.389 7  22380903.460                    22380922.529  
      3036.957        2366.316          42.000          42.000  
 127657251.996 7  99473260.150 6  24292369.389                    24292388.146  
     -3219.965       -2508.898          42.000          38.000  
 24  1 10  3 16  9.9000000  0  7G24G16G18G23G10G32G15
 129666045.59025 101038567.879 6  24674627.326                    24674649.609  
       462.617         360.055          35.000          38.000  
 128851366.224 6 100403831.553 3  24519621.443    24519643.163                  
     -2116.660       -1649.152          37.000          19.000  
 114066761.344 7  88883255.499 7  21706184.382                    21706199.358  
     -1633.062       -1272.606          44.000          44.000  
 110744108.028 7  86294168.265 7  21073903.628                    21073918.382  
     -1666.312       -1298.504          42.000          44.000  
 109106527.399 7  85018141.416 7  20762283.028                    20762299.116  
       257.520         200.629          47.000          43.000  
 117612133.906 7  91645904.782 7  22380845.677                    22380864.748  
      3036.875        2366.242          42.000          42.000  
 127657573.993 7  99473511.058 6  24292430.663                    24292449.420  
     -3219.859       -2509.309          42.000          38.000  
 24  1 10  3 16 10.0000000  0  7G24G16G18G23G10G32G15
 129665999.44525 101038531.944 6  24674618.529                    24674640.849  
       461.523         359.746          35.000          38.000  
 128851578.013 6 100403996.580 3  24519661.573    24519683.465                  
     -2117.273       -1649.965          38.000          19.000  
 114066924.729 7  88883382.812 7  21706215.294                    21706230.238  
     -1633.414       -1272.984          44.000          44.000  
 110744274.728 7  86294298.175 7  21073935.647                    21073950.100  
     -1666.512       -1298.891          42.000          44.000  
 109106501.700 7  85018121.392 7  20762278.325                    20762294.094  
       257.215         200.305          46.000          43.000  
 117611830.245 7  91645668.136 7  22380787.993                    22380806.980  
      3036.500        2366.129          42.000          42.000  
 127657896.027 7  99473761.979 6  24292491.936                    24292510.534  
     -3219.996       -2508.797          42.000          38.000  
 24  1 10  3 16 10.1000000  0  7G24G16G18G23G10G32G15
 129665953.22825 101038495.928 6  24674609.734                    24674632.053  
       462.062         359.641          34.000          38.000  
 128851789.679 6 100404161.515 3  24519701.851    24519723.743                  
     -2117.207       -1649.875          37.000          19.000  
 114067088.093 7  88883510.110 7  21706246.381                    21706261.326  
     -1633.805       -1273.422          44.000          44.000  
 110744441.381 7  86294428.020 7  21073967.360                    21073981.809  
     -1667.039       -1299.012          43.000          44.000  
 109106476.055 7  85018101.407 7  20762273.445                    20762289.213  
       256.871         199.957          47.000          43.000  
 117611526.635 7  91645431.559 7  22380730.218                    22380749.205  
      3036.230        2365.734          42.000          42.000  
 127658218.110 7  99474013.010 6  24292553.226                    24292571.838  
     -3220.371       -2509.848          42.000          38.000  
 24  1 10  3 16 10.2000000  0  7G24G16G18G23G10G32G15
 129665907.14325 101038460.006 6  24674600.926                    24674623.327  
       460.973         359.523          35.000          38.000  
 128852001.436 6 100404326.513 3  24519742.249    24519764.085                  
     -2116.715       -1649.352          38.000          19.000  
 114067251.570 7  88883637.505 7  21706277.427                    21706291.991  
     -1634.621       -1273.832          44.000          44.000  
 110744608.201 7  86294558.016 7  21073999.089                    21074013.516  
     -1667.520       -1299.574          43.000          44.000  
 109106450.451 7  85018081.453 7  20762268.518                    20762284.317  
       256.008         199.488          46.000          43.000  
 117611223.084 7  91645195.041 7  22380672.415                    22380691.554  
      3035.512        2365.387          42.000          42.000  
 127658540.161 7  99474263.889 6  24292614.409                    24292632.973  
     -3221.039       -2509.219          42.000          37.000  
 24  1 10  3 16 10.3000000  0  7G24G16G18G23G10G32G15
 129665861.09425 101038424.084 6  24674592.163                    24674614.555  
       460.457         359.250          35.000          38.000  
 128852213.255 6 100404491.562 3  24519782.557    24519804.391                  
     -2118.652       -1650.816          37.000          19.000  
 114067415.121 7  88883764.937 7  21706308.550                    21706323.111  
     -1635.578       -1274.371          44.000          44.000  
 110744775.103 7  86294688.076 7  21074030.849                    21074045.279  
     -1668.691       -1300.305          43.000          44.000  
 109106424.935 7  85018061.571 7  20762263.663                    20762279.461  
       254.949         198.812          46.000          43.000  
 117610919.597 7  91644958.537 7  22380614.664                    22380633.798  
      3034.781        2364.879          42.000          42.000  
 127658862.307 7  99474514.941 6  24292675.711                    24292694.282  
     -3221.375       -2510.703          42.000          38.000  
 24  1 10  3 16 10.4000000  0  7G24G16G18G23G10G32G15
 129665814.531 5 101038388.253 6  24674583.474                    24674606.180  
       459.543         358.148          35.000          38.000  
 128852424.996 6 100404656.542 3  24519822.733    24519844.728                  
     -2117.211       -1649.856          37.000          19.000  
 114067578.756 7  88883892.453 7  21706339.673                    21706354.229  
     -1636.973       -1275.129          44.000          44.000  
 110744942.025 7  86294818.136 7  21074062.340                    21074076.939  
     -1670.129       -1301.047          43.000          44.000  
 109106399.516 7  85018041.765 7  20762258.802                    20762274.398  
       253.836         197.875          47.000          43.000  
 117610616.140 7  91644722.088 7  22380556.848                    22380576.070  
      3034.168        2364.168          42.000          42.000  
 127659184.533 7  99474765.986 6  24292736.927                    24292755.652  
     -3223.133       -2510.316          42.000          38.000  
 24  1 10  3 16 10.5000000  0  7G24G16G18G23G10G32G15
 129665768.540 5 101038352.331 6  24674574.722                    24674597.407  
       458.250         359.238          35.000          38.000  
 128852636.944 6 100404821.694 3  24519863.065    24519885.060                  
     -2119.367       -1651.195          38.000          19.000  
 114067742.434 7  88884019.988 7  21706370.820                    21706385.374  
     -1636.938       -1275.562          44.000          44.000  
 110745109.026 7  86294948.269 7  21074094.119                    21074108.719  
     -1670.656       -1301.469          43.000          44.000  
 109106374.141 7  85018021.999 7  20762253.974                    20762269.571  
       253.453         197.688          46.000          43.000  
 117610312.775 7  91644485.689 7  22380499.119                    22380518.339  
      3033.340        2364.090          42.000          42.000  
 127659506.820 7  99475017.170 6  24292798.256                    24292816.994  
     -3223.047       -2510.594          42.000          38.000  
 24  1 10  3 16 10.6000000  0  7G24G16G18G23G10G32G15
 129665722.491 5 101038316.610 6  24674566.108                    24674588.731  
       461.949         357.801          34.000          38.000  
 128852848.693 6 100404986.691 3  24519903.305    24519925.377                  
     -2117.945       -1650.344          37.000          19.000  
 114067906.194 7  88884147.596 7  21706402.076                    21706416.725  
     -1637.582       -1275.930          44.000          44.000  
 110745276.131 7  86295078.476 7  21074126.207                    21074140.907  
     -1670.828       -1302.074          42.000          44.000  
 109106348.869 7  85018002.297 7  20762249.360                    20762264.861  
       252.566         196.969          47.000          43.000  
 117610009.470 7  91644249.358 7  22380441.426                    22380460.679  
      3033.547        2363.445          42.000          42.000  
 127659829.014 7  99475268.281 6  24292859.826                    24292878.380  
     -3222.316       -2511.094          42.000          38.000  
 24  1 10  3 16 10.7000000  0  7G24G16G18G23G10G32G15
 129665676.669 5 101038280.686 6  24674557.388                    24674579.957  
       459.008         358.297          35.000          38.000  
 128853060.627 6 100405151.838 3  24519943.635    24519965.708                  
     -2119.332       -1651.231          37.000          19.000  
 114068070.010 7  88884275.233 7  21706433.249                    21706447.895  
     -1638.492       -1276.465          44.000          44.000  
 110745443.287 7  86295208.724 7  21074158.016                    21074172.715  
     -1672.285       -1302.426          43.000          44.000  
 109106323.644 7  85017982.639 7  20762244.560                    20762260.060  
       251.836         196.590          46.000          43.000  
 117609706.194 7  91644013.052 7  22380383.714                    22380402.971  
      3032.438        2363.309          42.000          42.000  
 127660151.186 7  99475519.301 6  24292921.133                    24292939.682  
     -3221.730       -2511.844          42.000          38.000  
 24  1 10  3 16 10.8000000  0  7G24G16G18G23G10G32G15
 129665630.690 5 101038245.104 6  24674549.092                    24674570.838  
       456.293         356.527          35.000          38.000  
 128853272.413 6 100405316.863 3  24519984.022    24520006.040                  
     -2118.281       -1650.574          37.000          19.000  
 114068233.891 7  88884402.948 7  21706464.536                    21706479.280  
     -1639.207       -1277.094          44.000          44.000  
 110745610.508 7  86295339.033 7  21074190.228                    21074204.350  
     -1672.402       -1302.898          43.000          44.000  
 109106298.466 7  85017963.031 7  20762239.636                    20762255.272  
       251.488         196.082          47.000          43.000  
 117609402.964 7  91643776.782 7  22380326.004                    22380345.099  
      3031.980        2362.723          42.000          42.000  
 127660473.574 7  99475770.436 6  24292982.708                    24293001.238  
     -3223.820       -2511.004          42.000          37.000  
 24  1 10  3 16 10.9000000  0  7G24G16G18G23G10G32G15
 129665585.88835 101038209.151 6  24674540.480                    24674562.058  
       452.750         358.961          34.000          38.000  
 128853484.429 6 100405482.072 3  24520024.367    24520046.386                  
     -2120.258       -1651.836          38.000          19.000  
 114068397.792 7  88884530.648 7  21706495.725                    21706510.465  
     -1639.207       -1277.168          44.000          44.000  
 110745777.760 7  86295469.349 7  21074222.055                    21074236.175  
     -1672.801       -1303.152          42.000          44.000  
 109106273.342 7  85017943.454 7  20762234.855                    20762250.491  
       251.336         195.934          47.000          43.000  
 117609099.752 7  91643540.492 7  22380268.304                    22380287.395  
      3032.117        2362.754          42.000          42.000  
 127660795.942 7  99476021.662 6  24293044.052                    24293062.590  
     -3224.309       -2511.855          42.000          38.000  
 24  1 10  3 16 11.0000000  0  7G24G16G18G23G10G32G15
 129665540.22426 101038173.503 6  24674531.939                    24674553.064  
       459.105         356.453          36.000          38.000  
 128853696.213 6 100405647.104 3  24520064.622    24520086.743                  
     -2116.578       -1650.094          38.000          19.000  
 114068561.720 7  88884658.391 7  21706526.662                    21706541.568  
     -1639.746       -1277.586          44.000          44.000  
 110745945.015 7  86295599.672 7  21074253.429                    21074268.259  
     -1673.254       -1303.441          42.000          44.000  
 109106248.220 7  85017923.878 7  20762230.027                    20762246.124  
       251.008         195.652          47.000          43.000  
 117608796.546 7  91643304.237 7  22380210.270                    22380229.676  
      3031.879        2362.566          42.000          42.000  
 127661118.165 7  99476272.806 6  24293105.276                    24293124.117  
     -3222.133       -2511.793          42.000          38.000  
 24  1 10  3 16 11.1000000  0  7G24G16G18G23G10G32G15
 129665493.93535 101038137.789 6  24674523.185                    24674544.342  
       459.906         357.539          34.000          38.000  
 128853908.126 6 100405812.227 3  24520104.947    24520127.067                  
     -2120.031       -1651.484          37.000          20.000  
 114068725.732 7  88884786.203 7  21706557.872                    21706572.781  
     -1640.297       -1277.879          44.000          44.000  
 110746112.326 7  86295730.058 7  21074285.267                    21074300.100  
     -1673.023       -1303.676          42.000          44.000  
 109106223.151 7  85017904.326 7  20762225.257                    20762241.350  
       250.656         195.500          47.000          43.000  
 117608493.373 7  91643067.970 7  22380152.578                    22380171.977  
      3031.664        2362.188          42.000          42.000  
 127661440.620 7  99476523.969 6  24293166.637                    24293185.454  
     -3224.840       -2511.914          42.000          38.000  
 24  1 10  3 16 11.2000000  0  7G24G16G18G23G10G32G15
 129665448.42625 101038102.113 6  24674514.314                    24674536.090  
       458.004         356.387          35.000          38.000  
 128854120.105 6 100405977.405 3  24520144.958    24520167.382                  
     -2118.828       -1651.356          37.000          19.000  
 114068889.759 7  88884914.007 7  21706588.820                    21706604.007  
     -1640.613       -1278.145          44.000          44.000  
 110746279.698 7  86295860.486 7  21074316.938                    21074331.827  
     -1673.602       -1303.965          42.000          45.000  
 109106198.132 7  85017884.835 7  20762220.222                    20762236.441  
       250.270         195.035          47.000          43.000  
 117608190.299 7  91642831.829 7  22380094.804                    22380114.403  
      3030.867        2361.898          42.000          42.000  
 127661762.942 7  99476775.197 6  24293228.121                    24293246.463  
     -3222.969       -2512.523          42.000          38.000  
 24  1 10  3 16 11.3000000  0  7G24G16G18G23G10G32G15
 129665402.42225 101038066.399 6  24674505.560                    24674527.369  
       457.512         357.398          34.000          38.000  
 128854331.895 6 100406142.436 3  24520185.260    24520207.684                  
     -2118.715       -1650.816          37.000          20.000  
 114069053.837 7  88885041.873 7  21706620.043                    21706635.234  
     -1640.754       -1278.520          44.000          44.000  
 110746447.035 7  86295990.870 7  21074348.781                    21074363.668  
     -1673.977       -1304.285          42.000          45.000  
 109106173.107 7  85017865.337 7  20762215.460                    20762231.679  
       250.043         194.816          47.000          43.000  
 117607887.266 6  91642595.701 7  22380037.138                    22380056.738  
      3031.129        2361.910          41.000          42.000  
 127662085.387 7  99477026.418 6  24293289.480                    24293307.813  
     -3224.648       -2511.637          42.000          38.000  
 24  1 10  3 16 11.4000000  0  7G24G16G18G23G10G32G15
 129665356.86525 101038030.729 6  24674496.672                    24674518.337  
       456.379         356.195          35.000          38.000  
 128854543.938 6 100406307.662 3  24520225.610    24520248.089                  
     -2119.988       -1651.941          38.000          20.000  
 114069217.908 7  88885169.717 7  21706651.718                    21706666.579  
     -1640.891       -1278.547          44.000          44.000  
 110746614.452 7  86296121.320 7  21074380.702                    21074395.651  
     -1673.609       -1304.348          42.000          45.000  
 109106148.118 7  85017845.860 7  20762210.681                    20762226.923  
       250.000         194.812          46.000          43.000  
 117607584.188 6  91642359.547 7  22379979.621                    22379999.434  
      3030.742        2361.520          41.000          42.000  
 127662407.820 7  99477277.670 6  24293350.736                    24293368.672  
     -3224.473       -2512.551          42.000          38.000  
 24  1 10  3 16 11.5000000  0  7G24G16G18G23G10G32G15
 129665311.06325 101037995.119 6  24674487.956                    24674509.641  
       457.695         356.492          35.000          38.000  
 128854755.845 6 100406472.780 3  24520265.935    24520288.413                  
     -2118.770       -1650.926          38.000          20.000  
 114069382.025 7  88885297.589 7  21706682.948                    21706697.807  
     -1641.141       -1278.594          44.000          44.000  
 110746781.839 7  86296251.767 7  21074412.554                    21074427.507  
     -1673.848       -1304.324          42.000          45.000  
 109106123.122 7  85017826.407 7  20762205.925                    20762222.172  
       249.953         194.812          47.000          43.000  
 117607281.172 6  91642123.411 7  22379921.959                    22379941.767  
      3030.320        2361.422          41.000          42.000  
 127662730.236 7  99477528.941 6  24293412.089                    24293430.035  
     -3223.637       -2511.770          42.000          38.000  
 24  1 10  3 16 11.6000000  0  7G24G16G18G23G10G32G15
 129665265.13425 101037959.455 6  24674478.607                    24674501.119  
       458.250         356.430          34.000          38.000  
 128854967.686 6 100406637.842 3  24520306.223    24520328.808                  
     -2119.273       -1651.305          37.000          20.000  
 114069546.151 7  88885425.473 7  21706714.126                    21706728.999  
     -1641.168       -1279.020          44.000          44.000  
 110746949.251 7  86296382.198 7  21074444.341                    21074459.516  
     -1674.125       -1304.461          42.000          45.000  
 109106098.163 7  85017806.954 7  20762201.433                    20762217.555  
       249.684         194.605          47.000          43.000  
 117606978.137 6  91641887.323 7  22379863.973                    22379883.971  
      3030.137        2360.914          41.000          42.000  
 127663052.565 7  99477780.046 6  24293473.286                    24293491.232  
     -3224.254       -2512.500          42.000          38.000  
 24  1 10  3 16 11.7000000  0  7G24G16G18G23G10G32G15
 129665219.61725 101037923.831 6  24674469.945                    24674492.419  
       456.199         356.477          35.000          38.000  
 128855179.797 6 100406803.117 3  24520346.587    24520369.170                  
     -2120.637       -1652.379          38.000          20.000  
 114069710.301 7  88885553.390 7  21706745.363                    21706760.237  
     -1641.832       -1279.191          44.000          44.000  
 110747116.686 7  86296512.679 7  21074476.203                    21074491.381  
     -1674.473       -1305.023          42.000          45.000  
 109106073.215 7  85017787.509 7  20762196.686                    20762212.806  
       249.375         194.438          47.000          43.000  
 117606675.172 7  91641651.214 7  22379806.320                    22379826.311  
      3029.664        2360.824          42.000          42.000  
 127663375.115 7  99478031.495 6  24293534.665                    24293552.638  
     -3224.680       -2512.742          42.000          38.000  
 24  1 10  3 16 11.8000000  0  7G24G16G18G23G10G32G15
 129665173.853 5 101037888.210 6  24674461.143                    24674483.541  
       457.008         356.129          35.000          38.000  
 128855391.691 6 100406968.223 3  24520386.971    24520409.444                  
     -2118.797       -1650.949          37.000          20.000  
 114069874.497 7  88885681.345 7  21706776.311                    21706791.454  
     -1641.871       -1279.453          44.000          44.000  
 110747284.138 7  86296643.135 7  21074507.974                    21074523.013  
     -1674.746       -1304.949          42.000          44.000  
 109106048.305 7  85017768.096 7  20762191.703                    20762207.948  
       249.109         194.070          47.000          43.000  
 117606372.203 6  91641415.113 7  22379748.683                    22379768.793  
      3029.691        2360.719          41.000          42.000  
 127663697.432 7  99478282.520 6  24293596.305                    24293613.926  
     -3223.918       -2511.734          42.000          38.000  
 24  1 10  3 16 11.9000000  0  7G24G16G18G23G10G32G15
 129665128.072 5 101037852.625 6  24674452.431                    24674474.850  
       458.066         355.941          34.000          38.000  
 128855603.584 6 100407133.312 3  24520427.293    24520449.760                  
     -2119.633       -1651.481          36.000          20.000  
 114070038.730 7  88885809.308 7  21706807.564                    21706822.704  
     -1642.441       -1279.672          44.000          44.000  
 110747451.612 7  86296773.670 7  21074539.844                    21074554.891  
     -1674.902       -1305.219          42.000          44.000  
 109106023.424 7  85017748.694 7  20762186.969                    20762203.210  
       248.785         193.961          47.000          43.000  
 117606069.283 7  91641179.098 7  22379691.039                    22379711.156  
      3029.367        2360.301          42.000          42.000  
 127664019.978 7  99478533.848 6  24293657.683                    24293675.302  
     -3225.270       -2512.570          43.000          38.000  
 24  1 10  3 16 12.0000000  0  7G24G16G18G23G10G32G15
 129665082.551 5 101037817.031 6  24674443.245                    24674465.963  
       455.164         355.758          35.000          38.000  
 128855815.751 6 100407298.614 3  24520467.917    24520490.082                  
     -2121.203       -1652.672          38.000          20.000  
 114070202.981 7  88885937.307 7  21706838.890                    21706854.126  
     -1642.656       -1280.000          44.000          45.000  
 110747619.155 7  86296904.189 7  21074571.523                    21074586.374  
     -1675.422       -1305.531          42.000          44.000  
 109105998.586 7  85017729.355 7  20762182.258                    20762198.471  
       248.449         193.375          47.000          43.000  
 117605766.449 7  91640943.106 7  22379633.412                    22379653.602  
      3028.777        2359.961          42.000          42.000  
 127664342.493 7  99478785.219 6  24293718.978                    24293736.213  
     -3224.730       -2512.980          42.000          38.000  
 24  1 10  3 16 12.1000000  0  7G24G16G18G23G10G32G15
 129665036.930 5 101037781.511 6  24674434.564                    24674457.288  
       457.387         355.461          34.000          38.000  
 128856027.784 6 100407463.843 3  24520508.266    24520530.432                  
     -2120.074       -1652.023          38.000          20.000  
 114070367.351 7  88886065.370 7  21706870.169                    21706885.401  
     -1643.203       -1280.305          44.000          45.000  
 110747786.772 7  86297034.818 7  21074603.419                    21074618.275  
     -1675.902       -1305.816          42.000          44.000  
 109105973.824 7  85017710.059 7  20762177.546                    20762193.759  
       247.766         192.879          47.000          43.000  
 117605463.580 7  91640707.105 7  22379575.778                    22379595.969  
      3028.531        2359.734          42.000          42.000  
 127664664.893 7  99479036.419 6  24293780.328                    24293797.559  
     -3225.281       -2514.090          43.000          39.000  
 24  1 10  3 16 12.2000000  0  7G24G16G18G23G10G32G15
 129664991.244 5 101037745.939 6  24674426.316                    24674448.531  
       455.797         355.270          34.000          38.000  
 128856239.668 6 100407628.952 3  24520548.508    24520570.840                  
     -2119.555       -1651.676          36.000          19.000  
 114070531.662 7  88886193.417 7  21706901.420                    21706916.562  
     -1643.734       -1280.895          44.000          45.000  
 110747954.397 7  86297165.440 7  21074635.481                    21074650.135  
     -1676.570       -1306.430          43.000          44.000  
 109105949.097 7  85017690.768 7  20762172.903                    20762189.157  
       247.125         192.738          46.000          43.000  
 117605160.810 7  91640471.241 7  22379517.920                    22379538.220  
      3027.668        2359.289          42.000          42.000  
 127664987.509 7  99479287.878 6  24293841.962                    24293859.569  
     -3225.000       -2512.617          42.000          38.000  
 24  1 10  3 16 12.3000000  0  7G24G16G18G23G10G32G15
 129664945.770 5 101037710.499 6  24674417.662                    24674439.876  
       455.012         354.578          35.000          38.000  
 128856451.865 6 100407794.311 3  24520588.888    24520611.222                  
     -2121.566       -1653.246          37.000          20.000  
 114070696.088 7  88886321.527 7  21706932.709                    21706947.848  
     -1644.133       -1281.176          44.000          45.000  
 110748122.076 7  86297296.105 7  21074667.390                    21074682.045  
     -1676.496       -1306.516          42.000          44.000  
 109105924.451 7  85017671.560 7  20762168.213                    20762184.467  
       246.535         192.246          46.000          43.000  
 117604858.054 7  91640235.257 7  22379460.308                    22379480.590  
      3027.648        2358.957          42.000          42.000  
 127665310.118 7  99479539.164 6  24293903.353                    24293920.936  
     -3226.449       -2513.660          42.000          38.000  
 24  1 10  3 16 12.4000000  0  7G24G16G18G23G10G32G15
 129664900.203 5 101037675.014 6  24674408.835                    24674431.382  
       455.977         354.867          35.000          39.000  
 128856664.089 6 100407959.688 3  24520628.983    24520651.499                  
     -2122.117       -1653.672          38.000          19.000  
 114070860.622 7  88886449.744 7  21706963.730                    21706979.355  
     -1645.410       -1282.051          44.000          45.000  
 110748289.908 7  86297426.902 7  21074699.835                    21074713.885  
     -1678.469       -1307.895          43.000          44.000  
 109105899.914 7  85017652.476 7  20762163.341                    20762180.040  
       245.332         191.152          46.000          43.000  
 117604555.407 7  91639999.452 7  22379403.044                    22379422.731  
      3026.266        2358.316          42.000          42.000  
 127665632.686 7  99479790.537 6  24293964.798                    24293982.035  
     -3225.949       -2513.512          42.000          38.000  
 24  1 10  3 16 12.5000000  0  7G24G16G18G23G10G32G15
 129664854.654 5 101037639.544 6  24674400.167                    24674422.720  
       454.902         354.766          34.000          38.000  
 128856876.288 6 100408125.039 3  24520669.364    24520691.880                  
     -2121.930       -1653.527          38.000          19.000  
 114071025.228 7  88886577.986 7  21706995.054                    21707010.673  
     -1646.086       -1282.445          44.000          44.000  
 110748457.821 7  86297557.698 7  21074731.788                    21074745.827  
     -1679.102       -1308.191          43.000          44.000  
 109105875.508 7  85017633.435 7  20762158.696                    20762175.390  
       244.043         190.070          47.000          43.000  
 117604252.871 7  91639763.732 7  22379345.473                    22379365.165  
      3025.109        2357.117          42.000          42.000  
 127665955.405 7  99480041.946 6  24294026.209                    24294043.431  
     -3226.629       -2513.703          42.000          38.000  
 24  1 10  3 16 12.6000000  0  7G24G16G18G23G10G32G15
 129664809.236 5 101037604.023 6  24674391.298                    24674414.225  
       454.879         354.969          34.000          38.000  
 128857088.522 6 100408290.430 3  24520709.836    24520732.278                  
     -2122.816       -1653.984          37.000          19.000  
 114071189.904 7  88886706.311 7  21707026.562                    21707041.956  
     -1647.238       -1283.254          44.000          45.000  
 110748625.792 7  86297688.569 7  21074764.134                    21074777.904  
     -1679.699       -1308.910          42.000          44.000  
 109105851.183 7  85017614.487 7  20762154.200                    20762171.115  
       242.727         189.512          47.000          43.000  
 117603950.362 7  91639527.965 7  22379287.713                    22379307.471  
      3025.043        2356.973          42.000          42.000  
 127666278.065 7  99480293.342 6  24294087.196                    24294104.192  
     -3226.969       -2514.398          42.000          38.000  
 24  1 10  3 16 12.7000000  0  7G24G16G18G23G10G32G15
 129664763.771 5 101037568.521 6  24674382.646                    24674405.555  
       454.574         354.621          34.000          38.000  
 128857300.758 6 100408455.802 3  24520750.223    24520772.663                  
     -2122.625       -1653.852          36.000          19.000  
 114071354.650 7  88886834.660 7  21707057.912                    21707073.301  
     -1647.594       -1283.598          45.000          45.000  
 110748793.852 7  86297819.593 7  21074796.115                    21074809.902  
     -1681.020       -1309.594          42.000          44.000  
 109105826.944 7  85017595.608 7  20762149.587                    20762166.504  
       242.188         188.746          47.000          43.000  
 117603648.011 7  91639292.441 7  22379230.177                    22379249.954  
      3023.293        2356.074          42.000          42.000  
 127666600.749 6  99480544.832 6  24294148.600                    24294165.609  
     -3227.004       -2514.891          41.000          39.000  
 24  1 10  3 16 12.8000000  0  7G24G16G18G23G10G32G15
 129664718.317 5 101037533.200 6  24674373.786                    24674396.476  
       454.574         353.691          35.000          38.000  
 128857513.133 5 100408621.283 3  24520790.395    24520813.052                  
     -2122.895       -1654.371          35.000          19.000  
 114071519.441 7  88886963.068 7  21707089.404                    21707104.667  
     -1647.852       -1284.023          45.000          44.000  
 110748961.951 7  86297950.523 7  21074827.416                    21074841.509  
     -1681.535       -1309.953          43.000          44.000  
 109105802.827 7  85017576.792 7  20762145.272                    20762161.737  
       240.770         188.234          46.000          43.000  
 117603345.676 7  91639056.805 7  22379172.473                    22379192.456  
      3022.945        2355.793          42.000          42.000  
 127666923.406 6  99480796.320 6  24294209.843                    24294227.923  
     -3226.516       -2514.840          41.000          40.000  
 24  1 10  3 16 12.9000000  0  7G24G16G18G23G10G32G15
 129664672.872 6 101037497.753 6  24674365.138                    24674387.820  
       455.004         354.488          37.000          38.000  
 128857725.306 5 100408786.605 3  24520830.770    24520853.425                  
     -2123.258       -1653.988          33.000          19.000  
 114071684.251 7  88887091.482 7  21707120.766                    21707136.027  
     -1648.473       -1284.262          44.000          44.000  
 110749130.100 7  86298081.573 7  21074859.414                    21074873.513  
     -1681.832       -1310.535          43.000          44.000  
 109105778.724 7  85017557.992 7  20762140.685                    20762157.146  
       240.910         187.832          46.000          43.000  
 117603043.381 7  91638821.221 7  22379114.948                    22379134.924  
      3022.902        2355.891          43.000          42.000  
 127667246.111 7  99481047.833 6  24294271.252                    24294289.345  
     -3227.035       -2514.754          42.000          41.000  
 24  1 10  3 16 13.0000000  0  7G24G16G18G23G10G32G15
 129664627.343 6 101037462.280 6  24674356.646                    24674379.180  
       454.633         354.594          38.000          39.000  
 128857937.825 5 100408952.194 3  24520870.781    24520893.872                  
     -2125.145       -1655.481          32.000          19.000  
 114071849.088 7  88887219.959 7  21707152.001                    21707167.496  
     -1648.121       -1284.606          45.000          45.000  
 110749298.332 7  86298212.678 7  21074891.818                    21074906.577  
     -1682.203       -1310.707          44.000          44.000  
 109105754.689 7  85017539.275 7  20762135.939                    20762152.153  
       239.934         187.289          45.000          43.000  
 117602741.056 7  91638585.636 7  22379057.917                    22379077.681  
      3023.559        2355.652          43.000          42.000  
 127667568.862 7  99481299.303 6  24294333.365                    24294351.217  
     -3227.621       -2514.785          43.000          40.000  
 24  1 10  3 16 13.1000000  0  7G24G16G18G23G10G32G15
 129664581.978 6 101037426.840 6  24674348.013                    24674370.526  
       453.465         354.445          39.000          39.000  
 128858150.454 5 100409117.900 3  24520911.243    24520934.339                  
     -2126.762       -1656.945          31.000          19.000  
 114072013.863 7  88887348.374 7  21707183.356                    21707198.856  
     -1648.148       -1284.527          44.000          45.000  
 110749466.574 7  86298343.729 7  21074923.833                    21074938.581  
     -1682.738       -1310.703          44.000          43.000  
 109105730.685 7  85017520.567 7  20762131.372                    20762147.585  
       239.855         187.082          44.000          44.000  
 117602438.750 7  91638350.104 7  22379000.390                    22379020.162  
      3023.125        2355.727          42.000          42.000  
 127667891.699 7  99481550.814 6  24294394.799                    24294412.639  
     -3228.688       -2515.090          43.000          40.000  
 24  1 10  3 16 13.2000000  0  7G24G16G18G23G10G32G15
 129664536.556 6 101037391.419 6  24674339.682                    24674362.016  
       455.328         354.125          39.000          40.000  
 128858363.59434 100409284.11933  24520951.631    24520974.790                  
     -2124.879       -1656.574          29.000          19.000  
 114072178.756 7  88887476.892 7  21707214.336                    21707230.343  
     -1648.731       -1284.613          44.000          45.000  
 110749634.853 7  86298474.787 7  21074955.660                    21074970.259  
     -1682.520       -1310.719          44.000          43.000  
 109105706.740 7  85017501.870 7  20762126.557                    20762142.987  
       239.273         186.836          44.000          44.000  
 117602136.372 7  91638114.462 7  22378942.475                    22378963.389  
      3023.773        2356.207          42.000          42.000  
 127668214.541 7  99481802.295 6  24294456.679                    24294473.420  
     -3228.688       -2515.465          43.000          40.000  
 24  1 10  3 16 13.3000000  0  7G24G16G18G23G10G32G15
 129664491.017 6 101037356.110 6  24674331.016                    24674353.393  
       454.352         353.266          39.000          41.000  
 128858575.78734 100409449.43533  24520992.010    24521015.178                  
     -2121.727       -1653.711          29.000          18.000  
 114072343.638 7  88887605.306 7  21707245.712                    21707261.703  
     -1649.383       -1284.500          44.000          45.000  
 110749803.141 7  86298605.959 7  21074987.684                    21075002.292  
     -1682.980       -1311.699          44.000          43.000  
 109105682.773 7  85017483.231 7  20762121.996                    20762138.436  
       239.820         186.398          44.000          43.000  
 117601834.050 7  91637878.836 7  22378884.945                    22378905.847  
      3023.195        2356.391          43.000          43.000  
 127668537.349 7  99482053.969 6  24294518.107                    24294534.882  
     -3228.258       -2516.633          42.000          40.000  
 24  1 10  3 16 13.4000000  0  7G24G16G18G23G10G32G15
 129664445.778 6 101037320.789 6  24674322.642                    24674344.627  
       451.559         353.168          39.000          41.000  
 128858788.17025 100409614.89023  24521032.534    24521055.654                  
     -2123.914       -1654.473          31.000          18.000  
 114072508.496 7  88887733.768 7  21707277.404                    21707293.536  
     -1648.223       -1284.801          43.000          45.000  
 110749971.467 7  86298737.141 7  21075020.020                    21075033.961  
     -1683.379       -1311.586          44.000          43.000  
 109105658.776 7  85017464.534 7  20762117.969                    20762133.667  
       240.059         187.227          45.000          43.000  
 117601531.651 7  91637643.204 7  22378827.689                    22378847.834  
      3024.141        2356.246          45.000          43.000  
 127668860.200 7  99482305.48916  24294578.841                    24294595.907  
     -3228.395       -2514.504          42.000          38.000  
 24  1 10  3 16 13.5000000  0  7G24G16G18G23G10G32G15
 129664400.608 6 101037285.463 6  24674314.046                    24674336.000  
       453.168         353.332          38.000          40.000  
 128859000.45825 100409780.29623  24521072.931    24521096.048                  
     -2122.551       -1654.078          33.000          18.000  
 114072673.342 7  88887862.312 7  21707308.773                    21707324.928  
     -1648.106       -1284.965          43.000          45.000  
 110750139.787 7  86298868.243 7  21075052.051                    21075065.977  
     -1683.102       -1311.344          44.000          43.000  
 109105634.784 7  85017445.772 7  20762113.404                    20762129.085  
       240.090         187.410          46.000          43.000  
 117601229.191 7  91637407.510 7  22378770.133                    22378790.275  
      3025.168        2357.176          46.000          42.000  
 127669183.198 6  99482556.962 6  24294640.305                    24294657.319  
     -3230.547       -2515.973          41.000          37.000  
 24  1 10  3 16 13.6000000  0  7G24G16G18G23G10G32G15
 129664355.254 6 101037250.182 6  24674305.103                    24674327.259  
       452.340         352.355          38.000          40.000  
 128859212.69625 100409945.67923  24521113.459    24521136.381                  
     -2122.449       -1653.906          34.000          18.000  
 114072838.322 7  88887990.850 7  21707340.152                    21707356.412  
     -1650.645       -1285.410          43.000          45.000  
 110750308.139 7  86298999.434 7  21075084.079                    21075098.414  
     -1683.395       -1311.641          43.000          43.000  
 109105610.758 7  85017427.014 7  20762108.847                    20762123.676  
       240.586         187.699          47.000          43.000  
 117600926.668 7  91637171.758 7  22378712.932                    22378732.413  
      3025.574        2357.582          45.000          43.000  
 127669506.195 6  99482808.843 6  24294701.504                    24294718.487  
     -3230.289       -2518.133          41.000          37.000  
 24  1 10  3 16 13.7000000  0  7G24G16G18G23G10G32G15
 129664310.177 6 101037215.109 6  24674296.525                    24674318.694  
       450.574         351.086          39.000          40.000  
 128859424.86425 100410111.00423  24521153.834    24521176.755                  
     -2121.070       -1653.199          35.000          18.000  
 114073003.293 7  88888119.352 7  21707371.545                    21707387.793  
     -1650.117       -1286.008          43.000          44.000  
 110750476.539 7  86299130.642 7  21075116.124                    21075130.456  
     -1684.250       -1311.949          43.000          43.000  
 109105586.688 7  85017408.264 7  20762104.267                    20762119.097  
       240.777         187.473          47.000          43.000  
 117600624.155 7  91636936.039 7  22378655.366                    22378674.848  
      3024.902        2357.133          45.000          43.000  
 127669829.291 6  99483060.596 6  24294762.987                    24294779.968  
     -3231.203       -2517.172          40.000          36.000  
 24  1 10  3 16 13.8000000  0  7G24G16G18G23G10G32G15
 129664265.057 6 101037179.962 6  24674287.658                    24674310.384  
       451.086         351.410          38.000          40.000  
 128859636.98425 100410276.30323  24521194.136    24521217.131                  
     -2121.445       -1653.121          35.000          19.000  
 114073168.428 7  88888248.078 7  21707402.829                    21707418.979  
     -1650.527       -1286.094          43.000          43.000  
 110750644.981 7  86299261.868 7  21075147.725                    21075162.534  
     -1684.348       -1312.469          43.000          43.000  
 109105562.645 7  85017389.575 7  20762099.402                    20762114.619  
       240.469         186.957          47.000          44.000  
 117600321.684 7  91636700.351 7  22378597.346                    22378616.736  
      3024.566        2356.785          45.000          44.000  
 127670152.464 6  99483312.352 6  24294823.938                    24294841.715  
     -3231.508       -2517.844          40.000          36.000  
 24  1 10  3 16 13.9000000  0  7G24G16G18G23G10G32G15
 129664219.967 6 101037144.899 6  24674279.078                    24674301.821  
       450.934         351.051          38.000          39.000  
 128859849.15325 100410441.62023  24521234.511    24521257.503                  
     -2121.504       -1653.086          34.000          19.000  
 114073333.546 7  88888376.661 7  21707434.249                    21707450.381  
     -1651.660       -1286.633          43.000          43.000  
 110750813.398 7  86299393.141 7  21075179.773                    21075194.592  
     -1684.645       -1312.820          43.000          43.000  
 109105538.631 7  85017370.881 7  20762094.833                    20762110.053  
       240.219         187.145          47.000          44.000  
 117600019.263 7  91636464.710 7  22378539.798                    22378559.190  
      3024.062        2356.473          46.000          44.000  
 127670475.666 6  99483564.154 6  24294885.441                    24294903.208  
     -3232.121       -2518.180          40.000          37.000  
 24  1 10  3 16 14.0000000  0  7G24G16G18G23G10G32G15
 129664175.037 6 101037109.812 6  24674270.637                    24674293.112  
       449.566         350.680          38.000          38.000  
 128860060.695 5 100410606.339 3  24521274.656    24521297.878                  
     -2120.703       -1652.445          32.000          19.000  
 114073498.667 7  88888505.365 7  21707466.015                    21707481.100  
     -1650.961       -1286.906          43.000          43.000  
 110750981.876 7  86299524.395 7  21075211.920                    21075227.279  
     -1684.598       -1312.481          42.000          44.000  
 109105514.564 8  85017352.101 7  20762089.909                    20762107.014  
       240.457         187.430          48.000          44.000  
 117599716.836 7  91636229.038 7  22378482.506                    22378502.035  
      3024.250        2356.602          45.000          43.000  
 127670798.872 6  99483815.996 6  24294947.039                    24294965.093  
     -3232.176       -2518.309          41.000          38.000  
 24  1 10  3 16 14.1000000  0  7G24G16G18G23G10G32G15
 129664130.150 6 101037074.825 6  24674262.096                    24674284.568  
       448.945         350.145          39.000          37.000  
 128860272.835 5 100410771.650 3  24521315.025    24521338.248                  
     -2121.656       -1653.266          32.000          19.000  
 114073663.851 7  88888634.111 7  21707497.448                    21707512.542  
     -1651.828       -1287.234          43.000          42.000  
 110751150.309 7  86299655.658 7  21075243.971                    21075259.334  
     -1684.359       -1312.555          42.000          44.000  
 109105490.510 8  85017333.347 7  20762085.332                    20762102.434  
       240.828         187.754          48.000          44.000  
 117599414.435 7  91635993.429 7  22378424.961                    22378444.497  
      3024.156        2356.383          46.000          43.000  
 127671122.094 6  99484067.962 6  24295008.546                    24295026.626  
     -3232.117       -2519.449          41.000          38.000  
 24  1 10  3 16 14.2000000  0  7G24G16G18G23G10G32G15
 129664085.242 6 101037039.840 6  24674253.605                    24674275.602  
       448.910         349.730          39.000          37.000  
 128860484.991 5 100410936.970 3  24521355.249    24521378.582                  
     -2121.133       -1652.875          31.000          19.000  
 114073829.065 7  88888762.814 7  21707528.637                    21707544.433  
     -1652.363       -1287.117          44.000          42.000  
 110751318.843 7  86299786.952 7  21075275.636                    21075291.546  
     -1685.047       -1312.824          42.000          44.000  
 109105466.441 8  85017314.579 7  20762080.916                    20762098.015  
       240.676         187.613          48.000          44.000  
 117599112.016 7  91635757.770 7  22378367.420                    22378387.158  
      3024.133        2356.426          46.000          43.000  
 127671445.368 6  99484319.852 6  24295070.016                    24295088.694  
     -3232.559       -2518.820          41.000          38.000  
 24  1 10  3 16 14.3000000  0  7G24G16G18G23G10G32G15
 129664040.446 6 101037004.958 6  24674245.080                    24674267.084  
       448.152         349.055          39.000          36.000  
 128860697.001 5 100411102.182 3  24521395.593    24521418.928                  
     -2120.492       -1652.430          32.000          18.000  
 114073994.375 7  88888891.588 7  21707560.095                    21707575.881  
     -1652.898       -1287.840          44.000          42.000  
 110751487.369 7  86299918.281 7  21075307.706                    21075323.618  
     -1685.457       -1313.492          42.000          44.000  
 109105442.406 8  85017295.857 7  20762076.342                    20762093.443  
       240.270         187.156          48.000          44.000  
 117598809.600 7  91635522.109 7  22378309.872                    22378329.607  
      3024.031        2356.395          46.000          43.000  
 127671768.688 6  99484571.784 6  24295131.542                    24295150.219  
     -3233.125       -2519.383          41.000          38.000  
 24  1 10  3 16 14.4000000  0  7G24G16G18G23G10G32G15
 129663995.689 6 101036970.114 6  24674236.555                    24674258.653  
       448.078         348.512          39.000          36.000  
 128860909.058 5 100411267.434 3  24521436.196    24521459.292                  
     -2120.508       -1652.234          32.000          18.000  
 114074159.671 7  88889020.390 7  21707591.448                    21707607.086  
     -1652.984       -1288.457          43.000          42.000  
 110751655.954 7  86300049.628 7  21075339.669                    21075355.351  
     -1685.637       -1313.531          42.000          44.000  
 109105418.382 8  85017277.157 7  20762071.974                    20762088.555  
       240.273         187.023          48.000          44.000  
 117598507.159 7  91635286.453 7  22378252.491                    22378271.346  
      3024.293        2356.707          46.000          43.000  
 127672092.045 6  99484823.787 6  24295193.067                    24295211.542  
     -3233.387       -2520.074          40.000          38.000  
 24  1 10  3 16 14.5000000  0  7G24G16G18G23G10G32G15
 129663950.935 6 101036935.282 5  24674228.039                    24674250.146  
       447.812         348.246          38.000          35.000  
 128861120.991 5 100411432.563 3  24521476.526    24521499.619                  
     -2120.051       -1651.715          32.000          18.000  
 114074325.081 7  88889149.289 7  21707622.924                    21707638.564  
     -1653.363       -1288.484          43.000          42.000  
 110751824.597 7  86300181.061 7  21075371.761                    21075387.448  
     -1686.020       -1314.082          42.000          44.000  
 109105394.407 8  85017258.475 7  20762067.411                    20762083.993  
       240.035         186.879          48.000          45.000  
 117598204.749 7  91635050.785 7  22378194.945                    22378213.794  
      3024.258        2356.602          47.000          44.000  
 127672415.535 6  99485075.827 6  24295254.625                    24295273.093  
     -3233.953       -2520.469          40.000          38.000  
 24  1 10  3 16 14.6000000  0  7G24G16G18G23G10G32G15
 129663906.337 6 101036900.416 5  24674219.552                    24674241.663  
       445.715         348.520          38.000          34.000  
 128861333.020 5 100411597.762 3  24521517.006    24521539.962                  
     -2119.012       -1651.492          33.000          18.000  
 114074490.506 7  88889278.166 7  21707654.248                    21707670.115  
     -1654.445       -1289.188          44.000          42.000  
 110751993.356 7  86300312.533 7  21075404.492                    21075419.047  
     -1687.996       -1315.023          42.000          44.000  
 109105370.462 8  85017239.809 7  20762062.777                    20762079.700  
       239.336         186.562          48.000          45.000  
 117597902.343 7  91634815.137 7  22378137.586                    22378156.809  
      3024.062        2356.398          47.000          44.000  
 127672739.062 6  99485327.963 6  24295315.956                    24295334.698  
     -3236.016       -2521.406          40.000          38.000  
 24  1 10  3 16 14.7000000  0  7G24G16G18G23G10G32G15
 129663861.779 6 101036865.730 5  24674211.073                    24674233.192  
       445.531         347.094          39.000          33.000  
 128861544.956 5 100411762.904 3  24521557.336    24521580.291                  
     -2119.277       -1651.438          33.000          18.000  
 114074656.017 7  88889407.186 7  21707685.743                    21707701.623  
     -1655.551       -1290.004          44.000          42.000  
 110752162.132 7  86300444.052 7  21075436.609                    21075451.165  
     -1688.207       -1315.152          42.000          44.000  
 109105346.515 8  85017221.163 7  20762058.220                    20762075.147  
       239.402         186.395          48.000          45.000  
 117597599.885 7  91634579.463 7  22378080.030                    22378099.255  
      3024.914        2356.824          47.000          45.000  
 127673062.717 6  99485580.130 6  24295377.545                    24295396.280  
     -3236.801       -2521.734          40.000          37.000  
 24  1 10  3 16 14.8000000  0  7G24G16G18G23G10G32G15
 129663817.278 6 101036831.035 5  24674202.613                    24674223.899  
       444.828         346.453          39.000          33.000  
 128861756.828 5 100411927.995 3  24521597.849    24521620.616                  
     -2118.285       -1650.863          33.000          18.000  
 114074821.563 7  88889536.131 7  21707717.910                    21707733.035  
     -1655.918       -1289.731          44.000          42.000  
 110752331.006 7  86300575.612 7  21075468.354                    21075483.051  
     -1688.891       -1315.715          42.000          44.000  
 109105322.612 8  85017202.534 7  20762053.796                    20762070.308  
       238.980         186.391          48.000          45.000  
 117597297.394 7  91634343.766 7  22378022.539                    22378041.961  
      3024.918        2356.938          47.000          45.000  
 127673386.397 6  99485832.343 6  24295438.600                    24295457.224  
     -3236.922       -2522.418          40.000          37.000  
 24  1 10  3 16 14.9000000  0  7G24G16G18G23G10G32G15
 129663772.819 6 101036796.429 5  24674194.152                    24674215.448  
       444.047         346.328          39.000          32.000  
 128861968.643 5 100412093.048 3  24521638.156    24521660.924                  
     -2118.117       -1650.609          34.000          18.000  
 114074987.192 7  88889665.214 6  21707749.428                    21707764.558  
     -1656.340       -1290.562          44.000          41.000  
 110752499.896 7  86300707.246 7  21075500.492                    21075515.198  
     -1688.867       -1316.141          42.000          44.000  
 109105298.712 8  85017183.918 7  20762049.248                    20762065.762  
       238.812         186.109          48.000          45.000  
 117596994.872 7  91634108.032 7  22377964.970                    22377984.392  
      3025.301        2357.254          47.000          44.000  
 127673710.190 6  99486084.627 6  24295500.216                    24295518.835  
     -3238.207       -2522.801          40.000          37.000  
 24  1 10  3 16 15.0000000  0  7G24G16G18G23G10G32G15
 129663728.472 6 101036761.920 5  24674185.995                    24674206.372  
       443.859         345.285          39.000          31.000  
 128862180.424 5 100412258.072 3  24521678.793    24521701.209                  
     -2117.277       -1650.125          34.000          18.000  
 114075152.850 7  88889794.294 6  21707781.108                    21707795.503  
     -1657.035       -1290.848          44.000          41.000  
 110752668.866 7  86300838.930 7  21075532.779                    21075547.325  
     -1689.953       -1316.773          42.000          44.000  
 109105274.862 8  85017165.319 7  20762044.967                    20762061.204  
       238.457         186.133          48.000          45.000  
 117596692.346 7  91633872.296 7  22377907.269                    22377926.299  
      3025.695        2357.535          47.000          44.000  
 127674034.067 6  99486337.015 6  24295562.067                    24295579.900  
     -3238.691       -2523.500          41.000          37.000  
 24  1 10  3 16 15.1000000  0  7G24G16G18G23G10G32G15
 129663684.165 6 101036727.429 5  24674177.563                    24674197.949  
       442.379         344.582          38.000          31.000  
 128862392.186 5 100412423.083 2  24521719.090    24521741.506                  
     -2117.168       -1649.965          34.000          17.000  
 114075318.585 7  88889923.414 6  21707812.646                    21707827.035  
     -1657.148       -1291.066          44.000          41.000  
 110752837.941 7  86300970.684 7  21075564.953                    21075579.501  
     -1691.008       -1317.152          42.000          43.000  
 109105251.006 8  85017146.726 7  20762040.428                    20762056.664  
       238.469         185.816          48.000          45.000  
 117596389.785 7  91633636.531 7  22377849.693                    22377868.723  
      3025.680        2357.852          46.000          44.000  
 127674358.034 6  99486589.449 6  24295623.716                    24295641.547  
     -3240.027       -2524.227          41.000          37.000  
 24  1 10  3 16 15.2000000  0  7G24G16G18G23G10G32G15
 129663639.986 6 101036693.007 5  24674169.375                    24674188.894  
       442.027         344.879          38.000          30.000  
 128862603.875 5 100412588.035 2  24521759.357    24521781.758                  
     -2116.836       -1649.504          34.000          17.000  
 114075484.317 7  88890052.557 6  21707844.559                    21707858.683  
     -1657.305       -1291.648          45.000          41.000  
 110753006.991 6  86301102.384 7  21075596.622                    21075611.296  
     -1691.012       -1317.676          41.000          43.000  
 109105227.160 7  85017128.141 7  20762035.468                    20762052.321  
       238.434         185.762          47.000          45.000  
 117596087.142 7  91633400.713 7  22377791.407                    22377810.751  
      3026.410        2358.090          46.000          44.000  
 127674682.069 6  99486841.959 6  24295685.760                    24295703.189  
     -3240.527       -2525.258          40.000          37.000  
 24  1 10  3 16 15.3000000  0  7G24G16G18G23G10G32G15
 129663595.846 6 101036658.550 5  24674160.975                    24674180.479  
       441.297         343.930          37.000          30.000  
 128862815.492 5 100412752.919 2  24521799.627    24521822.024                  
     -2116.348       -1649.004          33.000          17.000  
 114075650.145 7  88890181.797 6  21707876.115                    21707890.245  
     -1658.320       -1291.859          45.000          41.000  
 110753176.095 6  86301234.151 7  21075628.802                    21075643.475  
     -1691.082       -1317.844          41.000          44.000  
 109105203.281 7  85017109.545 7  20762030.924                    20762047.779  
       238.855         186.148          47.000          45.000  
 117595784.444 7  91633164.823 7  22377733.806                    22377753.144  
      3027.109        2358.977          45.000          45.000  
 127675006.223 6  99487094.513 6  24295747.445                    24295764.865  
     -3241.379       -2525.551          40.000          38.000  
 24  1 10  3 16 15.4000000  0  7G24G16G18G23G10G32G15
 129663551.814 6 101036624.318 5  24674152.487                    24674171.854  
       440.180         343.207          37.000          30.000  
 128863027.010 5 100412917.725 2  24521840.143    24521862.334                  
     -2114.480       -1647.984          33.000          17.000  
 114075815.952 7  88890310.952 6  21707907.667                    21707922.020  
     -1658.059       -1292.234          44.000          41.000  
 110753345.285 6  86301366.038 7  21075660.599                    21075675.839  
     -1692.184       -1318.438          41.000          44.000  
 109105179.439 7  85017090.930 7  20762025.817                    20762043.507  
       238.176         185.832          47.000          45.000  
 117595481.701 7  91632928.926 7  22377675.664                    22377695.872  
      3027.496        2358.832          46.000          44.000  
 127675330.464 6  99487347.167 6  24295809.193                    24295826.652  
     -3242.355       -2526.676          40.000          38.000  
 24  1 10  3 16 15.5000000  0  7G24G16G18G23G10G32G15
 129663507.887 6 101036590.011 5  24674144.128                    24674163.476  
       439.598         342.477          36.000          30.000  
 128863238.533 5 100413082.531 2  24521880.394    24521902.581                  
     -2115.289       -1648.106          33.000          17.000  
 114075981.877 7  88890440.294 6  21707939.241                    21707953.606  
     -1659.715       -1292.977          44.000          41.000  
 110753514.551 6  86301497.896 7  21075692.809                    21075708.040  
     -1692.648       -1318.629          41.000          44.000  
 109105155.562 7  85017072.332 7  20762021.273                    20762038.965  
       239.270         186.168          47.000          45.000  
 117595178.875 7  91632692.981 7  22377618.038                    22377638.252  
      3028.660        2359.504          46.000          45.000  
 127675654.814 6  99487599.923 6  24295870.914                    24295888.377  
     -3244.219       -2527.340          39.000          38.000  
 24  1 10  3 16 15.6000000  0  7G24G16G18G23G10G32G15
 129663463.977 6 101036555.835 5  24674135.514                    24674154.942  
       438.195         341.848          36.000          30.000  
 128863449.939 5 100413247.247 2  24521920.577    24521942.806                  
     -2113.566       -1647.125          33.000          16.000  
 114076147.797 7  88890569.564 6  21707970.541                    21707984.777  
     -1659.387       -1293.168          44.000          41.000  
 110753683.872 7  86301629.860 7  21075725.546                    21075741.041  
     -1693.766       -1319.488          42.000          44.000  
 109105131.724 7  85017053.765 7  20762016.385                    20762034.384  
       238.066         185.809          47.000          45.000  
 117594876.018 7  91632456.984 7  22377560.914                    22377580.541  
      3028.418        2360.051          46.000          45.000  
 127675979.265 6  99487852.711 6  24295932.335                    24295950.087  
     -3244.984       -2527.840          39.000          38.000  
 24  1 10  3 16 15.7000000  0  7G24G16G18G23G10G32G15
 129663420.226 6 101036521.688 5  24674127.189                    24674146.603  
       437.625         341.324          36.000          30.000  
 128863661.343 5 100413411.967 2  24521960.806    24521983.033                  
     -2113.855       -1647.188          33.000          16.000  
 114076313.862 7  88890698.962 6  21708002.143                    21708016.377  
     -1661.211       -1293.531          44.000          41.000  
 110753853.243 7  86301761.814 7  21075757.776                    21075773.265  
     -1694.301       -1319.922          42.000          44.000  
 109105107.911 7  85017035.198 7  20762011.854                    20762029.850  
       237.945         185.520          47.000          45.000  
 117594573.146 7  91632220.962 7  22377503.280                    22377522.902  
      3029.047        2360.242          46.000          45.000  
 127676303.823 6  99488105.609 6  24295994.096                    24296011.848  
     -3245.551       -2528.980          39.000          38.000  
 24  1 10  3 16 15.8000000  0  7G24G16G18G23G10G32G15
 129663376.465 6 101036487.646 5  24674118.932                    24674138.392  
       437.574         340.703          37.000          30.000  
 128863872.635 5 100413576.606 2  24522001.091    24522023.208                  
     -2112.527       -1646.391          34.000          16.000  
 114076479.862 7  88890828.280 6  21708033.708                    21708047.685  
     -1659.668       -1293.660          44.000          41.000  
 110754022.702 7  86301893.861 7  21075790.343                    21075805.333  
     -1694.215       -1320.356          42.000          44.000  
 109105084.049 8  85017016.632 7  20762007.641                    20762024.980  
       238.855         185.793          48.000          45.000  
 117594270.143 7  91631984.844 7  22377445.612                    22377465.849  
      3030.578        2360.938          47.000          46.000  
 127676628.433 6  99488358.595 6  24296056.071                    24296073.942  
     -3246.527       -2529.750          39.000          38.000  
 24  1 10  3 16 15.9000000  0  7G24G16G18G23G10G32G15
 129663332.809 6 101036453.518 5  24674110.624                    24674130.057  
       436.066         340.801          37.000          31.000  
 128864083.895 5 100413741.212 2  24522041.293    24522063.406                  
     -2112.445       -1646.125          33.000          16.000  
 114076645.911 7  88890957.732 6  21708065.306                    21708079.298  
     -1661.059       -1294.289          44.000          41.000  
 110754192.175 7  86302025.911 7  21075822.593                    21075837.581  
     -1695.074       -1320.301          42.000          44.000  
 109105060.216 8  85016998.047 7  20762003.106                    20762020.441  
       238.270         185.734          48.000          45.000  
 117593967.126 7  91631748.756 7  22377387.950                    22377408.194  
      3030.422        2361.277          47.000          46.000  
 127676953.182 6  99488611.592 6  24296117.868                    24296135.726  
     -3247.496       -2530.086          39.000          38.000  
 24  1 10  3 16 16.0000000  0  7G24G16G18G23G10G32G15
 129663289.246 6 101036419.674 5  24674102.522                    24674122.183  
       435.320         338.566          37.000          31.000  
 128864295.107 5 100413905.792 2  24522081.376    24522103.575                  
     -2112.211       -1645.883          33.000          17.000  
 114076812.064 7  88891087.168 6  21708096.768                    21708111.275  
     -1661.789       -1294.602          44.000          41.000  
 110754361.706 7  86302158.010 7  21075855.150                    21075869.059  
     -1695.770       -1321.285          42.000          43.000  
 109105036.416 8  85016979.509 7  20761999.343                    20762015.617  
       237.680         185.500          48.000          45.000  
 117593664.032 8  91631512.568 7  22377330.805                    22377350.452  
      3031.051        2361.641          48.000          45.000  
 127677278.009 6  99488864.746 6  24296179.782                    24296197.760  
     -3249.254       -2531.441          39.000          38.000  
 24  1 10  3 16 16.1000000  0  7G24G16G18G23G10G32G15
 129663245.804 6 101036385.788 5  24674094.255                    24674113.907  
       433.945         339.305          37.000          30.000  
 128864506.255 5 100414070.327 2  24522121.556    24522143.756                  
     -2111.062       -1645.305          33.000          16.000  
 114076978.276 7  88891216.708 7  21708128.397                    21708142.910  
     -1662.277       -1294.977          44.000          42.000  
 110754531.361 7  86302290.239 7  21075887.435                    21075901.351  
     -1696.746       -1322.031          42.000          43.000  
 109105012.617 8  85016960.955 7  20761994.814                    20762011.086  
       237.891         185.438          48.000          45.000  
 117593360.900 8  91631276.369 7  22377273.120                    22377292.769  
      3031.703        2362.180          48.000          45.000  
 127677602.958 6  99489117.947 6  24296241.618                    24296259.595  
     -3249.770       -2532.129          38.000          38.000  
 24  1 10  3 16 16.2000000  0  7G24G16G18G23G10G32G15
 129663202.380 6 101036351.997 5  24674085.773                    24674105.843  
       434.227         337.586          37.000          30.000  
 128864717.301 5 100414234.786 2  24522161.607    24522183.911                  
     -2110.047       -1644.586          34.000          16.000  
 114077144.519 7  88891346.231 7  21708159.539                    21708175.221  
     -1662.574       -1295.512          44.000          42.000  
 110754701.033 7  86302422.433 7  21075919.909                    21075933.486  
     -1696.961       -1322.293          42.000          43.000  
 109104988.798 8  85016942.397 7  20761990.781                    20762006.077  
       238.430         185.586          48.000          45.000  
 117593057.684 8  91631040.088 7  22377216.170                    22377234.864  
      3032.688        2362.812          48.000          46.000  
 127677928.053 6  99489371.242 6  24296303.302                    24296321.350  
     -3251.844       -2532.824          37.000          38.000  
 24  1 10  3 16 16.3000000  0  7G24G16G18G23G10G32G15
 129663159.066 6 101036318.303 5  24674077.531                    24674097.614  
       432.707         337.766          37.000          30.000  
 128864928.313 5 100414399.207 2  24522201.761    24522224.064                  
     -2110.258       -1644.348          34.000          16.000  
 114077310.825 7  88891475.786 7  21708191.186                    21708206.859  
     -1663.324       -1295.648          44.000          42.000  
 110754870.860 7  86302554.758 7  21075952.227                    21075965.801  
     -1698.172       -1322.551          42.000          43.000  
 109104965.027 8  85016923.896 7  20761986.258                    20762001.559  
       237.582         185.219          48.000          45.000  
 117592754.413 8  91630803.789 7  22377158.460                    22377177.157  
      3032.613        2362.844          48.000          45.000  
 127678253.227 6  99489624.604 6  24296365.180                    24296383.224  
     -3251.789       -2533.750          36.000          38.000  
 24  1 10  3 16 16.4000000  0  7G24G16G18G23G10G32G15
 129663115.814 6 101036284.528 5  24674069.136                    24674089.304  
       432.375         337.742          37.000          30.000  
 128865139.268 5 100414563.584 2  24522241.373    24522264.207                  
     -2109.559       -1643.895          34.000          16.000  
 114077477.179 7  88891605.404 6  21708223.147                    21708238.294  
     -1663.715       -1296.422          44.000          41.000  
 110755040.653 7  86302687.082 7  21075984.240                    21075998.647  
     -1698.312       -1323.848          42.000          43.000  
 109104941.265 8  85016905.369 7  20761982.025                    20761997.675  
       237.496         185.086          48.000          45.000  
 117592451.118 7  91630567.481 7  22377100.706                    22377119.011  
      3033.059        2363.332          47.000          45.000  
 127678578.466 6  99489878.081 6  24296426.431                    24296445.602  
     -3253.566       -2534.465          37.000          38.000  
 24  1 10  3 16 16.5000000  0  7G24G16G18G23G10G32G15
 129663072.652 6 101036250.834 5  24674060.923                    24674081.075  
       431.414         336.754          36.000          30.000  
 128865350.084 5 100414727.851 2  24522281.490    24522304.322                  
     -2107.906       -1642.789          34.000          16.000  
 114077643.545 7  88891735.104 6  21708254.806                    21708269.969  
     -1663.625       -1296.684          45.000          41.000  
 110755210.554 7  86302819.457 7  21076016.571                    21076030.974  
     -1699.293       -1323.625          42.000          43.000  
 109104917.457 8  85016886.820 7  20761977.494                    20761993.145  
       238.289         185.504          48.000          45.000  
 117592147.686 7  91630330.990 7  22377042.964                    22377061.258  
      3034.863        2364.621          47.000          45.000  
 127678903.924 6  99490131.611 6  24296488.363                    24296507.517  
     -3254.258       -2535.453          37.000          38.000  
 24  1 10  3 16 16.6000000  0  7G24G16G18G23G10G32G15
 129663029.594 6 101036217.356 5  24674052.713                    24674072.829  
       430.047         335.586          36.000          30.000  
 128865560.853 5 100414892.081 2  24522321.216    24522344.468                  
     -2107.871       -1642.488          34.000          17.000  
 114077810.003 7  88891864.757 6  21708286.872                    21708301.139  
     -1665.078       -1296.688          45.000          41.000  
 110755380.541 7  86302951.936 7  21076048.739                    21076063.413  
     -1700.238       -1324.586          42.000          43.000  
 109104893.733 8  85016868.324 7  20761973.081                    20761988.933  
       237.164         185.074          48.000          45.000  
 117591844.256 7  91630094.554 7  22376984.333                    22377003.369  
      3034.559        2364.559          46.000          45.000  
 127679229.394 6  99490385.255 6  24296550.290                    24296569.092  
     -3255.422       -2536.441          38.000          38.000  
 24  1 10  3 16 16.7000000  0  7G24G16G18G23G10G32G15
 129662986.581 6 101036183.727 5  24674044.528                    24674064.616  
       429.570         336.027          36.000          30.000  
 128865771.596 5 100415056.294 2  24522361.319    24522384.571                  
     -2107.637       -1642.281          34.000          17.000  
 114077976.493 7  88891994.480 6  21708318.554                    21708332.819  
     -1665.074       -1297.492          44.000          41.000  
 110755550.634 7  86303084.480 7  21076081.107                    21076095.782  
     -1701.129       -1325.328          42.000          43.000  
 109104869.990 8  85016849.856 7  20761968.563                    20761984.423  
       237.348         184.570          48.000          45.000  
 117591540.738 7  91629858.031 7  22376926.576                    22376945.608  
      3035.375        2365.137          46.000          45.000  
 127679555.013 6  99490639.028 6  24296612.254                    24296631.066  
     -3256.602       -2537.625          39.000          38.000  
 24  1 10  3 16 16.8000000  0  7G24G16G18G23G10G32G15
 129662943.724 6 101036150.340 4  24674036.303                    24674056.791  
       428.914         333.805          37.000          29.000  
 128865982.309 5 100415220.488 2  24522401.822    24522424.661                  
     -2106.355       -1641.703          34.000          16.000  
 114078143.006 7  88892124.288 6  21708349.662                    21708364.847  
     -1665.328       -1297.781          44.000          41.000  
 110755720.714 7  86303216.999 7  21076113.214                    21076128.761  
     -1701.250       -1325.512          42.000          43.000  
 109104846.277 8  85016831.363 7  20761963.395                    20761979.391  
       236.980         184.898          48.000          45.000  
 117591237.162 7  91629621.486 7  22376868.432                    22376887.880  
      3036.211        2365.348          46.000          45.000  
 127679880.732 6  99490892.790 6  24296674.611                    24296692.646  
     -3257.492       -2537.406          40.000          38.000  
 24  1 10  3 16 16.9000000  0  7G24G16G18G23G10G32G15
 129662900.755 6 101036116.903 4  24674028.126                    24674048.626  
       429.523         334.816          38.000          29.000  
 128866192.950 5 100415384.624 2  24522441.906    24522464.745                  
     -2106.035       -1641.320          34.000          16.000  
 114078309.544 7  88892254.041 7  21708381.354                    21708396.534  
     -1665.645       -1297.934          44.000          42.000  
 110755890.844 7  86303349.525 7  21076145.589                    21076161.125  
     -1701.398       -1325.543          42.000          43.000  
 109104822.544 8  85016812.861 7  20761958.879                    20761974.873  
       237.324         184.891          48.000          45.000  
 117590933.553 7  91629384.945 7  22376810.657                    22376830.114  
      3036.180        2365.777          46.000          45.000  
 127680206.451 6  99491146.589 6  24296736.593                    24296754.627  
     -3257.492       -2538.113          41.000          38.000  
 24  1 10  3 16 17.0000000  0  7G24G16G18G23G10G32G15
 129662857.938 6 101036083.426 5  24674020.064                    24674040.599  
       428.039         334.520          39.000          31.000  
 128866403.548 5 100415548.729 2  24522482.161    24522504.805                  
     -2106.121       -1641.160          34.000          16.000  
 114078476.146 7  88892383.886 7  21708413.143                    21708428.205  
     -1665.879       -1297.957          44.000          42.000  
 110756061.041 7  86303482.150 7  21076177.835                    21076193.170  
     -1701.746       -1325.918          42.000          43.000  
 109104798.866 7  85016794.419 7  20761953.959                    20761970.166  
       236.781         184.625          47.000          44.000  
 117590629.901 7  91629148.332 7  22376752.866                    22376772.433  
      3036.590        2365.992          47.000          45.000  
 127680532.254 7  99491400.472 6  24296799.373                    24296816.870  
     -3257.941       -2538.656          42.000          38.000  
 24  1 10  3 16 17.1000000  0  7G24G16G18G23G10G32G15
 129662815.145 6 101036050.007 5  24674011.921                    24674032.437  
       427.914         333.934          40.000          31.000  
 128866614.159 5 100415712.844 2  24522522.239    24522544.884                  
     -2105.895       -1641.090          34.000          16.000  
 114078642.683 7  88892513.650 7  21708444.834                    21708459.894  
     -1665.520       -1297.680          44.000          42.000  
 110756231.235 7  86303614.768 7  21076210.222                    21076225.557  
     -1701.836       -1326.398          42.000          43.000  
 109104775.167 7  85016775.923 7  20761949.449                    20761965.649  
       236.895         184.848          47.000          44.000  
 117590326.198 7  91628911.692 7  22376695.073                    22376714.643  
      3036.879        2366.324          47.000          45.000  
 127680858.077 7  99491654.363 6  24296861.375                    24296878.872  
     -3258.379       -2539.043          43.000          38.000  
 24  1 10  3 16 17.2000000  0  7G24G16G18G23G10G32G15
 129662772.366 6 101036016.86915  24674004.007                    24674025.071  
       427.449         332.566          41.000          32.000  
 128866824.826 5 100415877.010 2  24522562.109    24522584.951                  
     -2106.859       -1641.606          34.000          16.000  
 114078809.319 7  88892643.464 7  21708476.778                    21708491.956  
     -1666.559       -1298.492          44.000          42.000  
 110756401.473 6  86303747.474 7  21076242.821                    21076257.629  
     -1702.777       -1326.613          41.000          44.000  
 109104751.495 7  85016757.525 7  20761944.624                    20761960.969  
       236.695         184.121          47.000          44.000  
 117590022.557 7  91628675.076 7  22376637.855                    22376656.718  
      3036.773        2366.301          47.000          45.000  
 127681184.002 7  99491908.301 6  24296924.123                    24296941.277  
     -3259.121       -2539.215          43.000          38.000  
 24  1 10  3 16 17.3000000  0  7G24G16G18G23G10G32G15
 129662729.561 6 101035983.364 5  24673995.861                    24674016.889  
       427.902         334.035          41.000          33.000  
 128867035.436 5 100416041.139 2  24522602.187    24522625.033                  
     -2106.035       -1641.285          33.000          16.000  
 114078975.927 7  88892773.310 7  21708508.482                    21708523.665  
     -1666.242       -1298.336          44.000          42.000  
 110756571.716 7  86303880.109 7  21076275.217                    21076290.020  
     -1702.484       -1326.562          42.000          44.000  
 109104727.844 7  85016739.067 7  20761940.123                    20761956.461  
       236.324         184.531          47.000          44.000  
 117589718.837 7  91628438.413 7  22376580.059                    22376598.922  
      3036.672        2366.457          47.000          44.000  
 127681509.898 7  99492162.268 6  24296986.139                    24297003.299  
     -3259.094       -2539.504          43.000          38.000  
 24  1 10  3 16 17.4000000  0  7G24G16G18G23G10G32G15
 129662686.770 6 101035950.077 5  24673988.070                    24674009.197  
       427.980         333.332          41.000          34.000  
 128867246.097 5 100416205.309 2  24522642.368    24522665.188                  
     -2106.289       -1641.508          33.000          16.000  
 114079142.528 7  88892903.129 7  21708540.350                    21708555.681  
     -1665.887       -1298.387          44.000          42.000  
 110756741.941 7  86304012.744 7  21076307.805                    21076322.567  
     -1702.379       -1326.184          42.000          43.000  
 109104704.176 7  85016720.581 7  20761935.580                    20761952.251  
       236.746         184.492          47.000          44.000  
 117589415.127 7  91628201.747 7  22376522.445                    22376541.408  
      3037.320        2366.652          47.000          44.000  
 127681835.847 7  99492416.238 6  24297048.149                    24297064.977  
     -3259.566       -2539.711          42.000          38.000  
 24  1 10  3 16 17.5000000  0  7G24G16G18G23G10G32G15
 129662644.007 6 101035916.763 5  24673979.932                    24674001.062  
       427.969         333.355          41.000          34.000  
 128867456.711 5 100416369.430 2  24522682.446    24522705.268                  
     -2106.406       -1641.410          33.000          16.000  
 114079309.114 7  88893032.945 7  21708572.050                    21708587.383  
     -1665.734       -1298.090          44.000          42.000  
 110756912.163 6  86304145.370 7  21076340.197                    21076354.956  
     -1702.195       -1326.508          41.000          43.000  
 109104680.479 8  85016702.152 7  20761931.071                    20761947.751  
       236.984         184.348          48.000          44.000  
 117589111.396 7  91627965.102 7  22376464.646                    22376483.616  
      3037.289        2366.719          47.000          44.000  
 127682161.758 7  99492670.224 6  24297110.168                    24297127.003  
     -3258.770       -2539.754          42.000          38.000  
 24  1 10  3 16 17.6000000  0  7G24G16G18G23G10G32G15
 129662601.234 6 101035883.451 5  24673972.106                    24673993.341  
       427.816         332.906          41.000          35.000  
 128867667.343 5 100416533.573 2  24522722.169    24522745.353                  
     -2106.211       -1641.312          33.000          16.000  
 114079475.706 7  88893162.781 7  21708603.564                    21708618.536  
     -1665.785       -1298.277          44.000          42.000  
 110757082.440 6  86304278.088 7  21076372.607                    21076387.429  
     -1702.543       -1326.434          41.000          43.000  
 109104656.814 8  85016683.739 7  20761926.911                    20761943.301  
       236.801         184.422          48.000          44.000  
 117588807.669 7  91627728.406 7  22376406.966                    22376426.078  
      3037.137        2366.629          46.000          44.000  
 127682487.723 7  99492924.227 6  24297172.025                    24297189.088  
     -3259.555       -2539.949          42.000          39.000  
 24  1 10  3 16 17.7000000  0  7G24G16G18G23G10G32G15
 129662558.462 6 101035850.090 5  24673963.966                    24673985.194  
       427.719         333.809          41.000          34.000  
 128867877.992 5 100416697.707 2  24522762.254    24522785.436                  
     -2106.547       -1641.449          33.000          16.000  
 114079642.328 7  88893292.605 7  21708635.271                    21708650.240  
     -1666.180       -1298.066          44.000          42.000  
 110757252.690 6  86304410.690 7  21076405.005                    21076419.812  
     -1702.574       -1326.637          41.000          43.000  
 109104633.171 7  85016665.302 7  20761922.412                    20761938.798  
       236.367         184.312          47.000          44.000  
 117588503.945 7  91627491.733 7  22376349.170                    22376368.280  
      3037.223        2366.816          46.000          44.000  
 127682813.651 7  99493178.213 6  24297234.047                    24297251.114  
     -3259.242       -2539.965          42.000          40.000  
 24  1 10  3 16 17.8000000  0  7G24G16G18G23G10G32G15
 129662515.666 6 101035816.729 5  24673956.088                    24673976.851  
       427.805         333.500          41.000          34.000  
 128868088.623 5 100416861.832 2  24522802.500    24522825.447                  
     -2106.250       -1641.188          33.000          16.000  
 114079808.900 7  88893422.351 7  21708667.117                    21708682.012  
     -1665.941       -1298.180          44.000          42.000  
 110757422.915 6  86304543.368 7  21076437.476                    21076451.924  
     -1702.270       -1326.734          41.000          43.000  
 109104609.498 8  85016646.834 7  20761917.868                    20761934.296  
       236.723         184.617          48.000          44.000  
 117588200.200 7  91627255.020 7  22376291.173                    22376310.637  
      3037.461        2366.988          46.000          44.000  
 127683139.608 7  99493432.189 6  24297296.137                    24297314.286  
     -3259.461       -2539.594          42.000          40.000  
 24  1 10  3 16 17.9000000  0  7G24G16G18G23G10G32G15
 129662472.897 6 101035783.400 5  24673947.950                    24673968.712  
       427.742         333.543          40.000          34.000  
 128868299.283 5 100417025.979 2  24522842.587    24522865.533                  
     -2106.812       -1641.656          32.000          16.000  
 114079975.504 7  88893552.253 7  21708698.820                    21708713.735  
     -1665.762       -1298.102          44.000          42.000  
 110757593.217 6  86304676.052 7  21076469.883                    21076484.327  
     -1702.887       -1326.691          41.000          43.000  
 109104585.869 7  85016628.439 7  20761913.372                    20761929.804  
       236.500         184.109          47.000          44.000  
 117587896.460 7  91627018.367 7  22376233.374                    22376252.844  
      3037.551        2366.633          46.000          44.000  
 127683465.623 7  99493686.189 6  24297358.176                    24297376.315  
     -3260.258       -2540.070          42.000          40.000  
 24  1 10  3 16 18.0000000  0  7G24G16G18G23G10G32G15
 129662430.184 6 101035750.137 5  24673939.439                    24673960.581  
       427.184         332.848          40.000          34.000  
 128868509.978 5 100417190.157 2  24522882.876    24522905.580                  
     -2107.055       -1641.852          33.000          16.000  
 114080142.099 7  88893681.992 6  21708730.273                    21708744.786  
     -1666.301       -1298.137          44.000          41.000  
 110757763.491 6  86304808.789 7  21076502.645                    21076516.836  
     -1702.910       -1327.348          41.000          44.000  
 109104562.287 7  85016610.054 7  20761908.830                    20761925.431  
       235.641         183.645          47.000          44.000  
 117587592.742 7  91626781.728 7  22376175.422                    22376194.890  
      3037.012        2366.262          46.000          44.000  
 127683791.607 7  99493940.230 6  24297420.146                    24297438.417  
     -3259.887       -2540.578          42.000          39.000  
 24  1 10  3 16 18.1000000  0  7G24G16G18G23G10G32G15
 129662387.461 6 101035716.857 5  24673931.309                    24673952.454  
       427.254         332.828          40.000          34.000  
 128868720.712 5 100417354.362 2  24522922.978    24522945.681                  
     -2106.832       -1641.680          33.000          16.000  
 114080308.716 7  88893811.866 7  21708761.979                    21708776.502  
     -1666.004       -1298.566          44.000          42.000  
 110757933.849 6  86304941.491 7  21076535.063                    21076549.244  
     -1703.352       -1327.156          40.000          44.000  
 109104538.666 7  85016591.665 7  20761904.335                    20761920.940  
       236.141         183.953          47.000          44.000  
 117587289.043 7  91626545.021 7  22376117.630                    22376137.084  
      3036.754        2366.840          45.000          44.000  
 127684117.633 6  99494194.317 6  24297482.187                    24297500.468  
     -3260.246       -2540.637          41.000          39.000  
 24  1 10  3 16 18.2000000  0  7G24G16G18G23G10G32G15
 129662344.718 6 101035683.588 5  24673922.636                    24673944.196  
       427.414         332.801          40.000          34.000  
 128868931.362 5 100417518.509 2  24522963.149    24522985.791                  
     -2106.898       -1641.832          32.000          16.000  
 114080475.321 7  88893941.664 7  21708793.432                    21708807.982  
     -1666.203       -1298.164          43.000          42.000  
 110758104.143 6  86305074.185 7  21076567.367                    21076582.172  
     -1703.062       -1327.020          40.000          44.000  
 109104515.066 8  85016573.282 7  20761899.867                    20761916.475  
       236.191         183.797          48.000          44.000  
 117586985.289 7  91626308.388 7  22376059.351                    22376079.077  
      3037.387        2366.539          46.000          44.000  
 127684443.664 6  99494448.361 6  24297543.877                    24297562.633  
     -3260.180       -2540.523          41.000          40.000  
 24  1 10  3 16 18.3000000  0  7G24G16G18G23G10G32G15
 129662301.988 6 101035650.313 5  24673914.505                    24673936.070  
       427.328         332.926          39.000          35.000  
 128869142.180 5 100417682.786 2  24523003.266    24523025.909                  
     -2107.406       -1642.371          32.000          16.000  
 114080641.932 7  88894071.473 7  21708825.137                    21708839.682  
     -1666.211       -1298.414          43.000          42.000  
 110758274.444 6  86305206.898 7  21076599.774                    21076614.582  
     -1702.992       -1327.215          41.000          44.000  
 109104491.493 8  85016554.928 7  20761895.382                    20761911.992  
       235.859         183.602          48.000          44.000  
 117586681.589 7  91626071.729 7  22376001.559                    22376021.282  
      3037.246        2366.848          46.000          44.000  
 127684769.676 6  99494702.393 6  24297605.915                    24297624.670  
     -3260.230       -2540.305          41.000          40.000  
 24  1 10  3 16 18.4000000  0  7G24G16G18G23G10G32G15
 129662259.228 6 101035616.981 5  24673906.079                    24673928.462  
       427.449         332.863          38.000          35.000  
 128869352.887 5 100417846.983 2  24523042.816    24523066.008                  
     -2107.266       -1642.121          31.000          16.000  
 114080808.610 7  88894201.405 7  21708857.230                    21708871.827  
     -1666.336       -1298.715          44.000          42.000  
 110758444.775 6  86305339.619 7  21076631.984                    21076646.603  
     -1703.273       -1327.363          41.000          44.000  
 109104467.956 7  85016536.572 7  20761891.067                    20761906.830  
       235.551         183.488          47.000          43.000  
 117586377.889 7  91625835.048 7  22375944.134                    22375963.467  
      3037.047        2366.379          46.000          44.000  
 127685095.722 7  99494956.459 6  24297667.452                    24297686.544  
     -3260.188       -2540.531          42.000          40.000  
 24  1 10  3 16 18.5000000  0  7G24G16G18G23G10G32G15
 129662216.569 6 101035583.749 5  24673897.961                    24673920.346  
       427.035         332.715          39.000          35.000  
 128869563.645 5 100418011.214 2  24523082.922    24523106.114                  
     -2107.465       -1642.309          32.000          16.000  
 114080975.241 7  88894331.222 7  21708888.939                    21708903.530  
     -1666.410       -1298.023          43.000          42.000  
 110758615.167 7  86305472.418 7  21076664.409                    21076679.034  
     -1703.395       -1327.398          42.000          44.000  
 109104444.418 7  85016518.214 7  20761886.588                    20761902.347  
       235.473         183.652          47.000          43.000  
 117586074.170 7  91625598.419 7  22375886.338                    22375905.679  
      3037.191        2366.527          46.000          44.000  
 127685421.786 7  99495210.493 6  24297729.499                    24297748.581  
     -3260.523       -2540.527          42.000          40.000  
 24  1 10  3 16 18.6000000  0  7G24G16G18G23G10G32G15
 129662173.924 6 101035550.484 5  24673889.565                    24673912.316  
       426.738         332.645          40.000          35.000  
 128869774.407 5 100418175.446 2  24523122.810    24523146.190                  
     -2107.441       -1642.148          31.000          16.000  
 114081141.869 7  88894461.012 6  21708920.725                    21708935.030  
     -1666.422       -1298.574          44.000          41.000  
 110758785.505 7  86305605.111 7  21076697.143                    21076711.252  
     -1703.566       -1327.445          42.000          44.000  
 109104420.893 7  85016499.874 7  20761881.736                    20761897.594  
       235.398         183.285          47.000          43.000  
 117585770.505 7  91625361.754 7  22375828.443                    22375847.938  
      3036.809        2366.570          45.000          44.000  
 127685747.866 7  99495464.607 6  24297791.910                    24297810.381  
     -3260.750       -2541.160          43.000          40.000  
 24  1 10  3 16 18.7000000  0  7G24G16G18G23G10G32G15
 129662131.241 6 101035517.244 6  24673881.442                    24673904.198  
       426.816         332.379          40.000          36.000  
 128869985.164 5 100418339.672 2  24523162.915    24523186.296                  
     -2107.570       -1642.367          32.000          16.000  
 114081308.529 7  88894590.943 7  21708952.440                    21708966.761  
     -1666.441       -1298.891          44.000          42.000  
 110758955.813 7  86305737.863 7  21076729.552                    21076743.671  
     -1703.285       -1327.434          42.000          44.000  
 109104397.325 7  85016481.536 7  20761877.251                    20761893.116  
       235.492         183.551          47.000          43.000  
 117585466.836 7  91625125.140 7  22375770.657                    22375790.154  
      3036.898        2366.289          45.000          44.000  
 127686073.883 7  99495718.664 6  24297853.949                    24297872.424  
     -3260.422       -2540.688          43.000          39.000  
 24  1 10  3 16 18.8000000  0  7G24G16G18G23G10G32G15
 129662088.521 6 101035484.014 5  24673873.649                    24673896.239  
       426.965         332.469          39.000          35.000  
 128870195.912 5 100418503.897 2  24523203.387    24523226.378                  
     -2107.523       -1642.281          32.000          16.000  
 114081475.190 7  88894720.819 6  21708983.936                    21708998.541  
     -1666.527       -1298.902          44.000          41.000  
 110759126.203 7  86305870.620 7  21076762.116                    21076776.537  
     -1703.535       -1327.574          42.000          44.000  
 109104373.804 7  85016463.205 7  20761871.924                    20761889.272  
       235.430         183.453          47.000          43.000  
 117585163.149 7  91624888.524 7  22375712.687                    22375732.472  
      3036.738        2365.922          45.000          44.000  
 127686399.971 7  99495972.759 6  24297916.783                    24297934.610  
     -3260.465       -2540.648          43.000          39.000  
 24  1 10  3 16 18.9000000  0  7G24G16G18G23G10G32G15
 129662045.907 6 101035450.789 5  24673865.540                    24673888.126  
       426.430         332.328          40.000          35.000  
 128870406.710 5 100418668.145 2  24523243.500    24523266.489                  
     -2107.684       -1642.277          32.000          16.000  
 114081641.931 7  88894850.752 6  21709015.665                    21709030.271  
     -1666.981       -1299.125          43.000          41.000  
 110759296.548 7  86306003.350 7  21076794.532                    21076808.951  
     -1703.582       -1327.594          42.000          44.000  
 109104350.289 7  85016444.852 7  20761867.449                    20761884.790  
       235.195         183.293          47.000          43.000  
 117584859.526 7  91624651.926 7  22375654.910                    22375674.692  
      3036.438        2366.012          46.000          44.000  
 127686726.021 7  99496226.739 6  24297978.828                    24297996.634  
     -3260.770       -2540.398          43.000          39.000  
 24  1 10  3 16 19.0000000  0  7G24G16G18G23G10G32G15
 129662003.259 6 101035417.510 6  24673857.643                    24673880.319  
       426.320         332.543          40.000          36.000  
 128870617.474 5 100418832.364 2  24523283.552    24523306.585                  
     -2107.484       -1641.887          31.000          16.000  
 114081808.606 7  88894980.612 6  21709047.101                    21709062.352  
     -1666.922       -1298.992          44.000          41.000  
 110759466.931 7  86306136.119 7  21076826.971                    21076841.289  
     -1703.809       -1327.473          42.000          44.000  
 109104326.753 7  85016426.503 7  20761863.165                    20761879.887  
       235.277         183.266          47.000          43.000  
 117584555.885 7  91624415.346 7  22375597.387                    22375617.222  
      3036.598        2366.047          46.000          44.000  
 127687052.064 7  99496480.840 6  24298040.340                    24298058.290  
     -3260.453       -2540.523          43.000          39.000  
 24  1 10  3 16 19.1000000  0  7G24G16G18G23G10G32G15
 129661960.673 6 101035384.363 6  24673849.539                    24673872.224  
       426.465         332.223          40.000          36.000  
 128870828.206 5 100418996.547 2  24523323.653    24523346.680                  
     -2107.688       -1642.305          30.000          16.000  
 114081975.315 7  88895110.531 7  21709078.825                    21709094.079  
     -1666.898       -1299.188          44.000          42.000  
 110759637.291 6  86306268.842 7  21076859.389                    21076873.701  
     -1703.527       -1327.426          41.000          44.000  
 109104303.237 8  85016408.196 7  20761858.691                    20761875.417  
       235.285         183.266          48.000          43.000  
 117584252.272 7  91624178.780 7  22375539.611                    22375559.450  
      3036.262        2365.504          47.000          44.000  
 127687378.148 7  99496734.977 6  24298102.392                    24298120.352  
     -3260.520       -2541.066          42.000          40.000  
 24  1 10  3 16 19.2000000  0  7G24G16G18G23G10G32G15
 129661918.070 6 101035351.165 5  24673841.651                    24673864.414  
       426.043         331.746          40.000          35.000  
 128871039.126 5 100419160.876 2  24523363.243    24523386.725                  
     -2108.406       -1643.051          30.000          16.000  
 114082142.068 7  88895240.463 6  21709110.737                    21709125.888  
     -1667.426       -1299.188          44.000          41.000  
 110759807.684 6  86306401.641 7  21076891.650                    21076906.069  
     -1703.820       -1327.887          41.000          44.000  
 109104279.769 8  85016389.912 7  20761854.732                    20761871.202  
       234.957         182.848          48.000          43.000  
 117583948.728 7  91623942.269 7  22375482.450                    22375501.434  
      3035.773        2365.234          46.000          44.000  
 127687704.244 7  99496989.065 6  24298163.767                    24298182.724  
     -3260.914       -2541.184          42.000          40.000  
 24  1 10  3 16 19.3000000  0  7G24G16G18G23G10G32G15
 129661875.494 6 101035317.972 5  24673833.549                    24673856.308  
       425.887         332.023          41.000          35.000  
 128871249.841 4 100419325.046 2  24523403.341    24523426.817                  
     -2107.652       -1641.875          29.000          16.000  
 114082308.825 7  88895370.406 6  21709142.470                    21709157.621  
     -1667.512       -1299.609          44.000          41.000  
 110759978.078 7  86306534.424 7  21076924.074                    21076938.496  
     -1703.820       -1327.750          42.000          44.000  
 109104256.253 7  85016371.579 7  20761850.257                    20761866.724  
       234.965         183.141          47.000          44.000  
 117583645.156 7  91623705.695 7  22375424.682                    22375443.660  
      3035.703        2365.344          46.000          44.000  
 127688030.328 7  99497243.189 6  24298225.818                    24298244.783  
     -3260.863       -2541.098          42.000          40.000  
 24  1 10  3 16 19.4000000  0  7G24G16G18G23G10G32G15
 129661832.908 6 101035284.778 5  24673825.437                    24673847.904  
       425.684         331.672          40.000          35.000  
 128871460.678 4 100419489.312 2  24523443.595    24523466.972                  
     -2108.270       -1642.938          28.000          16.000  
 114082475.566 7  88895500.305 7  21709174.176                    21709188.954  
     -1667.523       -1299.055          43.000          42.000  
 110760148.445 6  86306667.196 7  21076956.518                    21076971.272  
     -1703.711       -1327.512          41.000          44.000  
 109104232.768 7  85016353.263 7  20761845.835                    20761862.455  
       234.938         183.148          47.000          44.000  
 117583341.648 7  91623469.211 7  22375366.817                    22375386.190  
      3035.469        2365.117          46.000          44.000  
 127688356.433 7  99497497.289 6  24298287.640                    24298307.009  
     -3260.914       -2541.035          42.000          40.000  
 24  1 10  3 16 19.5000000  0  7G24G16G18G23G10G32G15
 129661790.322 6 101035251.596 5  24673817.333                    24673839.801  
       425.898         332.184          40.000          35.000  
 128871671.489 4 100419653.576 2  24523483.711    24523507.087                  
     -2107.988       -1642.348          29.000          16.000  
 114082642.341 7  88895630.266 7  21709205.912                    21709220.691  
     -1667.473       -1299.559          43.000          42.000  
 110760318.857 6  86306799.948 7  21076988.946                    21077003.692  
     -1703.891       -1327.590          41.000          43.000  
 109104209.251 7  85016334.954 7  20761841.360                    20761857.983  
       235.125         183.301          47.000          44.000  
 117583038.107 7  91623232.661 7  22375309.055                    22375328.422  
      3035.398        2365.422          45.000          44.000  
 127688682.516 7  99497751.355 6  24298349.691                    24298369.054  
     -3260.879       -2540.781          42.000          40.000  
 24  1 10  3 16 19.6000000  0  7G24G16G18G23G10G32G15
 129661747.828 6 101035218.447 5  24673808.888                    24673831.714  
       425.297         331.332          40.000          35.000  
 128871882.364 4 100419817.887 2  24523523.526    24523547.236                  
     -2108.414       -1642.961          29.000          16.000  
 114082809.154 7  88895760.270 7  21709237.890                    21709252.893  
     -1667.879       -1299.856          44.000          42.000  
 110760489.195 6  86306932.676 7  21077021.134                    21077035.988  
     -1703.812       -1327.895          41.000          43.000  
 109104185.772 7  85016316.650 7  20761836.564                    20761853.966  
       234.957         182.984          47.000          43.000  
 117582734.617 7  91622996.190 7  22375251.131                    22375270.610  
      3035.207        2364.570          45.000          43.000  
 127689008.628 7  99498005.501 6  24298411.897                    24298430.784  
     -3260.895       -2541.148          42.000          40.000  
 24  1 10  3 16 19.7000000  0  7G24G16G18G23G10G32G15
 129661705.324 6 101035185.342 5  24673800.799                    24673823.629  
       425.367         331.184          39.000          34.000  
 128872093.225 4 100419982.184 2  24523563.652    24523587.359                  
     -2108.445       -1642.910          29.000          16.000  
 114082975.987 7  88895890.239 7  21709269.637                    21709284.633  
     -1668.113       -1300.027          44.000          42.000  
 110760659.643 7  86307065.507 7  21077053.569                    21077068.427  
     -1704.148       -1328.047          42.000          43.000  
 109104162.324 7  85016298.376 7  20761832.102                    20761849.504  
       234.605         182.645          47.000          43.000  
 117582431.178 7  91622759.754 7  22375193.389                    22375212.870  
      3034.461        2364.438          45.000          43.000  
 127689334.774 7  99498259.649 6  24298473.960                    24298492.849  
     -3261.301       -2541.746          42.000          40.000  
 24  1 10  3 16 19.8000000  0  7G24G16G18G23G10G32G15
 129661662.782 6 101035152.235 5  24673792.751                    24673815.169  
       425.309         331.266          39.000          34.000  
 128872304.073 4 100420146.486 2  24523603.423    24523627.499                  
     -2108.500       -1643.008          29.000          16.000  
 114083142.808 7  88896020.219 6  21709301.515                    21709316.641  
     -1668.227       -1299.617          44.000          41.000  
 110760830.046 7  86307198.263 7  21077085.870                    21077100.706  
     -1704.141       -1327.816          42.000          43.000  
 109104138.856 7  85016280.112 7  20761827.816                    20761845.239  
       234.652         182.504          47.000          43.000  
 117582127.751 7  91622523.289 7  22375135.094                    22375154.162  
      3034.590        2364.598          45.000          43.000  
 127689660.859 7  99498513.757 6  24298536.614                    24298554.764  
     -3261.109       -2541.082          42.000          39.000  
 24  1 10  3 16 19.9000000  0  7G24G16G18G23G10G32G15
 129661620.291 6 101035119.098 5  24673784.665                    24673807.076  
       425.133         331.168          39.000          34.000  
 128872514.979 4 100420310.838 2  24523643.558    24523667.636                  
     -2108.672       -1643.258          29.000          16.000  
 114083309.673 7  88896150.245 6  21709333.268                    21709348.394  
     -1668.481       -1300.574          44.000          41.000  
 110761000.526 7  86307331.108 7  21077118.312                    21077133.148  
     -1704.438       -1328.254          42.000          43.000  
 109104115.463 7  85016261.881 7  20761823.365                    20761840.787  
       234.328         182.562          47.000          43.000  
 117581824.374 7  91622286.878 7  22375077.363                    22375096.428  
      3033.996        2364.086          45.000          43.000  
 127689987.011 7  99498767.888 6  24298598.678                    24298616.826  
     -3261.234       -2541.090          42.000          39.000  
 24  1 10  3 16 20.0000000  0  7G24G16G18G23G10G32G15
 129661577.846 6 101035086.074 5  24673776.775                    24673798.285  
       424.719         330.477          40.000          34.000  
 128872725.880 4 100420475.190 2  24523683.253    24523707.749                  
     -2108.828       -1643.398          29.000          16.000  
 114083476.578 7  88896280.332 6  21709365.022                    21709379.342  
     -1668.711       -1300.691          44.000          41.000  
 110761171.040 7  86307463.988 7  21077151.041                    21077165.263  
     -1704.688       -1328.555          42.000          43.000  
 109104092.080 7  85016243.633 7  20761818.907                    20761836.572  
       233.949         182.129          47.000          43.000  
 117581521.010 7  91622050.498 7  22375018.971                    22375039.108  
      3033.727        2363.793          45.000          43.000  
 127690313.148 7  99499022.034 6  24298660.748                    24298679.000  
     -3261.383       -2541.641          42.000          39.000  
 24  1 10  3 16 20.1000000  0  7G24G16G18G23G10G32G15
 129661535.418 6 101035052.916 5  24673768.702                    24673790.187  
       424.469         331.043          41.000          34.000  
 128872936.850 4 100420639.592 2  24523723.399    24523747.897                  
     -2109.266       -1643.848          29.000          16.000  
 114083643.518 7  88896410.421 7  21709396.789                    21709411.111  
     -1669.281       -1300.969          44.000          42.000  
 110761341.537 7  86307596.850 7  21077183.485                    21077197.709  
     -1704.938       -1328.832          42.000          43.000  
 109104068.747 7  85016225.493 7  20761814.467                    20761832.142  
       233.621         181.629          47.000          43.000  
 117581217.689 7  91621814.124 7  22374961.250                    22374981.383  
      3033.523        2363.594          46.000          43.000  
 127690639.376 6  99499276.164 6  24298722.827                    24298741.061  
     -3261.891       -2541.387          41.000          39.000  
 24  1 10  3 16 20.2000000  0  7G24G16G18G23G10G32G15
 129661492.979 6 101035019.896 5  24673761.040                    24673782.077  
       424.387         330.336          41.000          34.000  
 128873147.771 5 100420803.956 2  24523763.185    24523788.052                  
     -2109.145       -1643.523          31.000          16.000  
 114083810.454 7  88896540.479 7  21709428.657                    21709443.397  
     -1669.328       -1300.969          44.000          42.000  
 110761512.077 6  86307729.747 7  21077215.883                    21077230.305  
     -1705.109       -1328.812          41.000          43.000  
 109104045.427 7  85016207.306 7  20761810.318                    20761827.857  
       233.383         181.785          47.000          43.000  
 117580914.368 7  91621577.825 7  22374904.398                    22374923.364  
      3033.262        2363.102          46.000          43.000  
 127690965.515 6  99499530.213 6  24298784.928                    24298803.126  
     -3261.707       -2540.859          41.000          39.000  
 24  1 10  3 16 20.3000000  0  7G24G16G18G23G10G32G15
 129661450.545 6 101034986.852 5  24673752.965                    24673774.007  
       424.473         330.398          41.000          34.000  
 128873358.737 5 100420968.351 2  24523803.330    24523828.199                  
     -2109.578       -1644.117          30.000          16.000  
 114083977.428 7  88896670.609 7  21709460.432                    21709475.176  
     -1669.344       -1300.863          44.000          42.000  
 110761682.612 6  86307862.616 7  21077248.335                    21077262.753  
     -1705.270       -1328.930          41.000          44.000  
 109104022.096 7  85016189.112 7  20761805.879                    20761823.414  
       233.410         181.871          47.000          43.000  
 117580611.060 7  91621341.467 7  22374846.680                    22374865.643  
      3033.203        2363.676          46.000          43.000  
 127691291.654 7  99499784.398 6  24298846.990                    24298865.201  
     -3261.363       -2541.375          42.000          40.000  
 24  1 10  3 16 20.4000000  0  7G24G16G18G23G10G32G15
 129661408.145 6 101034953.804 5  24673745.162                    24673765.788  
       424.184         330.336          41.000          34.000  
 128873569.775 5 100421132.797 2  24523843.568    24523868.296                  
     -2109.871       -1644.254          30.000          16.000  
 114084144.403 7  88896800.685 6  21709492.253                    21709507.465  
     -1669.594       -1300.938          44.000          41.000  
 110761853.136 6  86307995.506 7  21077280.542                    21077295.183  
     -1705.223       -1328.731          41.000          43.000  
 109103998.797 7  85016170.971 7  20761801.375                    20761818.460  
       233.199         181.473          47.000          43.000  
 117580307.788 7  91621105.132 7  22374789.477                    22374808.084  
      3032.883        2363.188          46.000          43.000  
 127691617.900 7  99500038.613 6  24298908.948                    24298927.423  
     -3261.820       -2541.707          42.000          40.000  
 24  1 10  3 16 20.5000000  0  7G24G16G18G23G10G32G15
 129661365.782 6 101034920.768 5  24673737.101                    24673757.720  
       424.012         330.301          41.000          34.000  
 128873780.692 5 100421297.151 2  24523883.704    24523908.433                  
     -2109.520       -1643.684          30.000          16.000  
 114084311.400 7  88896930.827 6  21709524.031                    21709539.247  
     -1669.879       -1301.504          44.000          41.000  
 110762023.710 6  86308128.421 7  21077313.001                    21077327.642  
     -1705.555       -1329.231          41.000          43.000  
 109103975.530 8  85016152.847 7  20761796.947                    20761814.034  
       232.891         181.324          48.000          43.000  
 117580004.544 7  91620868.850 7  22374731.772                    22374750.381  
      3032.688        2362.852          46.000          43.000  
 127691944.123 7  99500292.774 6  24298971.026                    24298989.492  
     -3262.199       -2542.070          42.000          40.000  
 24  1 10  3 16 20.6000000  0  7G24G16G18G23G10G32G15
 129661323.429 6 101034887.750 5  24673728.424                    24673749.509  
       423.711         330.203          40.000          34.000  
 128873991.700 5 100421461.575 2  24523923.928    24523948.548                  
     -2109.824       -1644.141          30.000          16.000  
 114084478.376 7  88897060.922 6  21709556.228                    21709570.822  
     -1669.930       -1301.250          44.000          41.000  
 110762194.266 7  86308261.289 7  21077345.043                    21077360.089  
     -1705.641       -1328.867          42.000          43.000  
 109103952.224 8  85016134.691 7  20761792.684                    20761808.858  
       232.941         181.559          48.000          43.000  
 117579701.291 7  91620632.532 7  22374674.158                    22374693.170  
      3032.539        2363.129          46.000          43.000  
 127692270.316 7  99500546.988 6  24299033.122                    24299051.863  
     -3262.125       -2542.230          42.000          40.000  
 24  1 10  3 16 20.7000000  0  7G24G16G18G23G10G32G15
 129661281.026 6 101034854.688 5  24673720.355                    24673741.435  
       423.898         330.582          40.000          34.000  
 128874202.724 5 100421625.999 2  24523964.084    24523988.702                  
     -2109.871       -1643.938          30.000          16.000  
 114084645.348 7  88897191.055 6  21709588.001                    21709602.602  
     -1669.484       -1300.895          44.000          41.000  
 110762364.737 7  86308394.125 7  21077377.483                    21077392.529  
     -1705.168       -1328.555          42.000          43.000  
 109103928.882 8  85016116.513 7  20761788.242                    20761804.419  
       233.340         181.754          48.000          43.000  
 117579398.027 7  91620396.218 7  22374616.449                    22374635.460  
      3032.781        2363.105          46.000          43.000  
 127692596.503 7  99500801.169 6  24299095.193                    24299113.936  
     -3261.883       -2541.613          43.000          40.000  
 24  1 10  3 16 20.8000000  0  7G24G16G18G23G10G32G15
 129661238.629 6 101034821.736 5  24673712.123                    24673733.137  
       423.883         329.859          40.000          33.000  
 128874413.776 5 100421790.448 2  24524004.105    24524028.878                  
     -2110.285       -1644.473          30.000          15.000  
 114084812.349 7  88897321.189 6  21709619.773                    21709634.280  
     -1669.992       -1301.371          44.000          41.000  
 110762535.293 7  86308527.085 7  21077410.462                    21077425.148  
     -1705.312       -1329.129          42.000          43.000  
 109103905.596 8  85016098.365 7  20761783.678                    20761799.815  
       233.102         181.605          48.000          43.000  
 117579094.811 7  91620159.970 7  22374558.632                    22374577.617  
      3032.367        2362.734          46.000          43.000  
 127692922.674 7  99501055.337 6  24299157.949                    24299176.327  
     -3261.809       -2541.688          43.000          41.000  
 24  1 10  3 16 20.9000000  0  7G24G16G18G23G10G32G15
 129661196.318 6 101034788.650 5  24673704.072                    24673725.057  
       423.414         330.625          39.000          33.000  
 128874624.771 5 100421954.862 2  24524044.256    24524069.029                  
     -2109.973       -1643.984          30.000          15.000  
 114084979.320 7  88897451.325 7  21709651.546                    21709666.061  
     -1669.680       -1301.414          43.000          42.000  
 110762705.849 6  86308659.938 7  21077442.918                    21077457.592  
     -1705.340       -1328.492          41.000          43.000  
 109103882.274 8  85016080.173 7  20761779.240                    20761795.373  
       233.137         181.863          48.000          43.000  
 117578791.576 7  91619923.674 7  22374500.928                    22374519.911  
      3032.355        2362.652          46.000          43.000  
 127693248.903 7  99501309.526 6  24299220.028                    24299238.402  
     -3261.957       -2541.754          42.000          40.000  
 24  1 10  3 16 21.0000000  0  7G24G16G18G23G10G32G15
 129661154.019 6 101034755.709 5  24673695.780                    24673716.708  
       423.277         329.879          38.000          33.000  
 128874835.732 5 100422119.255 2  24524084.198    24524109.176                  
     -2110.035       -1644.332          31.000          15.000  
 114085146.362 7  88897581.487 7  21709682.497                    21709698.199  
     -1670.215       -1301.621          43.000          42.000  
 110762876.404 6  86308792.840 7  21077475.404                    21077490.017  
     -1705.613       -1329.234          41.000          43.000  
 109103859.009 8  85016062.036 7  20761774.696                    20761790.795  
       232.828         181.219          48.000          43.000  
 117578488.384 7  91619687.453 7  22374443.522                    22374461.927  
      3032.078        2362.367          46.000          43.000  
 127693575.127 7  99501563.725 6  24299282.052                    24299300.629  
     -3262.055       -2541.926          42.000          40.000  
 24  1 10  3 16 21.1000000  0  7G24G16G18G23G10G32G15
 129661111.697 6 101034722.776 5  24673687.726                    24673708.666  
       423.230         328.988          38.000          33.000  
 128875046.898 5 100422283.803 2  24524124.381    24524149.360                  
     -2110.859       -1645.277          31.000          15.000  
 114085313.427 7  88897711.677 7  21709714.289                    21709729.993  
     -1670.484       -1301.809          44.000          42.000  
 110763046.972 6  86308925.740 7  21077507.862                    21077522.472  
     -1705.785       -1329.340          41.000          43.000  
 109103835.747 8  85016043.910 7  20761770.269                    20761786.368  
       232.719         181.199          48.000          43.000  
 117578185.274 7  91619451.239 7  22374385.842                    22374404.241  
      3031.488        2362.090          46.000          43.000  
 127693901.346 7  99501817.941 6  24299344.130                    24299362.711  
     -3262.254       -2542.102          42.000          40.000  
 24  1 10  3 16 21.2000000  0  7G24G16G18G23G10G32G15
 129661069.387 6 101034689.902 5  24673679.269                    24673700.427  
       423.055         329.082          37.000          32.000  
 128875257.987 5 100422448.289 2  24524164.628    24524189.498                  
     -2110.965       -1645.180          30.000          15.000  
 114085480.549 7  88897841.812 7  21709746.435                    21709762.258  
     -1671.059       -1301.754          44.000          42.000  
 110763217.603 6  86309058.712 7  21077540.207                    21077554.891  
     -1705.980       -1329.602          41.000          43.000  
 109103812.523 8  85016025.850 7  20761766.092                    20761782.309  
       232.387         180.730          48.000          43.000  
 117577882.134 7  91619215.009 7  22374328.148                    22374346.629  
      3031.480        2362.180          46.000          43.000  
 127694227.609 7  99502072.153 6  24299405.950                    24299424.417  
     -3262.438       -2542.152          42.000          40.000  
 24  1 10  3 16 21.3000000  0  7G24G16G18G23G10G32G15
 129661027.124 6 101034656.888 5  24673671.226                    24673692.364  
       422.934         329.980          38.000          32.000  
 128875469.055 5 100422612.762 2  24524204.793    24524229.664                  
     -2110.621       -1644.496          30.000          14.000  
 114085647.593 7  88897972.036 7  21709778.222                    21709794.060  
     -1670.578       -1301.895          44.000          42.000  
 110763388.181 7  86309191.628 7  21077572.667                    21077587.350  
     -1705.965       -1329.371          42.000          43.000  
 109103789.259 8  85016007.694 7  20761761.665                    20761777.876  
       232.484         181.305          48.000          43.000  
 117577578.946 7  91618978.761 7  22374270.454                    22374288.935  
      3031.625        2362.371          46.000          43.000  
 127694553.818 7  99502326.329 6  24299468.025                    24299486.490  
     -3262.301       -2542.152          42.000          39.000  
 24  1 10  3 16 21.4000000  0  7G24G16G18G23G10G32G15
 129660984.804 6 101034623.882 5  24673663.204                    24673684.132  
       423.055         329.723          38.000          32.000  
 128875680.013 4 100422777.142 2  24524245.398    24524269.885                  
     -2110.277       -1644.301          29.000          15.000  
 114085814.643 7  88898102.194 7  21709810.167                    21709825.768  
     -1670.508       -1301.371          44.000          42.000  
 110763558.810 7  86309324.586 7  21077605.246                    21077620.171  
     -1705.953       -1329.102          42.000          43.000  
 109103766.014 7  85015989.601 7  20761757.031                    20761774.184  
       232.574         181.195          47.000          43.000  
 117577275.758 7  91618742.510 7  22374212.235                    22374231.865  
      3031.758        2362.590          46.000          43.000  
 127694880.096 7  99502580.568 6  24299530.153                    24299548.484  
     -3262.508       -2542.000          42.000          39.000  
 24  1 10  3 16 21.5000000  0  7G24G16G18G23G10G32G15
 129660942.411 6 101034590.830 5  24673655.137                    24673676.060  
       423.469         330.230          39.000          32.000  
 128875891.104 4 100422941.615 2  24524285.567    24524310.051                  
     -2110.434       -1644.348          29.000          16.000  
 114085981.667 7  88898232.335 6  21709841.951                    21709857.549  
     -1670.223       -1301.356          44.000          41.000  
 110763729.328 7  86309457.443 7  21077637.695                    21077652.617  
     -1705.418       -1328.820          42.000          43.000  
 109103742.716 7  85015971.439 7  20761752.597                    20761769.748  
       232.844         181.492          47.000          43.000  
 117576972.573 7  91618506.270 7  22374154.541                    22374174.173  
      3031.906        2362.543          46.000          43.000  
 127695206.327 7  99502834.779 6  24299592.233                    24299610.565  
     -3262.375       -2542.273          42.000          39.000  
 24  1 10  3 16 21.6000000  0  7G24G16G18G23G10G32G15
 129660900.117 6 101034557.856 5  24673647.409                    24673668.031  
       423.152         330.164          39.000          32.000  
 128876102.118 5 100423106.029 2  24524326.222    24524350.226                  
     -2110.449       -1644.445          30.000          15.000  
 114086148.633 7  88898362.431 6  21709873.668                    21709889.000  
     -1669.984       -1301.133          44.000          41.000  
 110763899.828 7  86309590.311 7  21077670.273                    21077685.111  
     -1705.242       -1328.652          42.000          43.000  
 109103719.408 8  85015953.290 7  20761748.576                    20761765.887  
       233.027         181.656          48.000          43.000  
 117576669.390 7  91618270.056 7  22374097.113                    22374116.643  
      3032.027        2362.355          46.000          43.000  
 127695532.552 7  99503088.993 6  24299654.171                    24299672.201  
     -3262.250       -2542.051          42.000          39.000  
 24  1 10  3 16 21.7000000  0  7G24G16G18G23G10G32G15
 129660857.824 6 101034524.959 5  24673639.361                    24673659.997  
       423.043         329.270          39.000          32.000  
 128876313.291 5 100423270.522 2  24524366.407    24524390.397                  
     -2111.004       -1644.688          30.000          15.000  
 114086315.680 7  88898492.638 6  21709905.457                    21709920.798  
     -1670.031       -1301.473          44.000          41.000  
 110764070.397 7  86309723.251 7  21077702.731                    21077717.576  
     -1705.324       -1329.121          42.000          43.000  
 109103696.136 8  85015935.144 7  20761744.147                    20761761.455  
       232.820         181.562          48.000          43.000  
 117576366.225 7  91618033.819 7  22374039.423                    22374058.952  
      3031.777        2362.312          46.000          42.000  
 127695858.781 6  99503343.187 6  24299716.250                    24299734.278  
     -3262.340       -2542.254          41.000          39.000  
 24  1 10  3 16 21.8000000  0  7G24G16G18G23G10G32G15
 129660815.517 6 101034492.050 5  24673631.545                    24673651.718  
       423.102         329.535          39.000          31.000  
 128876524.308 4 100423434.887 2  24524406.906    24524430.560                  
     -2110.629       -1644.012          29.000          15.000  
 114086482.701 7  88898622.765 6  21709936.982                    21709952.553  
     -1670.289       -1301.922          44.000          41.000  
 110764240.960 7  86309856.101 7  21077735.329                    21077749.645  
     -1705.801       -1329.137          42.000          43.000  
 109103672.859 7  85015916.992 7  20761739.937                    20761756.827  
       232.676         181.270          47.000          43.000  
 117576063.067 7  91617797.568 7  22373981.015                    22374001.038  
      3031.543        2362.098          46.000          42.000  
 127696185.055 6  99503597.415 6  24299777.955                    24299796.472  
     -3262.430       -2542.301          41.000          38.000  
 24  1 10  3 16 21.9000000  0  7G24G16G18G23G10G32G15
 129660773.226 6 101034459.046 5  24673623.497                    24673643.658  
       422.938         329.555          39.000          32.000  
 128876735.494 5 100423599.466 2  24524447.093    24524470.752                  
     -2111.387       -1645.684          30.000          15.000  
 114086649.717 7  88898752.910 6  21709968.764                    21709984.335  
     -1670.371       -1301.266          44.000          41.000  
 110764411.509 6  86309989.031 7  21077767.783                    21077782.108  
     -1705.449       -1328.754          41.000          43.000  
 109103649.600 7  85015898.882 7  20761735.511                    20761752.404  
       232.652         181.051          47.000          43.000  
 117575759.908 7  91617561.366 7  22373923.326                    22373943.355  
      3031.527        2361.836          46.000          42.000  
 127696511.290 6  99503851.638 6  24299840.035                    24299858.556  
     -3262.492       -2542.172          40.000          38.000  
 24  1 10  3 16 22.0000000  0  7G24G16G18G23G10G32G15
 129660730.925 6 101034426.096 5  24673615.080                    24673635.823  
       423.031         329.594          39.000          32.000  
 128876946.590 5 100423763.983 2  24524487.506    24524510.874                  
     -2111.062       -1645.145          30.000          15.000  
 114086816.721 7  88898883.017 6  21710000.958                    21710016.093  
     -1670.164       -1301.434          44.000          41.000  
 110764582.039 6  86310121.891 7  21077800.390                    21077814.913  
     -1705.375       -1328.789          41.000          43.000  
 109103626.353 8  85015880.768 7  20761730.759                    20761747.731  
       232.617         181.223          48.000          43.000  
 117575456.799 7  91617325.159 7  22373865.747                    22373885.171  
      3031.391        2362.375          46.000          42.000  
 127696837.498 6  99504105.779 6  24299901.275                    24299919.925  
     -3262.227       -2541.613          40.000          38.000  
 24  1 10  3 16 22.1000000  0  7G24G16G18G23G10G32G15
 129660688.590 6 101034393.087 5  24673607.024                    24673627.761  
       423.129         329.840          39.000          34.000  
 128877157.746 5 100423928.548 2  24524527.687    24524551.063                  
     -2111.473       -1645.770          30.000          15.000  
 114086983.767 7  88899013.198 7  21710032.746                    21710047.885  
     -1670.121       -1301.293          44.000          42.000  
 110764752.526 6  86310254.771 7  21077832.833                    21077847.363  
     -1705.195       -1328.988          41.000          43.000  
 109103603.101 8  85015862.646 7  20761726.334                    20761743.305  
       232.621         181.191          48.000          43.000  
 117575153.632 7  91617088.940 7  22373808.057                    22373827.484  
      3031.500        2362.051          46.000          42.000  
 127697163.714 6  99504359.979 6  24299963.352                    24299982.003  
     -3262.254       -2541.910          40.000          38.000  
 24  1 10  3 16 22.2000000  0  7G24G16G18G23G10G32G15
 129660646.321 6 101034360.155 5  24673598.770                    24673620.125  
       422.977         329.277          39.000          34.000  
 128877368.901 5 100424093.104 2  24524567.814    24524591.280                  
     -2111.531       -1645.711          30.000          15.000  
 114087150.802 7  88899143.347 6  21710064.461                    21710079.590  
     -1670.320       -1301.668          44.000          41.000  
 110764923.124 6  86310387.661 7  21077864.999                    21077879.887  
     -1705.793       -1329.191          41.000          43.000  
 109103579.890 8  85015844.568 7  20761721.933                    20761738.578  
       232.297         180.969          48.000          43.000  
 117574850.538 7  91616852.748 7  22373750.099                    22373769.460  
      3031.164        2361.656          46.000          42.000  
 127697489.969 6  99504614.195 6  24300025.209                    24300043.874  
     -3262.348       -2542.426          40.000          38.000  
 24  1 10  3 16 22.3000000  0  7G24G16G18G23G10G32G15
 129660604.110 6 101034327.271 5  24673590.737                    24673612.095  
       422.406         328.938          39.000          34.000  
 128877580.196 5 100424257.758 2  24524608.022    24524631.490                  
     -2112.133       -1646.191          30.000          15.000  
 114087317.908 7  88899273.573 6  21710096.260                    21710111.393  
     -1670.812       -1302.164          44.000          41.000  
 110765093.712 6  86310520.634 7  21077897.461                    21077912.360  
     -1705.797       -1329.617          41.000          43.000  
 109103556.732 8  85015826.505 7  20761717.526                    20761734.166  
       231.809         180.305          48.000          43.000  
 117574547.494 7  91616616.617 7  22373692.431                    22373711.794  
      3030.734        2361.363          46.000          42.000  
 127697816.201 6  99504868.497 6  24300087.289                    24300105.977  
     -3262.391       -2542.629          40.000          38.000  
 24  1 10  3 16 22.4000000  0  7G24G16G18G23G10G32G15
 129660561.904 6 101034294.363 5  24673582.698                    24673604.582  
       422.332         328.961          40.000          34.000  
 128877791.348 5 100424422.304 2  24524648.164    24524671.698                  
     -2111.930       -1645.801          30.000          15.000  
 114087485.034 7  88899403.769 6  21710127.883                    21710142.907  
     -1671.148       -1302.113          44.000          41.000  
 110765264.449 7  86310653.656 7  21077929.748                    21077944.603  
     -1706.656       -1329.801          42.000          43.000  
 109103533.603 8  85015808.495 7  20761713.203                    20761729.588  
       231.555         180.199          48.000          43.000  
 117574244.448 7  91616380.483 7  22373635.373                    22373654.128  
      3030.523        2361.336          46.000          42.000  
 127698142.481 6  99505122.747 6  24300149.574                    24300168.318  
     -3262.594       -2542.812          40.000          38.000  
 24  1 10  3 16 22.5000000  0  7G24G16G18G23G10G32G15
 129660519.710 6 101034261.487 5  24673574.669                    24673596.553  
       422.160         328.945          40.000          35.000  
 128878002.642 5 100424586.936 2  24524688.372    24524711.902                  
     -2112.340       -1646.027          30.000          15.000  
 114087652.183 7  88899533.987 6  21710159.691                    21710174.707  
     -1671.422       -1302.422          44.000          41.000  
 110765435.129 6  86310786.634 7  21077962.228                    21077977.078  
     -1706.625       -1330.172          41.000          43.000  
 109103510.505 8  85015790.495 7  20761708.807                    20761725.193  
       231.227         179.992          48.000          43.000  
 117573941.412 7  91616144.330 7  22373577.707                    22373596.457  
      3030.457        2361.469          46.000          42.000  
 127698468.879 6  99505377.027 6  24300211.685                    24300230.415  
     -3263.344       -2542.672          40.000          38.000  
 24  1 10  3 16 22.6000000  0  7G24G16G18G23G10G32G15
 129660477.531 6 101034228.606 5  24673566.978                    24673589.094  
       421.984         328.941          40.000          35.000  
 128878213.878 5 100424751.521 2  24524728.483    24524752.072                  
     -2112.543       -1646.231          30.000          15.000  
 114087819.354 7  88899664.313 6  21710191.698                    21710206.394  
     -1671.383       -1302.809          44.000          41.000  
 110765605.827 6  86310919.675 7  21077995.031                    21078009.677  
     -1706.898       -1330.207          41.000          43.000  
 109103487.446 7  85015772.521 7  20761704.411                    20761721.319  
       230.914         179.875          47.000          43.000  
 117573638.420 7  91615908.241 7  22373520.112                    22373538.801  
      3030.211        2361.090          46.000          42.000  
 127698795.226 6  99505631.300 6  24300273.787                    24300292.097  
     -3263.367       -2542.812          40.000          39.000  
 24  1 10  3 16 22.7000000  0  7G24G16G18G23G10G32G15
 129660435.301 6 101034195.786 5  24673558.942                    24673581.079  
       422.066         328.320          40.000          35.000  
 128878425.223 4 100424916.231 2  24524768.700    24524792.296                  
     -2113.016       -1647.023          29.000          15.000  
 114087986.585 7  88899794.637 6  21710223.521                    21710238.220  
     -1671.934       -1303.141          44.000          41.000  
 110765776.616 7  86311052.757 7  21078027.531                    21078042.177  
     -1707.379       -1330.703          42.000          43.000  
 109103464.427 7  85015754.574 7  20761700.031                    20761716.936  
       230.457         179.410          47.000          43.000  
 117573335.459 7  91615672.151 7  22373462.460                    22373481.146  
      3029.902        2360.742          46.000          42.000  
 127699121.593 6  99505885.616 6  24300335.892                    24300354.204  
     -3263.672       -2543.258          40.000          39.000  
 24  1 10  3 16 22.8000000  0  7G24G16G18G23G10G32G15
 129660393.193 6 101034162.936 5  24673550.406                    24673572.931  
       421.551         328.516          39.000          35.000  
 128878636.434 4 100425080.843 2  24524809.166    24524832.535                  
     -2112.309       -1645.926          29.000          15.000  
 114088153.805 7  88899924.925 6  21710255.459                    21710270.014  
     -1672.047       -1302.969          44.000          41.000  
 110765947.374 7  86311185.795 7  21078059.822                    21078074.651  
     -1707.684       -1330.570          42.000          43.000  
 109103441.408 8  85015736.646 7  20761695.541                    20761712.245  
       230.402         179.152          48.000          43.000  
 117573032.478 7  91615436.116 7  22373404.711                    22373423.402  
      3029.824        2360.680          46.000          42.000  
 127699447.941 6  99506139.937 6  24300398.135                    24300416.796  
     -3263.676       -2543.527          41.000          38.000  
 24  1 10  3 16 22.9000000  0  7G24G16G18G23G10G32G15
 129660351.069 6 101034130.073 5  24673542.390                    24673564.906  
       421.398         328.504          39.000          35.000  
 128878847.683 4 100425245.462 2  24524849.365    24524872.737                  
     -2112.527       -1646.305          29.000          15.000  
 114088321.088 7  88900055.264 6  21710287.292                    21710301.845  
     -1672.570       -1303.465          44.000          41.000  
 110766118.185 7  86311318.890 7  21078092.326                    21078107.154  
     -1707.715       -1330.988          42.000          43.000  
 109103418.446 8  85015718.761 7  20761691.172                    20761707.878  
       229.980         179.051          48.000          43.000  
 117572729.572 7  91615200.060 7  22373347.070                    22373365.755  
      3029.383        2360.398          46.000          42.000  
 127699774.378 7  99506394.458 6  24300460.254                    24300478.953  
     -3263.828       -2544.543          42.000          38.000  
 24  1 10  3 16 23.0000000  0  7G24G16G18G23G10G32G15
 129660308.982 6 101034097.273 5  24673534.264                    24673556.935  
       421.023         328.320          39.000          35.000  
 128879059.116 4 100425410.233 2  24524889.842    24524912.960                  
     -2113.383       -1647.219          29.000          15.000  
 114088488.366 7  88900185.629 6  21710318.928                    21710334.095  
     -1672.609       -1303.777          44.000          41.000  
 110766289.010 7  86311452.035 7  21078124.895                    21078139.341  
     -1707.977       -1331.188          42.000          43.000  
 109103395.499 8  85015700.897 7  20761687.087                    20761703.062  
       229.699         178.688          48.000          43.000  
 117572426.717 7  91614964.057 7  22373289.720                    22373308.472  
      3028.922        2359.961          46.000          42.000  
 127700100.801 7  99506648.774 6  24300522.815                    24300540.286  
     -3263.984       -2543.141          42.000          38.000  
 24  1 10  3 16 23.1000000  0  7G24G16G18G23G10G32G15
 129660266.925 6 101034064.525 5  24673526.261                    24673548.937  
       420.891         327.875          39.000          35.000  
 128879270.432 4 100425574.906 2  24524930.054    24524953.175                  
     -2113.480       -1647.250          29.000          15.000  
 114088655.721 7  88900316.048 6  21710350.775                    21710365.945  
     -1673.250       -1304.129          44.000          41.000  
 110766459.873 7  86311585.173 7  21078157.410                    21078171.855  
     -1708.453       -1331.582          42.000          43.000  
 109103372.599 8  85015683.018 7  20761682.729                    20761698.696  
       229.262         178.664          48.000          43.000  
 117572123.872 7  91614728.091 7  22373232.091                    22373250.847  
      3028.539        2359.559          46.000          42.000  
 127700427.257 7  99506903.039 6  24300584.938                    24300602.380  
     -3264.539       -2543.312          42.000          39.000  
 24  1 10  3 16 23.2000000  0  7G24G16G18G23G10G32G15
 129660224.786 6 101034031.732 5  24673518.125                    24673541.007  
       421.148         327.781          39.000          35.000  
 128879481.825 5 100425739.640 2  24524970.250    24524993.444                  
     -2113.402       -1646.848          30.000          15.000  
 114088823.016 7  88900446.383 6  21710382.188                    21710396.821  
     -1673.023       -1303.680          44.000          41.000  
 110766630.688 7  86311718.257 7  21078189.750                    21078204.668  
     -1708.305       -1331.047          42.000          43.000  
 109103349.674 8  85015665.160 7  20761678.327                    20761694.374  
       229.277         178.637          48.000          43.000  
 117571821.049 7  91614492.125 7  22373173.911                    22373193.487  
      3028.434        2359.785          46.000          42.000  
 127700753.667 7  99507157.413 6  24300647.169                    24300665.423  
     -3264.156       -2543.312          42.000          39.000  
 24  1 10  3 16 23.3000000  0  7G24G16G18G23G10G32G15
 129660182.684 6 101033998.875 5  24673510.113                    24673532.983  
       421.055         328.656          39.000          35.000  
 128879693.121 5 100425904.301 2  24525010.458    24525033.655                  
     -2113.453       -1647.094          30.000          15.000  
 114088990.357 7  88900576.793 6  21710414.032                    21710428.668  
     -1673.012       -1303.465          44.000          41.000  
 110766801.517 7  86311851.388 7  21078222.258                    21078237.180  
     -1708.059       -1331.047          42.000          43.000  
 109103326.749 8  85015647.322 7  20761673.965                    20761690.018  
       229.398         178.781          48.000          43.000  
 117571518.214 7  91614256.126 7  22373116.283                    22373135.854  
      3028.281        2359.586          46.000          42.000  
 127701080.079 7  99507411.703 6  24300709.283                    24300727.523  
     -3264.094       -2543.016          42.000          40.000  
 24  1 10  3 16 23.4000000  0  7G24G16G18G23G10G32G15
 129660140.669 6 101033966.100 5  24673501.680                    24673524.909  
       420.246         327.328          39.000          35.000  
 128879904.535 5 100426069.046 2  24525050.884    24525073.864                  
     -2114.277       -1647.609          30.000          15.000  
 114089157.707 7  88900707.151 6  21710445.886                    21710460.237  
     -1673.711       -1304.270          43.000          41.000  
 110766972.413 6  86311984.547 7  21078255.076                    21078269.425  
     -1708.863       -1331.180          41.000          43.000  
 109103303.871 8  85015629.463 7  20761669.619                    20761686.039  
       228.773         178.141          48.000          43.000  
 117571215.481 7  91614020.255 7  22373058.745                    22373078.392  
      3027.523        2359.180          45.000          42.000  
 127701406.506 7  99507666.053 6  24300771.455                    24300790.685  
     -3264.133       -2543.281          42.000          40.000  
 24  1 10  3 16 23.5000000  0  7G24G16G18G23G10G32G15
 129660098.602 6 101033933.396 5  24673493.675                    24673516.922  
       420.719         327.539          38.000          34.000  
 128880115.953 5 100426233.779 2  24525091.115    24525114.094                  
     -2113.875       -1647.086          30.000          15.000  
 114089325.013 7  88900837.579 6  21710477.723                    21710492.089  
     -1673.195       -1304.066          44.000          41.000  
 110767143.221 6  86312117.634 7  21078287.579                    21078301.926  
     -1708.512       -1331.246          41.000          43.000  
 109103280.958 8  85015611.624 7  20761665.259                    20761681.682  
       229.105         178.477          48.000          43.000  
 117570912.716 7  91613784.328 7  22373001.131                    22373020.777  
      3027.531        2359.078          45.000          42.000  
 127701732.825 7  99507920.343 6  24300833.551                    24300852.785  
     -3263.457       -2543.289          43.000          40.000  
 24  1 10  3 16 23.6000000  0  7G24G16G18G23G10G32G15
 129660056.566 6 101033900.568 5  24673485.918                    24673508.538  
       420.641         328.074          38.000          34.000  
 128880327.340 5 100426398.474 2  24525131.403    24525154.369                  
     -2113.910       -1647.109          30.000          14.000  
 114089492.421 7  88900968.001 6  21710510.079                    21710524.494  
     -1673.356       -1303.711          44.000          41.000  
 110767314.052 7  86312250.752 7  21078319.783                    21078334.802  
     -1708.227       -1331.180          42.000          43.000  
 109103258.052 8  85015593.766 7  20761660.986                    20761677.712  
       229.078         178.598          48.000          43.000  
 117570609.987 7  91613548.387 7  22372943.555                    22372962.939  
      3027.434        2359.246          45.000          42.000  
 127702059.174 7  99508174.696 6  24300896.098                    24300915.236  
     -3263.461       -2543.176          44.000          40.000  
 24  1 10  3 16 23.7000000  0  7G24G16G18G23G10G32G15
 129660014.415 6 101033867.842 5  24673477.897                    24673500.546  
       421.027         327.043          38.000          34.000  
 128880538.750 5 100426563.204 2  24525171.633    24525194.598                  
     -2114.211       -1647.578          31.000          15.000  
 114089659.722 7  88901098.327 6  21710541.916                    21710556.321  
     -1673.309       -1303.793          44.000          41.000  
 110767484.822 7  86312383.833 7  21078352.279                    21078367.302  
     -1707.988       -1330.785          42.000          43.000  
 109103235.131 8  85015575.909 7  20761656.624                    20761673.351  
       229.230         178.520          48.000          43.000  
 117570307.235 7  91613312.491 7  22372885.943                    22372905.330  
      3027.590        2359.004          45.000          42.000  
 127702385.518 7  99508429.011 6  24300958.200                    24300977.343  
     -3263.406       -2543.078          44.000          40.000  
 24  1 10  3 16 23.8000000  0  7G24G16G18G23G10G32G15
 129659972.348 6 101033835.037 5  24673470.587                    24673492.035  
       420.789         327.883          39.000          34.000  
 128880750.212 5 100426727.965 2  24525212.170    24525234.834                  
     -2114.109       -1647.129          31.000          15.000  
 114089827.035 7  88901228.751 6  21710573.606                    21710588.500  
     -1673.328       -1304.133          44.000          41.000  
 110767655.627 6  86312516.939 7  21078384.782                    21078399.620  
     -1707.879       -1330.844          41.000          43.000  
 109103212.205 8  85015558.070 7  20761652.293                    20761668.932  
       229.211         178.617          48.000          43.000  
 117570004.486 7  91613076.618 7  22372828.160                    22372847.970  
      3027.527        2358.832          46.000          42.000  
 127702711.892 7  99508683.265 6  24301020.799                    24301039.489  
     -3263.559       -2542.703          43.000          40.000  
 24  1 10  3 16 23.9000000  0  7G24G16G18G23G10G32G15
 129659930.283 6 101033802.229 5  24673462.583                    24673484.023  
       420.656         328.039          39.000          35.000  
 128880961.560 5 100426892.640 2  24525252.388    24525275.049                  
     -2113.910       -1646.977          31.000          15.000  
 114089994.418 7  88901359.176 7  21710605.458                    21710620.351  
     -1673.453       -1304.180          44.000          42.000  
 110767826.434 7  86312649.997 7  21078417.286                    21078432.114  
     -1708.242       -1330.938          42.000          43.000  
 109103189.286 8  85015540.172 7  20761647.931                    20761664.561  
       229.160         178.500          48.000          43.000  
 117569701.773 7  91612840.720 7  22372770.556                    22372790.361  
      3027.172        2358.871          46.000          42.000  
 127703038.281 7  99508937.617 6  24301082.908                    24301101.604  
     -3263.758       -2543.527          42.000          40.000  
 24  1 10  3 16 24.0000000  0  7G24G16G18G23G10G32G15
 129659888.227 6 101033769.474 5  24673454.923                    24673476.219  
       420.605         327.371          39.000          35.000  
 128881173.106 5 100427057.467 2  24525292.668    24525315.286                  
     -2114.707       -1647.984          31.000          15.000  
 114090161.720 7  88901489.564 7  21710637.552                    21710653.178  
     -1673.301       -1304.000          44.000          42.000  
 110767997.226 6  86312783.148 7  21078449.903                    21078464.874  
     -1707.820       -1331.180          41.000          43.000  
 109103166.365 8  85015522.351 7  20761643.484                    20761660.147  
       229.281         178.645          48.000          43.000  
 117569399.060 7  91612604.833 7  22372713.623                    22372732.622  
      3027.219        2358.914          46.000          42.000  
 127703364.680 7  99509191.974 6  24301144.669                    24301163.088  
     -3263.926       -2543.602          42.000          39.000  
 24  1 10  3 16 24.1000000  0  7G24G16G18G23G10G32G15
 129659846.231 6 101033736.750 5  24673446.932                    24673468.227  
       420.215         327.258          39.000          35.000  
 128881384.527 5 100427222.219 2  24525332.900    24525355.520                  
     -2114.453       -1647.676          30.000          15.000  
 114090329.073 7  88901619.927 7  21710669.398                    21710685.014  
     -1673.453       -1303.731          44.000          42.000  
 110768168.026 7  86312916.198 7  21078482.406                    21078497.366  
     -1708.121       -1330.727          42.000          43.000  
 109103143.425 8  85015504.445 7  20761639.118                    20761655.774  
       229.281         178.648          48.000          43.000  
 117569096.320 7  91612368.915 7  22372656.014                    22372675.009  
      3027.297        2358.777          46.000          42.000  
 127703691.065 6  99509446.278 6  24301206.778                    24301225.192  
     -3264.051       -2543.551          41.000          38.000  
 24  1 10  3 16 24.2000000  0  7G24G16G18G23G10G32G15
 129659804.217 6 101033704.005 5  24673439.281                    24673460.324  
       420.207         327.480          40.000          35.000  
 128881595.986 5 100427386.998 2  24525373.053    24525395.800                  
     -2114.656       -1648.051          31.000          15.000  
 114090496.455 7  88901750.350 6  21710701.375                    21710716.599  
     -1673.551       -1304.031          44.000          41.000  
 110768338.829 7  86313049.267 7  21078515.158                    21078529.823  
     -1707.949       -1330.859          42.000          43.000  
 109103120.505 8  85015486.596 7  20761634.577                    20761651.087  
       229.262         178.711          48.000          43.000  
 117568793.621 7  91612133.083 7  22372598.349                    22372617.307  
      3027.180        2358.531          46.000          42.000  
 127704017.545 6  99509700.685 6  24301268.334                    24301285.867  
     -3264.184       -2543.535          41.000          38.000  
 24  1 10  3 16 24.3000000  0  7G24G16G18G23G10G32G15
 129659762.211 6 101033671.348 5  24673431.287                    24673452.349  
       420.188         326.633          40.000          35.000  
 128881807.402 5 100427551.739 2  24525413.284    24525436.031                  
     -2114.344       -1647.481          31.000          15.000  
 114090663.769 7  88901880.706 6  21710733.214                    21710748.433  
     -1673.457       -1303.844          44.000          41.000  
 110768509.637 6  86313182.364 7  21078547.662                    21078562.327  
     -1708.012       -1330.801          41.000          43.000  
 109103097.549 8  85015468.705 7  20761630.209                    20761646.718  
       229.395         178.809          48.000          43.000  
 117568490.895 7  91611897.192 7  22372540.742                    22372559.700  
      3027.297        2359.082          46.000          42.000  
 127704343.942 6  99509954.975 6  24301330.446                    24301347.967  
     -3264.203       -2543.457          40.000          38.000  
 24  1 10  3 16 24.4000000  0  7G24G16G18G23G10G32G15
 129659720.222 6 101033638.577 5  24673423.641                    24673444.042  
       420.078         327.586          40.000          35.000  
 128882018.860 5 100427716.506 2  24525453.414    24525476.324                  
     -2114.309       -1647.375          31.000          15.000  
 114090831.054 7  88902011.093 6  21710765.024                    21710779.056  
     -1673.082       -1303.891          44.000          41.000  
 110768680.350 6  86313315.400 7  21078579.741                    21078594.535  
     -1707.609       -1330.441          41.000          43.000  
 109103074.546 7  85015450.790 7  20761626.050                    20761642.397  
       229.785         179.145          47.000          43.000  
 117568188.118 7  91611661.259 7  22372483.368                    22372502.161  
      3027.672        2359.281          46.000          43.000  
 127704670.325 6  99510209.299 6  24301392.172                    24301409.646  
     -3263.949       -2542.969          39.000          37.000  
 24  1 10  3 16 24.5000000  0  7G24G16G18G23G10G32G15
 129659678.218 6 101033605.821 5  24673415.647                    24673436.042  
       420.047         327.219          41.000          35.000  
 128882230.277 5 100427881.258 2  24525493.645    24525516.558                  
     -2114.336       -1647.578          31.000          15.000  
 114090998.360 7  88902141.468 6  21710796.861                    21710810.895  
     -1672.922       -1303.277          43.000          41.000  
 110768851.121 6  86313448.456 7  21078612.238                    21078627.028  
     -1707.598       -1330.481          41.000          43.000  
 109103051.553 7  85015432.887 7  20761621.675                    20761638.025  
       229.828         179.219          47.000          43.000  
 117567885.332 7  91611425.338 7  22372425.750                    22372444.546  
      3027.824        2359.395          46.000          43.000  
 127704996.750 6  99510463.666 6  24301454.288                    24301471.765  
     -3264.145       -2543.848          40.000          37.000  
 24  1 10  3 16 24.6000000  0  7G24G16G18G23G10G32G15
 129659636.197 6 101033573.011 5  24673408.011                    24673428.584  
       420.035         327.914          41.000          35.000  
 128882441.783 5 100428046.066 2  24525534.120    24525556.845                  
     -2114.613       -1647.879          32.000          15.000  
 114091165.597 7  88902271.732 6  21710828.224                    21710843.082  
     -1672.770       -1303.238          43.000          41.000  
 110769021.831 6  86313581.480 7  21078644.661                    21078659.366  
     -1707.273       -1330.234          41.000          43.000  
 109103028.512 7  85015414.912 7  20761617.056                    20761633.573  
       230.227         179.621          47.000          43.000  
 117567582.490 7  91611189.321 7  22372368.488                    22372387.205  
      3028.031        2360.059          47.000          43.000  
 127705323.190 6  99510718.034 6  24301516.142                    24301533.369  
     -3264.254       -2543.449          40.000          36.000  
 24  1 10  3 16 24.7000000  0  7G24G16G18G23G10G32G15
 129659594.231 6 101033540.333 5  24673400.025                    24673420.604  
       420.043         327.309          40.000          34.000  
 128882653.215 5 100428210.816 2  24525574.354    24525597.079                  
     -2114.578       -1647.746          32.000          15.000  
 114091332.841 7  88902402.072 6  21710860.050                    21710874.912  
     -1672.406       -1303.031          44.000          41.000  
 110769192.522 6  86313714.472 7  21078677.142                    21078691.844  
     -1707.250       -1330.199          41.000          43.000  
 109103005.488 7  85015396.994 7  20761612.674                    20761629.197  
       230.301         179.324          47.000          43.000  
 117567279.646 7  91610953.316 7  22372310.859                    22372329.571  
      3028.387        2359.859          47.000          43.000  
 127705649.617 6  99510972.422 6  24301578.259                    24301595.493  
     -3264.066       -2543.734          40.000          36.000  
 24  1 10  3 16 24.8000000  0  7G24G16G18G23G10G32G15
 129659552.248 6 101033507.580 5  24673392.043                    24673412.707  
       419.906         327.270          40.000          34.000  
 128882864.634 5 100428375.546 2  24525614.969    24525637.299                  
     -2114.438       -1647.559          32.000          15.000  
 114091500.090 7  88902532.411 6  21710892.040                    21710906.656  
     -1672.457       -1303.356          44.000          41.000  
 110769363.252 6  86313847.514 7  21078709.436                    21078724.264  
     -1707.160       -1330.273          41.000          43.000  
 109102982.459 7  85015379.049 7  20761608.066                    20761624.776  
       230.258         179.488          47.000          43.000  
 117566976.773 7  91610717.365 7  22372253.068                    22372271.590  
      3028.629        2359.836          46.000          43.000  
 127705976.113 6  99511226.812 6  24301640.334                    24301657.422  
     -3264.582       -2544.039          40.000          37.000  
 24  1 10  3 16 24.9000000  0  7G24G16G18G23G10G32G15
 129659510.168 6 101033474.876 5  24673384.036                    24673404.720  
       420.219         327.039          39.000          34.000  
 128883076.108 5 100428540.335 2  24525655.211    24525677.543                  
     -2114.594       -1647.812          31.000          15.000  
 114091667.312 7  88902662.683 7  21710923.862                    21710938.470  
     -1672.367       -1303.008          44.000          42.000  
 110769533.971 6  86313980.587 7  21078741.922                    21078756.761  
     -1707.148       -1330.383          41.000          43.000  
 109102959.421 7  85015361.075 7  20761603.682                    20761620.386  
       230.270         179.441          47.000          43.000  
 117566673.898 7  91610481.348 7  22372195.433                    22372213.952  
      3028.617        2360.332          46.000          43.000  
 127706302.625 7  99511481.262 6  24301702.467                    24301719.562  
     -3265.000       -2544.555          42.000          38.000  
 24  1 10  3 16 25.0000000  0  7G24G16G18G23G10G32G15
 129659468.218 6 101033442.146 5  24673375.678                    24673396.907  
       419.828         326.949          39.000          34.000  
 128883287.567 5 100428705.114 2  24525695.325    24525717.760                  
     -2114.625       -1647.832          31.000          15.000  
 114091834.523 7  88902792.990 7  21710955.493                    21710970.496  
     -1672.199       -1302.973          44.000          42.000  
 110769704.722 6  86314113.585 7  21078774.142                    21078789.194  
     -1707.309       -1330.293          41.000          43.000  
 109102936.427 8  85015343.178 7  20761599.416                    20761615.946  
       230.172         179.242          48.000          43.000  
 117566370.975 7  91610245.287 7  22372137.233                    22372156.546  
      3029.051        2360.230          46.000          43.000  
 127706629.147 7  99511735.679 6  24301765.407                    24301782.693  
     -3265.047       -2544.156          42.000          38.000  
 24  1 10  3 16 25.1000000  0  7G24G16G18G23G10G32G15
 129659426.317 6 101033409.539 5  24673367.705                    24673388.944  
       419.402         326.336          40.000          35.000  
 128883498.996 5 100428869.852 2  24525735.559    24525757.990                  
     -2114.480       -1647.606          31.000          15.000  
 114092001.812 7  88902923.381 7  21710987.327                    21711002.338  
     -1672.637       -1303.691          44.000          42.000  
 110769875.535 6  86314246.694 7  21078806.646                    21078821.701  
     -1707.844       -1331.039          41.000          43.000  
 109102913.475 8  85015325.281 7  20761595.048                    20761611.575  
       229.715         178.855          48.000          43.000  
 117566068.099 7  91610009.340 7  22372079.598                    22372098.925  
      3028.859        2359.879          46.000          43.000  
 127706955.646 6  99511990.084 6  24301827.538                    24301844.821  
     -3265.051       -2544.176          41.000          38.000  
 24  1 10  3 16 25.2000000  0  7G24G16G18G23G10G32G15
 129659384.399 6 101033376.905 5  24673359.580                    24673381.076  
       419.488         326.387          40.000          35.000  
 128883710.593 5 100429034.731 2  24525775.770    24525798.279                  
     -2114.992       -1648.082          31.000          15.000  
 114092169.100 7  88903053.712 6  21711019.091                    21711034.026  
     -1672.754       -1303.578          44.000          41.000  
 110770046.343 6  86314379.821 7  21078839.298                    21078854.829  
     -1708.035       -1331.125          41.000          43.000  
 109102890.543 7  85015307.405 7  20761590.825                    20761607.374  
       229.477         178.695          47.000          43.000  
 117565765.278 7  91609773.311 7  22372021.840                    22372041.448  
      3028.383        2359.816          47.000          43.000  
 127707282.220 6  99512244.556 6  24301889.644                    24301907.614  
     -3265.395       -2544.398          41.000          38.000  
 24  1 10  3 16 25.3000000  0  7G24G16G18G23G10G32G15
 129659342.474 6 101033344.295 5  24673351.601                    24673373.112  
       419.402         326.316          40.000          35.000  
 128883922.030 5 100429199.479 2  24525816.005    24525838.512                  
     -2114.930       -1648.059          31.000          15.000  
 114092336.447 7  88903184.096 7  21711050.936                    21711065.867  
     -1673.223       -1304.000          43.000          42.000  
 110770217.254 6  86314512.974 7  21078871.822                    21078887.346  
     -1708.543       -1331.516          41.000          43.000  
 109102867.675 8  85015289.581 7  20761586.473                    20761603.021  
       229.008         178.281          48.000          43.000  
 117565462.436 7  91609537.369 7  22371964.211                    22371983.829  
      3028.410        2359.512          47.000          43.000  
 127707608.813 6  99512499.053 6  24301951.793                    24301969.765  
     -3265.762       -2544.984          40.000          38.000  
 24  1 10  3 16 25.4000000  0  7G24G16G18G23G10G32G15
 129659300.572 6 101033311.632 5  24673343.940                    24673365.519  
       418.965         326.230          40.000          35.000  
 128884133.563 5 100429364.308 2  24525856.094    24525878.828                  
     -2115.078       -1648.152          31.000          15.000  
 114092503.810 7  88903314.488 6  21711082.644                    21711097.679  
     -1673.582       -1304.223          44.000          41.000  
 110770388.128 7  86314646.160 7  21078904.611                    21078919.629  
     -1708.699       -1331.875          42.000          43.000  
 109102844.844 7  85015271.788 7  20761582.238                    20761598.691  
       228.621         178.000          47.000          43.000  
 117565159.611 7  91609301.405 7  22371907.039                    22371925.993  
      3028.359        2359.949          46.000          42.000  
 127707935.411 6  99512753.563 6  24302013.442                    24302031.896  
     -3265.746       -2545.043          41.000          39.000  
 24  1 10  3 16 25.5000000  0  7G24G16G18G23G10G32G15
 129659258.721 6 101033278.957 5  24673335.976                    24673357.539  
       418.762         326.602          40.000          35.000  
 128884345.195 5 100429529.208 2  24525896.367    24525919.098                  
     -2115.555       -1648.578          31.000          15.000  
 114092671.217 7  88903444.970 7  21711114.500                    21711129.544  
     -1673.668       -1304.648          43.000          42.000  
 110770559.108 7  86314779.337 7  21078937.148                    21078952.152  
     -1709.281       -1331.773          42.000          43.000  
 109102822.019 7  85015254.009 7  20761577.894                    20761594.349  
       228.438         177.707          47.000          43.000  
 117564856.814 7  91609065.406 7  22371849.419                    22371868.360  
      3027.977        2359.465          46.000          42.000  
 127708262.057 6  99513008.101 6  24302075.601                    24302094.056  
     -3266.121       -2545.246          40.000          39.000  
 24  1 10  3 16 25.6000000  0  7G24G16G18G23G10G32G15
 129659216.846 6 101033246.354 5  24673327.617                    24673349.686  
       418.770         326.410          40.000          35.000  
 128884556.625 5 100429693.955 2  24525936.507    24525959.370                  
     -2115.043       -1647.965          31.000          14.000  
 114092838.607 7  88903575.420 6  21711146.205                    21711161.221  
     -1673.828       -1304.445          43.000          41.000  
 110770730.013 7  86314912.547 7  21078969.857                    21078984.668  
     -1709.344       -1331.977          42.000          43.000  
 109102799.209 8  85015236.236 7  20761573.241                    20761589.790  
       228.254         177.742          48.000          43.000  
 117564554.054 7  91608829.515 7  22371791.407                    22371810.081  
      3027.895        2359.098          46.000          42.000  
 127708588.713 6  99513262.635 6  24302137.503                    24302156.372  
     -3266.324       -2545.430          40.000          39.000  
 24  1 10  3 16 25.7000000  0  7G24G16G18G23G10G32G15
 129659175.017 6 101033213.780 5  24673319.657                    24673341.732  
       418.500         325.816          40.000          35.000  
 128884768.213 5 100429858.770 2  24525976.770    24525999.619                  
     -2115.520       -1648.098          31.000          14.000  
 114093006.049 7  88903705.879 6  21711178.068                    21711193.081  
     -1674.223       -1304.672          43.000          41.000  
 110770901.007 7  86315045.785 7  21079002.397                    21079017.206  
     -1709.438       -1332.371          42.000          43.000  
 109102776.428 7  85015218.486 7  20761568.906                    20761585.455  
       227.977         177.539          47.000          43.000  
 117564251.303 7  91608593.629 7  22371733.795                    22371752.475  
      3027.703        2359.004          46.000          42.000  
 127708915.393 6  99513517.168 6  24302199.669                    24302218.532  
     -3266.684       -2545.309          41.000          39.000  
 24  1 10  3 16 25.8000000  0  7G24G16G18G23G10G32G15
 129659133.228 6 101033181.211 5  24673311.299                    24673333.778  
       418.188         325.805          40.000          34.000  
 128884979.788 5 100430023.555 2  24526016.829    24526039.885                  
     -2115.469       -1647.656          32.000          15.000  
 114093173.572 7  88903836.394 7  21711210.056                    21711224.915  
     -1674.621       -1305.195          44.000          42.000  
 110771072.000 7  86315179.000 7  21079035.006                    21079049.387  
     -1709.734       -1332.277          42.000          43.000  
 109102753.654 8  85015200.749 7  20761564.619                    20761581.335  
       227.871         177.316          48.000          43.000  
 117563948.539 7  91608357.693 7  22371675.915                    22371695.505  
      3027.586        2358.895          46.000          42.000  
 127709242.058 7  99513771.683 6  24302262.347                    24302280.625  
     -3266.582       -2545.164          42.000          39.000  
 24  1 10  3 16 25.9000000  0  7G24G16G18G23G10G32G15
 129659091.477 6 101033148.631 5  24673303.354                    24673325.821  
       417.840         325.930          40.000          33.000  
 128885191.342 5 100430188.39312  24526057.086    24526080.148                  
     -2115.578       -1648.402          32.000          14.000  
 114093341.046 7  88903966.926 7  21711241.925                    21711256.792  
     -1674.840       -1305.551          44.000          42.000  
 110771243.032 7  86315312.302 7  21079067.552                    21079081.941  
     -1710.031       -1332.883          42.000          43.000  
 109102730.944 7  85015183.035 7  20761560.298                    20761577.009  
       227.504         177.215          47.000          43.000  
 117563645.878 7  91608121.885 7  22371618.321                    22371637.919  
      3027.094        2358.359          46.000          42.000  
 127709568.787 7  99514026.243 6  24302324.521                    24302342.791  
     -3266.945       -2545.594          42.000          39.000  
 24  1 10  3 16 26.0000000  0  7G24G16G18G23G10G32G15
 129659049.717 6 101033116.106 5  24673295.478                    24673317.777  
       417.660         324.840          40.000          32.000  
 128885402.887 5 100430353.238 2  24526097.584    24526120.374                  
     -2115.562       -1648.520          32.000          14.000  
 114093508.623 7  88904097.534 7  21711274.166                    21711289.454  
     -1675.223       -1305.465          44.000          42.000  
 110771414.092 7  86315445.574 7  21079100.299                    21079114.667  
     -1710.598       -1333.117          42.000          43.000  
 109102708.258 7  85015165.372 7  20761555.653                    20761572.235  
       227.125         176.711          47.000          43.000  
 117563343.246 7  91607886.039 7  22371561.107                    22371580.706  
      3026.602        2358.621          46.000          42.000  
 127709895.534 7  99514280.847 6  24302387.332                    24302405.436  
     -3267.348       -2546.090          43.000          39.000  
 24  1 10  3 16 26.1000000  0  7G24G16G18G23G10G32G15
 129659007.992 6 101033083.469 5  24673287.538                    24673309.807  
       417.410         326.430          40.000          32.000  
 128885614.468 5 100430518.104 2  24526137.846    24526160.636                  
     -2115.629       -1648.555          32.000          14.000  
 114093676.175 7  88904228.091 7  21711306.050                    21711321.337  
     -1675.488       -1305.812          44.000          42.000  
 110771585.174 7  86315578.899 7  21079132.855                    21079147.226  
     -1710.566       -1333.062          42.000          43.000  
 109102685.577 8  85015147.696 7  20761551.337                    20761567.918  
       226.922         176.715          48.000          43.000  
 117563040.592 7  91607650.204 7  22371503.514                    22371523.112  
      3026.609        2358.102          46.000          42.000  
 127710222.249 7  99514535.477 6  24302449.503                    24302467.619  
     -3267.176       -2546.168          43.000          39.000  
 24  1 10  3 16 26.2000000  0  7G24G16G18G23G10G32G15
 129658966.292 6 101033051.083 5  24673279.696                    24673301.234  
       417.223         324.074          40.000          31.000  
 128885826.061 5 100430682.976 2  24526178.502    24526200.899                  
     -2115.797       -1648.734          32.000          15.000  
 114093843.839 7  88904358.728 6  21711337.861                    21711353.013  
     -1675.969       -1305.914          43.000          41.000  
 110771756.314 7  86315712.264 7  21079165.656                    21079179.811  
     -1710.992       -1333.598          42.000          43.000  
 109102662.940 7  85015130.059 7  20761547.459                    20761563.634  
       226.574         176.324          47.000          43.000  
 117562737.972 7  91607414.405 7  22371446.029                    22371465.340  
      3026.270        2357.883          47.000          42.000  
 127710549.016 7  99514790.094 6  24302512.451                    24302530.393  
     -3267.426       -2546.031          43.000          40.000  
 24  1 10  3 16 26.3000000  0  7G24G16G18G23G10G32G15
 129658924.599 6 101033018.556 5  24673271.762                    24673293.290  
       417.105         325.238          40.000          32.000  
 128886037.723 5 100430847.934 2  24526218.780    24526241.183                  
     -2116.137       -1649.223          32.000          15.000  
 114094011.425 7  88904489.254 6  21711369.752                    21711384.889  
     -1676.129       -1306.156          43.000          41.000  
 110771927.455 7  86315845.597 7  21079198.223                    21079212.372  
     -1711.195       -1333.316          42.000          43.000  
 109102640.328 8  85015112.436 7  20761543.156                    20761559.330  
       226.402         176.355          48.000          43.000  
 117562435.401 7  91607178.630 7  22371388.452                    22371407.762  
      3026.047        2357.871          46.000          42.000  
 127710875.771 7  99515044.732 6  24302574.630                    24302592.578  
     -3267.480       -2546.309          43.000          39.000  
 24  1 10  3 16 26.4000000  0  7G24G16G18G23G10G32G15
 129658882.946 6 101032986.117 5  24673263.937                    24673285.149  
       416.820         325.164          41.000          32.000  
 128886249.328 5 100431012.844 2  24526259.422    24526281.487                  
     -2116.027       -1649.027          32.000          15.000  
 114094179.089 7  88904619.957 7  21711401.173                    21711416.222  
     -1676.352       -1306.574          43.000          42.000  
 110772098.588 6  86315978.969 7  21079230.874                    21079244.880  
     -1711.395       -1333.902          41.000          43.000  
 109102617.727 8  85015094.829 7  20761539.003                    20761555.382  
       226.188         175.938          48.000          43.000  
 117562132.848 7  91606942.857 7  22371330.745                    22371349.652  
      3025.746        2357.559          46.000          42.000  
 127711202.533 7  99515299.358 6  24302636.506                    24302654.870  
     -3267.527       -2546.316          42.000          39.000  
 24  1 10  3 16 26.5000000  0  7G24G16G18G23G10G32G15
 129658841.265 6 101032953.564 5  24673256.006                    24673277.200  
       416.766         325.066          40.000          33.000  
 128886460.979 5 100431177.788 2  24526299.698    24526321.768                  
     -2116.363       -1649.488          32.000          15.000  
 114094346.735 7  88904750.575 7  21711433.075                    21711448.120  
     -1676.488       -1306.289          44.000          42.000  
 110772269.781 7  86316112.336 7  21079263.451                    21079277.450  
     -1711.578       -1333.805          42.000          43.000  
 109102595.140 7  85015077.240 7  20761534.705                    20761551.087  
       226.008         176.008          47.000          43.000  
 117561830.253 7  91606707.093 7  22371273.163                    22371292.076  
      3025.883        2357.629          46.000          42.000  
 127711529.312 7  99515554.012 6  24302698.690                    24302717.059  
     -3267.688       -2546.418          42.000          39.000  
 24  1 10  3 16 26.6000000  0  7G24G16G18G23G10G32G15
 129658799.620 6 101032921.146 5  24673248.050                    24673269.673  
       416.688         324.418          41.000          32.000  
 128886672.633 5 100431342.732 2  24526340.365    24526362.034                  
     -2116.383       -1649.332          32.000          16.000  
 114094514.381 7  88904881.182 7  21711465.375                    21711480.938  
     -1676.371       -1306.383          43.000          42.000  
 110772440.892 7  86316245.713 7  21079295.638                    21079310.116  
     -1711.340       -1333.508          42.000          43.000  
 109102572.532 7  85015059.600 7  20761530.551                    20761546.826  
       226.031         176.254          47.000          43.000  
 117561527.722 7  91606471.358 7  22371215.429                    22371234.507  
      3025.555        2357.438          46.000          42.000  
 127711856.061 7  99515808.586 6  24302760.658                    24302778.752  
     -3267.539       -2546.055          42.000          39.000  
 24  1 10  3 16 26.7000000  0  7G24G16G18G23G10G32G15
 129658757.938 6 101032888.710 5  24673240.118                    24673261.752  
       416.684         324.426          41.000          32.000  
 128886884.291 5 100431507.669 2  24526380.642    24526402.313                  
     -2116.590       -1649.516          32.000          16.000  
 114094682.034 7  88905011.856 7  21711497.279                    21711512.850  
     -1676.328       -1306.203          44.000          42.000  
 110772612.059 7  86316379.061 7  21079328.210                    21079342.681  
     -1711.340       -1333.371          42.000          43.000  
 109102549.928 7  85015041.978 7  20761526.250                    20761542.522  
       226.121         176.105          47.000          43.000  
 117561225.169 7  91606235.606 7  22371157.855                    22371176.934  
      3025.488        2357.551          46.000          42.000  
 127712182.880 7  99516063.245 6  24302822.849                    24302840.943  
     -3267.832       -2546.328          42.000          39.000  
 24  1 10  3 16 26.8000000  0  7G24G16G18G23G10G32G15
 129658716.229 6 101032856.193 5  24673232.118                    24673253.647  
       416.859         324.824          40.000          33.000  
 128887095.948 5 100431672.600 2  24526420.997    24526442.552                  
     -2116.469       -1649.223          31.000          16.000  
 114094849.650 7  88905142.440 7  21711529.511                    21711545.044  
     -1676.363       -1305.941          44.000          42.000  
 110772783.138 7  86316512.375 7  21079360.999                    21079374.964  
     -1711.184       -1333.481          42.000          43.000  
 109102527.292 8  85015024.367 7  20761521.560                    20761537.956  
       226.211         176.293          48.000          43.000  
 117560922.609 7  91605999.842 7  22371099.858                    22371119.733  
      3025.594        2357.422          46.000          43.000  
 127712509.638 7  99516317.835 6  24302885.060                    24302902.866  
     -3267.805       -2546.242          43.000          39.000  
 24  1 10  3 16 26.9000000  0  7G24G16G18G23G10G32G15
 129658674.563 6 101032823.749 5  24673224.190                    24673245.724  
       416.875         324.938          40.000          34.000  
 128887307.630 5 100431837.562 2  24526461.279    24526482.837                  
     -2116.586       -1649.457          31.000          16.000  
 114095017.251 7  88905273.056 7  21711561.404                    21711576.942  
     -1676.125       -1306.082          44.000          42.000  
 110772954.270 7  86316645.751 7  21079393.565                    21079407.536  
     -1711.117       -1333.156          42.000          43.000  
 109102504.672 7  85015006.728 7  20761517.255                    20761533.648  
       226.312         176.352          47.000          43.000  
 117560620.065 7  91605764.105 7  22371042.286                    22371062.164  
      3025.613        2357.672          47.000          43.000  
 127712836.385 7  99516572.483 6  24302947.238                    24302965.054  
     -3267.492       -2546.141          44.000          39.000  
 24  1 10  3 16 27.0000000  0  7G24G16G18G23G10G32G15
 129658632.873 6 101032791.250 5  24673216.327                    24673238.100  
       416.910         324.434          40.000          34.000  
 128887519.269 5 100432002.498 2  24526501.357    24526523.093                  
     -2116.578       -1649.508          30.000          16.000  
 114095184.923 7  88905403.745 7  21711593.311                    21711608.264  
     -1676.395       -1306.598          44.000          42.000  
 110773125.401 7  86316779.067 7  21079426.083                    21079440.147  
     -1711.266       -1333.516          42.000          43.000  
 109102482.084 7  85014989.129 7  20761512.847                    20761529.413  
       226.000         176.020          47.000          43.000  
 117560317.556 7  91605528.359 7  22370985.376                    22371004.608  
      3025.191        2357.309          47.000          43.000  
 127713163.152 7  99516827.074 6  24303010.115                    24303027.423  
     -3267.586       -2546.176          44.000          39.000  
 24  1 10  3 16 27.1000000  0  7G24G16G18G23G10G32G15
 129658591.237 6 101032758.824 5  24673208.404                    24673230.181  
       416.531         324.766          40.000          35.000  
 128887731.100 5 100432167.575 2  24526541.667    24526563.406                  
     -2117.410       -1650.414          30.000          16.000  
 114095352.535 7  88905534.308 7  21711625.207                    21711640.149  
     -1676.387       -1306.301          44.000          42.000  
 110773296.516 7  86316912.392 7  21079458.645                    21079472.707  
     -1711.391       -1333.641          42.000          43.000  
 109102459.509 7  85014971.532 7  20761508.552                    20761525.116  
       225.758         175.875          47.000          43.000  
 117560015.054 7  91605292.652 7  22370927.812                    22370947.046  
      3025.055        2356.848          47.000          42.000  
 127713489.904 7  99517081.742 6  24303072.294                    24303089.615  
     -3267.645       -2546.609          45.000          39.000  
 24  1 10  3 16 27.2000000  0  7G24G16G18G23G10G32G15
 129658549.560 6 101032726.295 5  24673200.629                    24673222.573  
       416.586         324.703          41.000          35.000  
 128887942.794 4 100432332.546 2  24526581.311    24526603.702                  
     -2117.117       -1649.781          29.000          16.000  
 114095520.216 7  88905664.992 7  21711657.318                    21711671.680  
     -1676.477       -1306.312          44.000          42.000  
 110773467.693 7  86317045.806 7  21079490.750                    21079505.218  
     -1711.312       -1333.539          42.000          43.000  
 109102436.952 7  85014953.969 7  20761504.173                    20761520.616  
       225.707         175.656          47.000          43.000  
 117559712.631 7  91605057.040 7  22370870.693                    22370889.335  
      3024.621        2356.453          46.000          42.000  
 127713816.599 7  99517336.373 6  24303135.087                    24303151.814  
     -3267.230       -2546.242          45.000          39.000  
 24  1 10  3 16 27.3000000  0  7G24G16G18G23G10G32G15
 129658507.846 7 101032693.821 5  24673192.691                    24673214.643  
       416.898         325.059          42.000          35.000  
 128888154.681 4 100432497.648 2  24526621.631    24526644.021                  
     -2118.191       -1651.031          28.000          16.000  
 114095687.883 7  88905795.624 7  21711689.224                    21711703.582  
     -1676.711       -1306.914          44.000          42.000  
 110773638.827 7  86317179.161 7  21079523.316                    21079537.784  
     -1711.469       -1333.871          42.000          43.000  
 109102414.485 7  85014936.475 7  20761499.898                    20761516.343  
       225.117         175.051          47.000          43.000  
 117559410.296 7  91604821.460 6  22370813.160                    22370831.804  
      3023.953        2355.500          46.000          41.000  
 127714143.321 7  99517590.933 6  24303197.260                    24303213.981  
     -3267.125       -2545.625          44.000          39.000  
 24  1 10  3 16 27.4000000  0  7G24G16G18G23G10G32G15
 129658466.085 7 101032661.325 6  24673185.268                    24673206.590  
       418.090         325.074          42.000          36.000  
 128888366.646 4 100432662.806 2  24526661.795    24526684.362                  
     -2120.691       -1651.820          26.000          16.000  
 114095855.570 7  88905926.324 6  21711720.907                    21711735.227  
     -1676.770       -1306.473          44.000          41.000  
 110773810.007 7  86317312.530 7  21079556.429                    21079570.714  
     -1711.734       -1333.688          42.000          43.000  
 109102392.059 7  85014919.017 7  20761495.740                    20761512.096  
       224.133         174.477          47.000          43.000  
 117559108.038 7  91604585.933 6  22370755.096                    22370774.145  
      3021.695        2355.238          45.000          41.000  
 127714469.932 7  99517845.393 6  24303258.631                    24303276.247  
     -3265.996       -2545.035          44.000          40.000  
 24  1 10  3 16 27.5000000  0  7G24G16G18G23G10G32G15
 129658424.264 7 101032628.726 6  24673177.309                    24673198.629  
       418.430         325.824          43.000          37.000  
 128888579.46734 100432828.74032  24526702.286    24526724.784                  
     -2127.891       -1655.469          25.000          16.000  
 114096023.223 7  88906056.959 7  21711752.811                    21711767.129  
     -1676.633       -1306.441          44.000          42.000  
 110773981.136 7  86317445.909 7  21079588.994                    21079603.286  
     -1711.414       -1333.570          42.000          43.000  
 109102369.693 7  85014901.582 7  20761491.484                    20761507.838  
       223.312         174.168          47.000          43.000  
 117558805.979 7  91604350.546 6  22370697.616                    22370716.662  
      3019.453        2353.750          44.000          40.000  
 127714796.457 7  99518099.865 6  24303320.767                    24303338.392  
     -3265.133       -2544.625          44.000          41.000  
 24  1 10  3 16 27.6000000  0  6G24G10G18G23G32G15
 129658382.300 7 101032596.006 6  24673169.222                    24673190.787  
       420.195         326.953          43.000          38.000  
 109102347.330 7  85014884.139 7  20761487.095                    20761503.844  
       223.574         174.180          46.000          43.000  
 114096190.792 7  88906187.510 7  21711785.073                    21711799.253  
     -1675.383       -1305.676          44.000          43.000  
 110774152.157 7  86317579.152 7  21079621.327                    21079635.755  
     -1709.988       -1332.500          42.000          43.000  
 117558504.009 7  91604115.254 6  22370640.020                    22370659.795  
      3018.875        2353.055          42.000          40.000  
 127715122.802 7  99518354.142 6  24303382.555                    24303400.458  
     -3262.902       -2542.965          45.000          41.000  
