     2.11           OBSERVATION DATA    M (MIXED)           RINEX VERSION / TYPE
GPP.DLL V3.2.21                         18 - MAR - 24 07:43 PGM / RUN BY / DATE 
                                                            MARKER NAME         
                                                            MARKER NUMBER       
                                                            OBSERVER / AGENCY   
6028C00128          APX-15v3 AV         5.50                REC # / TYPE / VERS 
                    E                                       ANT # / TYPE        
 -4667904.5382  2554601.9719 -3504786.6785                  APPROX POSITION XYZ 
        0.0000       -0.0000       -0.0000                  ANTENNA: DELTA H/E/N
     1     1                                                WAVELENGTH FACT L1/2
     9    L1    L2    C1    P2    C2    D1    D2    S1    S2# / TYPES OF OBSERV 
     0.100                                                  INTERVAL            
  2024     1    10     3    22    0.0000000     GPS         TIME OF FIRST OBS   
  2024     1    10     3    22   59.9000000     GPS         TIME OF LAST OBS    
    18                                                      LEAP SECONDS        
     8                                                      # OF SATELLITES     
   G08   600   600   600     0   600   600   600   600   600PRN / # OF OBS      
   G10   600   600   600     0   600   600   600   600   600PRN / # OF OBS      
   G15   600   600   600     0   600   600   600   600   600PRN / # OF OBS      
   G16   210   210   210   210     0   210   210   210   210PRN / # OF OBS      
   G18   600   600   600     0   600   600   600   600   600PRN / # OF OBS      
   G23   600   600   600     0   600   600   600   600   600PRN / # OF OBS      
   G24   556   556   556     0   556   556   556   556   556PRN / # OF OBS      
   G32   600   600   600     0   600   600   600   600   600PRN / # OF OBS      
                                                            END OF HEADER       
 24  1 10  3 22  0.0000000  0  7G08G16G18G23G10G32G15
 128453363.044 6 100093613.997 6  24443874.760                    24443895.235  
      2789.930        2174.078          37.000          36.000  
 128059869.766 5  99787037.588 3  24368990.464    24369015.207                  
     -2311.277       -1800.910          34.000          21.000  
 113115435.512 7  88141961.754 7  21525153.642                    21525168.760  
     -1875.918       -1461.832          43.000          42.000  
 109796015.346 7  85555394.050 7  20893488.956                    20893503.119  
     -1847.668       -1439.559          45.000          45.000  
 107493759.436 8  83761438.859 7  20455383.973                    20455399.954  
        23.891          18.727          48.000          45.000  
 115027270.239 7  89631726.689 6  21888961.023                    21888979.276  
      2772.074        2160.152          47.000          38.000  
 127248747.135 6  99154942.676 6  24214635.514                    24214653.729  
     -3380.098       -2633.926          39.000          38.000  
 24  1 10  3 22  0.1000000  0  7G08G16G18G23G10G32G15
 128453084.063 6 100093396.562 6  24443821.672                    24443842.135  
      2789.848        2174.008          36.000          36.000  
 128060100.887 5  99787217.678 3  24369034.444    24369059.187                  
     -2311.277       -1800.969          34.000          20.000  
 113115623.123 7  88142107.936 7  21525189.344                    21525204.460  
     -1875.977       -1461.398          43.000          42.000  
 109796200.102 7  85555538.009 7  20893524.114                    20893538.275  
     -1847.523       -1439.625          44.000          45.000  
 107493757.037 8  83761436.998 7  20455383.517                    20455399.500  
        24.031          18.754          48.000          45.000  
 115026993.002 7  89631510.637 6  21888908.266                    21888926.514  
      2772.074        2160.023          47.000          38.000  
 127249085.109 6  99155206.027 6  24214699.828                    24214718.042  
     -3379.938       -2633.637          39.000          38.000  
 24  1 10  3 22  0.2000000  0  7G08G16G18G23G10G32G15
 128452805.122 6 100093179.263 6  24443768.044                    24443789.147  
      2789.594        2173.414          36.000          36.000  
 128060332.007 5  99787397.766 3  24369078.253    24369103.174                  
     -2311.148       -1800.773          35.000          20.000  
 113115810.715 7  88142254.126 7  21525224.854                    21525239.911  
     -1876.020       -1462.106          42.000          42.000  
 109796384.878 7  85555681.988 7  20893559.088                    20893573.491  
     -1847.715       -1439.762          45.000          45.000  
 107493754.664 8  83761435.153 7  20455382.854                    20455398.854  
        23.871          18.547          48.000          45.000  
 115026715.823 7  89631294.689 6  21888855.325                    21888873.746  
      2771.961        2159.703          47.000          38.000  
 127249423.095 6  99155469.393 6  24214763.926                    24214782.139  
     -3379.942       -2633.582          38.000          38.000  
 24  1 10  3 22  0.3000000  0  7G08G16G18G23G10G32G15
 128452526.201 6 100092961.911 6  24443714.968                    24443736.067  
      2789.484        2173.648          36.000          36.000  
 128060563.197 5  99787577.910 3  24369122.247    24369147.167                  
     -2311.750       -1801.641          34.000          20.000  
 113115998.403 7  88142400.354 7  21525260.570                    21525275.621  
     -1876.535       -1462.254          43.000          42.000  
 109796569.679 7  85555826.006 7  20893594.255                    20893608.661  
     -1847.859       -1440.238          45.000          45.000  
 107493752.329 8  83761433.316 7  20455382.410                    20455398.405  
        23.449          18.160          48.000          45.000  
 115026438.692 7  89631078.709 6  21888802.589                    21888821.002  
      2771.555        2159.535          47.000          38.000  
 127249761.144 6  99155732.776 6  24214828.254                    24214846.460  
     -3380.402       -2633.887          37.000          38.000  
 24  1 10  3 22  0.4000000  0  7G08G16G18G23G10G32G15
 128452247.271 6 100092744.551 6  24443661.873                    24443682.790  
      2789.211        2173.445          37.000          36.000  
 128060794.421 5  99787758.078 3  24369166.107    24369191.182                  
     -2311.812       -1801.402          34.000          20.000  
 113116186.035 7  88142546.592 7  21525296.595                    21525311.701  
     -1876.383       -1462.285          43.000          42.000  
 109796754.484 7  85555970.007 7  20893629.469                    20893642.992  
     -1848.012       -1440.031          45.000          44.000  
 107493750.028 8  83761431.516 7  20455381.793                    20455397.489  
        23.223          17.902          48.000          45.000  
 115026161.569 7  89630862.798 6  21888749.667                    21888768.782  
      2771.312        2159.402          47.000          38.000  
 127250099.086 5  99155996.185 6  24214891.992                    24214910.905  
     -3379.738       -2633.789          35.000          38.000  
 24  1 10  3 22  0.5000000  0  7G08G16G18G23G10G32G15
 128451968.374 6 100092527.218 6  24443608.801                    24443629.715  
      2789.156        2173.223          37.000          36.000  
 128061025.610 5  99787938.224 3  24369210.101    24369235.175                  
     -2311.961       -1801.672          34.000          21.000  
 113116373.711 7  88142692.824 7  21525332.309                    21525347.412  
     -1876.703       -1462.414          43.000          42.000  
 109796939.341 7  85556114.049 7  20893664.646                    20893678.169  
     -1848.316       -1440.379          44.000          45.000  
 107493747.728 8  83761429.747 7  20455381.355                    20455397.057  
        23.059          17.699          48.000          45.000  
 115025884.472 7  89630646.847 6  21888696.937                    21888716.044  
      2771.137        2159.250          47.000          38.000  
 127250437.051 5  99156259.525 6  24214956.305                    24214975.215  
     -3379.820       -2633.668          34.000          38.000  
 24  1 10  3 22  0.6000000  0  7G08G16G18G23G10G32G15
 128451689.473 6 100092309.928 6  24443555.806                    24443576.768  
      2789.211        2173.004          37.000          36.000  
 128061256.845 5  99788118.408 3  24369254.158    24369279.194                  
     -2312.141       -1801.805          35.000          21.000  
 113116561.403 7  88142839.075 7  21525368.416                    21525382.480  
     -1876.863       -1462.602          43.000          42.000  
 109797124.154 7  85556258.058 7  20893699.463                    20893713.142  
     -1848.266       -1440.375          44.000          45.000  
 107493745.467 8  83761427.969 7  20455380.878                    20455396.928  
        22.871          17.918          48.000          45.000  
 115025607.382 7  89630430.949 6  21888644.427                    21888663.429  
      2771.051        2158.996          47.000          38.000  
 127250775.159 5  99156522.912 6  24215019.817                    24215038.802  
     -3380.289       -2633.984          34.000          38.000  
 24  1 10  3 22  0.7000000  0  7G08G16G18G23G10G32G15
 128451410.564 6 100092092.574 6  24443502.732                    24443523.688  
      2789.062        2173.336          37.000          36.000  
 128061488.042 5  99788298.560 3  24369298.154    24369323.189                  
     -2312.004       -1801.477          35.000          21.000  
 113116749.088 7  88142985.335 7  21525404.131                    21525418.198  
     -1876.691       -1462.375          43.000          42.000  
 109797309.019 7  85556402.112 7  20893734.642                    20893748.321  
     -1848.379       -1440.203          45.000          45.000  
 107493743.204 8  83761426.226 7  20455380.447                    20455396.502  
        22.793          17.594          48.000          45.000  
 115025330.302 7  89630215.026 6  21888591.701                    21888610.699  
      2770.840        2159.016          47.000          38.000  
 127251113.232 5  99156786.359 6  24215084.150                    24215103.139  
     -3380.574       -2634.262          33.000          38.000  
 24  1 10  3 22  0.8000000  0  8G08G24G18G23G16G10G15G32
 128451131.673 6 100091875.243 6  24443449.762                    24443470.801  
      2789.004        2173.246          37.000          37.000  
 127983530.33035  99727520.293 6  24354456.427                    24354477.562  
       199.352         155.398          34.000          38.000  
 113116936.750 7  88143131.547 7  21525439.623                    21525454.655  
     -1876.711       -1462.238          43.000          42.000  
 109797493.815 7  85556546.086 7  20893769.948                    20893783.864  
     -1848.254       -1440.117          45.000          45.000  
 128061719.272 5  99788478.734 3  24369342.624    24369367.236                  
     -2312.168       -1801.715          35.000          21.000  
 107493740.930 8  83761424.438 7  20455379.952                    20455396.190  
        22.648          17.457          48.000          45.000  
 127251451.255 5  99157049.703 6  24215147.841                    24215167.278  
     -3380.164       -2633.695          33.000          37.000  
 115025053.217 7  89629999.140 6  21888539.348                    21888557.586  
      2770.910        2159.172          47.000          38.000  
 24  1 10  3 22  0.9000000  0  8G08G24G18G23G16G10G15G32
 128450852.757 6 100091657.941 6  24443396.686                    24443417.734  
      2789.016        2173.074          37.000          37.000  
 127983510.470 5  99727504.761 6  24354452.648                    24354473.769  
       198.918         155.375          33.000          38.000  
 113117124.408 7  88143277.778 7  21525475.333                    21525490.366  
     -1876.621       -1462.356          43.000          42.000  
 109797678.664 7  85556690.186 7  20893805.124                    20893819.055  
     -1848.188       -1440.414          45.000          44.000  
 128061950.569 5  99788658.963 3  24369386.638    24369411.250                  
     -2312.668       -1802.324          35.000          21.000  
 107493738.670 8  83761422.676 7  20455379.522                    20455395.760  
        22.688          17.703          48.000          45.000  
 127251789.209 5  99157313.073 6  24215212.151                    24215231.596  
     -3379.898       -2633.656          35.000          38.000  
 115024776.131 7  89629783.220 6  21888486.621                    21888504.857  
      2770.840        2159.016          47.000          38.000  
 24  1 10  3 22  1.0000000  0  8G08G24G18G23G16G10G15G32
 128450573.865 6 100091440.632 6  24443343.677                    24443364.665  
      2789.000        2173.176          37.000          37.000  
 127983490.561 5  99727489.277 6  24354449.547                    24354469.902  
       199.242         155.090          31.000          38.000  
 113117312.074 7  88143424.056 7  21525510.795                    21525525.948  
     -1876.637       -1462.469          42.000          42.000  
 109797863.500 7  85556834.160 7  20893840.406                    20893854.230  
     -1848.426       -1440.227          45.000          45.000  
 128062181.787 5  99788839.131 3  24369430.669    24369455.264                  
     -2312.336       -1801.719          35.000          21.000  
 107493736.394 8  83761420.908 7  20455379.370                    20455395.352  
        22.672          17.695          48.000          45.000  
 127252127.211 5  99157576.489 6  24215276.330                    24215295.894  
     -3380.024       -2634.141          35.000          38.000  
 115024499.063 7  89629567.344 6  21888433.928                    21888452.036  
      2770.895        2159.137          47.000          38.000  
 24  1 10  3 22  1.1000000  0  8G08G24G18G23G16G10G15G32
 128450295.084 6 100091223.338 6  24443290.627                    24443311.599  
      2788.422        2172.992          37.000          37.000  
 127983470.495 5  99727473.718 6  24354445.728                    24354466.102  
       199.820         155.426          31.000          38.000  
 113117499.730 7  88143570.218 7  21525546.505                    21525561.642  
     -1876.559       -1461.984          43.000          42.000  
 109798048.326 7  85556978.181 7  20893875.577                    20893889.401  
     -1848.230       -1439.930          44.000          45.000  
 128062413.026 5  99789019.315 3  24369474.672    24369499.267                  
     -2312.453       -1801.992          35.000          22.000  
 107493734.123 8  83761419.144 7  20455378.938                    20455394.921  
        22.812          17.781          48.000          45.000  
 127252465.193 6  99157839.815 6  24215340.646                    24215360.201  
     -3379.976       -2633.285          37.000          37.000  
 115024221.965 7  89629351.402 6  21888381.198                    21888399.301  
      2770.926        2159.273          47.000          38.000  
 24  1 10  3 22  1.2000000  0  8G08G24G18G23G16G10G15G32
 128450016.175 6 100091006.029 6  24443237.247                    24443258.726  
      2788.980        2173.117          37.000          37.000  
 127983450.592 5  99727458.137 6  24354442.121                    24354462.367  
       199.332         155.590          31.000          37.000  
 113117687.351 7  88143716.456 7  21525582.013                    21525597.159  
     -1876.055       -1461.777          43.000          42.000  
 109798233.044 7  85557122.137 7  20893910.291                    20893924.909  
     -1847.273       -1439.719          44.000          45.000  
 128062644.313 5  99789199.540 3  24369518.536    24369543.241                  
     -2312.770       -1802.168          35.000          21.000  
 107493731.787 8  83761417.312 7  20455378.595                    20455394.520  
        23.199          18.016          48.000          45.000  
 127252803.164 6  99158103.187 6  24215405.210                    24215424.714  
     -3379.394       -2633.547          37.000          37.000  
 115023944.833 7  89629135.474 6  21888328.477                    21888346.420  
      2771.430        2159.586          47.000          38.000  
 24  1 10  3 22  1.3000000  0  8G08G24G18G23G16G10G15G32
 128449737.273 6 100090788.726 6  24443184.174                    24443205.658  
      2789.039        2172.848          37.000          37.000  
 127983430.630 5  99727442.594 6  24354438.322                    24354458.571  
       199.418         155.496          30.000          37.000  
 113117874.914 7  88143862.559 7  21525617.705                    21525632.839  
     -1875.824       -1461.684          44.000          42.000  
 109798417.842 7  85557266.106 7  20893945.456                    20893960.067  
     -1847.738       -1439.578          45.000          44.000  
 128062875.530 5  99789379.702 3  24369562.535    24369587.238                  
     -2312.254       -1801.711          35.000          21.000  
 107493729.470 8  83761415.506 7  20455378.154                    20455394.079  
        23.301          18.195          48.000          45.000  
 127253141.057 6  99158366.540 6  24215469.509                    24215489.027  
     -3379.332       -2633.664          37.000          37.000  
 115023667.696 7  89628919.514 6  21888275.739                    21888293.681  
      2771.312        2159.395          47.000          38.000  
 24  1 10  3 22  1.4000000  0  8G08G24G18G23G16G10G15G32
 128449458.438 6 100090571.451 6  24443131.153                    24443152.878  
      2788.559        2172.695          37.000          37.000  
 127983410.546 5  99727427.006 6  24354434.039                    24354453.976  
       200.164         155.750          30.000          37.000  
 113118062.518 7  88144008.794 7  21525653.631                    21525668.512  
     -1876.070       -1462.207          43.000          42.000  
 109798602.606 7  85557410.088 7  20893981.061                    20893994.979  
     -1847.676       -1439.805          45.000          44.000  
 128063106.828 5  99789559.932 3  24369606.675    24369631.221                  
     -2312.758       -1802.262          34.000          21.000  
 107493727.164 8  83761413.712 7  20455377.598                    20455393.446  
        23.102          17.988          48.000          45.000  
 127253479.098 6  99158629.942 6  24215534.234                    24215553.978  
     -3380.012       -2633.957          37.000          38.000  
 115023390.589 7  89628703.585 6  21888222.734                    21888241.456  
      2771.102        2159.176          47.000          39.000  
 24  1 10  3 22  1.5000000  0  8G08G24G18G23G16G10G15G32
 128449179.658 6 100090354.178 6  24443078.103                    24443099.818  
      2788.230        2172.543          37.000          36.000  
 127983390.593 5  99727411.487 6  24354430.242                    24354450.186  
       199.805         155.203          31.000          37.000  
 113118250.110 7  88144154.974 7  21525689.329                    21525704.211  
     -1875.980       -1461.606          43.000          42.000  
 109798787.350 7  85557554.060 7  20894016.217                    20894030.139  
     -1847.617       -1439.844          45.000          44.000  
 128063338.112 5  99789740.150 3  24369650.687    24369675.232                  
     -2312.719       -1802.121          34.000          21.000  
 107493724.874 8  83761411.941 7  20455377.162                    20455393.014  
        23.004          17.754          48.000          45.000  
 127253817.130 6  99158893.359 6  24215598.560                    24215618.307  
     -3380.035       -2634.098          38.000          38.000  
 115023113.481 7  89628487.671 6  21888170.002                    21888188.728  
      2771.055        2159.324          47.000          39.000  
 24  1 10  3 22  1.6000000  0  8G08G24G18G23G16G10G15G32
 128448900.759 6 100090136.902 6  24443025.186                    24443046.648  
      2788.594        2172.898          37.000          36.000  
 127983370.681 5  99727395.904 6  24354426.375                    24354446.396  
       199.438         155.754          32.000          38.000  
 113118437.715 7  88144301.126 7  21525724.865                    21525739.692  
     -1875.945       -1461.684          43.000          42.000  
 109798972.087 7  85557697.986 7  20894051.496                    20894064.967  
     -1847.590       -1439.445          44.000          44.000  
 128063569.384 5  99789920.359 3  24369694.915    24369719.249                  
     -2312.715       -1802.141          34.000          21.000  
 107493722.552 8  83761410.122 7  20455376.697                    20455392.749  
        23.113          18.242          48.000          45.000  
 127254155.118 6  99159156.645 6  24215663.392                    24215682.721  
     -3380.043       -2633.109          39.000          38.000  
 115022836.358 7  89628271.722 6  21888117.299                    21888136.507  
      2771.242        2159.527          47.000          38.000  
 24  1 10  3 22  1.7000000  0  8G08G24G18G23G16G10G15G32
 128448621.936 6 100089919.602 6  24442972.128                    24442993.581  
      2788.348        2172.895          37.000          36.000  
 127983350.728 5  99727380.364 6  24354422.578                    24354442.601  
       199.535         155.562          34.000          38.000  
 113118625.267 7  88144447.269 7  21525760.555                    21525775.381  
     -1875.832       -1461.602          43.000          42.000  
 109799156.866 7  85557841.970 7  20894086.658                    20894100.129  
     -1847.488       -1439.512          44.000          44.000  
 128063800.669 5  99790100.587 3  24369738.927    24369763.262                  
     -2312.816       -1802.270          34.000          22.000  
 107493720.240 8  83761408.304 7  20455376.257                    20455392.305  
        23.133          18.133          48.000          45.000  
 127254493.047 6  99159419.998 6  24215727.698                    24215747.035  
     -3379.547       -2633.516          39.000          38.000  
 115022559.217 7  89628055.747 6  21888064.561                    21888083.763  
      2771.281        2159.484          47.000          38.000  
 24  1 10  3 22  1.8000000  0  8G08G24G18G23G16G10G15G32
 128448343.099 6 100089702.387 6  24442918.973                    24442940.613  
      2788.391        2172.348          37.000          37.000  
 127983330.836 5  99727364.792 6  24354418.668                    24354439.446  
       199.312         155.859          33.000          38.000  
 113118812.902 7  88144593.484 7  21525796.253                    21525811.026  
     -1875.918       -1462.094          43.000          42.000  
 109799341.635 7  85557985.953 7  20894121.311                    20894135.807  
     -1847.668       -1439.859          44.000          45.000  
 128064032.020 5  99790280.861 3  24369783.038    24369807.279                  
     -2313.234       -1802.746          34.000          21.000  
 107493717.984 8  83761406.571 7  20455375.648                    20455391.788  
        22.797          17.527          48.000          45.000  
 127254831.015 6  99159683.390 6  24215792.706                    24215811.467  
     -3379.715       -2633.676          39.000          38.000  
 115022282.146 7  89627839.869 6  21888011.859                    21888031.341  
      2770.961        2158.867          47.000          38.000  
 24  1 10  3 22  1.9000000  0  8G08G24G18G23G16G10G15G32
 128448064.332 6 100089485.138 6  24442865.926                    24442887.558  
      2788.023        2172.574          37.000          37.000  
 127983310.755 5  99727349.225 6  24354414.846                    24354435.645  
       199.984         155.699          33.000          38.000  
 113119000.526 7  88144739.730 7  21525831.956                    21525846.741  
     -1876.188       -1462.176          43.000          42.000  
 109799526.461 7  85558129.971 7  20894156.482                    20894170.977  
     -1848.023       -1440.176          44.000          45.000  
 128064263.340 5  99790461.111 3  24369827.056    24369851.298                  
     -2313.074       -1802.387          34.000          21.000  
 107493715.740 8  83761404.796 7  20455375.221                    20455391.354  
        22.535          17.449          48.000          45.000  
 127255169.035 6  99159946.750 6  24215857.030                    24215875.782  
     -3379.898       -2633.777          39.000          38.000  
 115022005.097 7  89627623.980 6  21887959.138                    21887978.618  
      2770.766        2158.812          47.000          38.000  
 24  1 10  3 22  2.0000000  0  8G08G24G18G23G16G10G15G32
 128447785.557 6 100089267.879 6  24442812.790                    24442834.689  
      2787.938        2172.387          37.000          37.000  
 127983290.883 5  99727333.696 6  24354410.909                    24354431.845  
       199.480         155.039          32.000          38.000  
 113119188.238 7  88144885.945 7  21525867.708                    21525882.784  
     -1877.145       -1462.438          43.000          42.000  
 109799711.307 7  85558274.013 7  20894191.087                    20894206.560  
     -1848.516       -1440.539          44.000          45.000  
 128064494.678 5  99790641.381 3  24369871.086    24369895.345                  
     -2313.492       -1802.770          35.000          21.000  
 107493713.553 8  83761403.127 7  20455375.203                    20455390.650  
        21.930          16.906          48.000          45.000  
 127255507.032 6  99160210.125 6  24215921.903                    24215939.883  
     -3379.934       -2633.949          39.000          38.000  
 115021728.075 7  89627408.134 6  21887906.829                    21887926.071  
      2770.199        2158.719          47.000          38.000  
 24  1 10  3 22  2.1000000  0  8G08G24G18G23G16G10G15G32
 128447506.788 6 100089050.665 6  24442759.743                    24442781.643  
      2787.633        2172.523          37.000          37.000  
 127983270.83435  99727318.211 6  24354407.117                    24354428.063  
       199.277         155.031          31.000          38.000  
 113119375.902 7  88145032.171 7  21525903.419                    21525918.494  
     -1876.898       -1462.383          44.000          42.000  
 109799896.155 7  85558418.029 7  20894226.262                    20894241.730  
     -1848.652       -1440.430          44.000          45.000  
 128064726.042 5  99790821.669 3  24369915.114    24369939.373                  
     -2313.641       -1802.879          34.000          21.000  
 107493711.370 8  83761401.414 7  20455374.788                    20455390.232  
        21.660          16.965          48.000          45.000  
 127255845.024 6  99160473.542 6  24215986.221                    24216004.212  
     -3379.945       -2633.828          39.000          38.000  
 115021451.052 7  89627192.243 6  21887854.113                    21887873.348  
      2770.047        2158.355          47.000          38.000  
 24  1 10  3 22  2.2000000  0  8G08G24G18G23G16G10G15G32
 128447228.001 6 100088833.417 6  24442706.629                    24442728.776  
      2787.840        2172.367          37.000          37.000  
 127983251.03525  99727302.617 6  24354402.974                    24354424.028  
       199.105         155.945          31.000          37.000  
 113119563.563 7  88145178.374 7  21525939.356                    21525954.190  
     -1876.773       -1462.281          44.000          42.000  
 109800080.986 7  85558562.077 7  20894261.762                    20894276.846  
     -1848.223       -1440.438          44.000          45.000  
 128064957.317 5  99791001.882 3  24369959.452    24369983.399                  
     -2313.164       -1802.449          34.000          21.000  
 107493709.180 8  83761399.718 7  20455374.230                    20455389.880  
        21.910          17.039          48.000          45.000  
 127256182.985 6  99160736.879 6  24216050.564                    24216068.052  
     -3379.734       -2633.680          39.000          37.000  
 115021174.029 7  89626976.404 6  21887801.327                    21887820.716  
      2770.305        2158.676          47.000          38.000  
 24  1 10  3 22  2.3000000  0  8G08G24G18G23G16G10G15G32
 128446949.194 6 100088616.202 6  24442653.573                    24442675.730  
      2787.914        2172.250          37.000          37.000  
 127983231.06625  99727287.092 6  24354399.174                    24354420.237  
       199.152         155.039          32.000          37.000  
 113119751.242 7  88145324.703 7  21525975.071                    21525989.925  
     -1876.512       -1462.668          43.000          42.000  
 109800265.868 7  85558706.135 7  20894296.944                    20894312.026  
     -1848.621       -1440.500          45.000          45.000  
 128065188.703 5  99791182.185 3  24370003.483    24370027.430                  
     -2313.465       -1802.781          35.000          21.000  
 107493707.026 8  83761398.018 7  20455373.820                    20455389.465  
        21.789          17.059          48.000          45.000  
 127256520.992 6  99161000.265 6  24216114.884                    24216132.374  
     -3379.961       -2633.988          39.000          37.000  
 115020897.016 7  89626760.551 6  21887748.614                    21887768.002  
      2770.211        2158.590          47.000          38.000  
 24  1 10  3 22  2.4000000  0  8G08G24G18G23G16G10G15G32
 128446670.403 6 100088398.975 6  24442600.896                    24442621.892  
      2787.938        2172.246          37.000          37.000  
 127983211.19625  99727271.573 6  24354395.534                    24354416.369  
       198.992         155.234          32.000          37.000  
 113119939.013 7  88145470.991 7  21526010.747                    21526025.361  
     -1877.047       -1462.727          43.000          42.000  
 109800450.734 7  85558850.202 7  20894332.740                    20894347.326  
     -1848.609       -1440.699          45.000          45.000  
 128065420.056 5  99791362.459 3  24370047.860    24370071.455                  
     -2313.551       -1802.859          34.000          21.000  
 107493704.843 8  83761396.325 7  20455372.858                    20455389.325  
        21.820          16.754          48.000          45.000  
 127256859.008 6  99161263.654 6  24216178.972                    24216196.665  
     -3380.031       -2633.938          38.000          37.000  
 115020619.992 7  89626544.666 6  21887695.734                    21887714.500  
      2770.078        2158.574          47.000          38.000  
 24  1 10  3 22  2.5000000  0  8G08G24G18G23G16G10G15G32
 128446391.640 6 100088181.706 6  24442547.849                    24442568.833  
      2787.750        2172.504          37.000          37.000  
 127983191.26625  99727256.072 6  24354391.741                    24354412.583  
       199.062         154.844          33.000          37.000  
 113120126.692 7  88145617.189 7  21526046.462                    21526061.064  
     -1877.172       -1462.617          44.000          42.000  
 109800635.603 7  85558994.252 7  20894367.920                    20894382.505  
     -1848.684       -1440.531          45.000          45.000  
 128065651.345 5  99791542.683 3  24370091.872    24370115.468                  
     -2313.121       -1802.230          35.000          21.000  
 107493702.680 8  83761394.636 7  20455372.447                    20455388.912  
        21.664          17.012          48.000          45.000  
 127257197.062 6  99161527.042 6  24216243.302                    24216260.987  
     -3380.184       -2633.844          38.000          37.000  
 115020343.006 7  89626328.848 6  21887643.025                    21887661.795  
      2770.156        2158.402          47.000          38.000  
 24  1 10  3 22  2.6000000  0  8G08G24G18G23G16G10G15G32
 128446112.848 6 100087964.479 6  24442494.297                    24442515.471  
      2787.801        2172.199          37.000          37.000  
 127983171.37625  99727240.608 6  24354388.378                    24354408.963  
       199.203         154.910          32.000          37.000  
 113120314.439 7  88145763.489 7  21526082.259                    21526097.136  
     -1877.340       -1462.863          43.000          42.000  
 109800820.492 7  85559138.340 7  20894403.166                    20894417.849  
     -1848.836       -1440.863          45.000          45.000  
 128065882.670 5  99791722.935 3  24370135.564    24370159.526                  
     -2313.238       -1802.566          35.000          21.000  
 107493700.529 8  83761392.976 7  20455372.358                    20455388.249  
        21.676          16.785          48.000          45.000  
 127257535.112 6  99161790.436 6  24216307.545                    24216325.193  
     -3380.426       -2634.160          38.000          37.000  
 115020065.989 7  89626113.009 6  21887590.256                    21887608.468  
      2770.062        2158.391          47.000          38.000  
 24  1 10  3 22  2.7000000  0  8G08G24G18G23G16G10G15G32
 128445834.088 6 100087747.271 6  24442441.251                    24442462.427  
      2787.750        2172.078          37.000          37.000  
 127983151.42125  99727225.097 6  24354384.581                    24354405.175  
       199.070         154.848          33.000          37.000  
 113120502.177 7  88145909.774 7  21526117.984                    21526132.860  
     -1877.289       -1462.863          43.000          43.000  
 109801005.421 7  85559282.414 7  20894438.356                    20894453.033  
     -1848.941       -1440.770          45.000          45.000  
 128066113.955 5  99791903.162 3  24370179.576    24370203.540                  
     -2313.148       -1802.539          34.000          21.000  
 107493698.374 8  83761391.277 7  20455371.948                    20455387.834  
        21.582          16.770          48.000          45.000  
 127257873.166 6  99162053.920 6  24216371.874                    24216389.539  
     -3380.406       -2634.711          37.000          37.000  
 115019788.993 7  89625897.138 6  21887537.545                    21887555.750  
      2770.129        2158.562          47.000          39.000  
 24  1 10  3 22  2.8000000  0  8G08G24G18G23G16G10G15G32
 128445555.366 6 100087530.079 6  24442388.290                    24442409.269  
      2787.371        2172.250          38.000          37.000  
 127983131.76425  99727209.727 6  24354381.528                    24354401.382  
       198.016         153.930          32.000          37.000  
 113120689.944 7  88146056.127 7  21526153.387                    21526169.343  
     -1877.379       -1463.473          43.000          42.000  
 109801190.352 7  85559426.526 7  20894473.665                    20894488.281  
     -1849.375       -1441.234          45.000          45.000  
 128066345.290 5  99792083.427 3  24370223.293    24370247.570                  
     -2313.062       -1802.262          34.000          21.000  
 107493696.261 8  83761389.652 7  20455371.850                    20455387.726  
        21.309          16.266          48.000          45.000  
 127258211.267 6  99162317.360 6  24216435.627                    24216453.913  
     -3380.726       -2634.328          37.000          36.000  
 115019512.009 7  89625681.320 6  21887485.196                    21887502.920  
      2769.891        2158.211          47.000          39.000  
 24  1 10  3 22  2.9000000  0  8G08G24G18G23G16G10G15G32
 128445276.579 6 100087312.852 6  24442335.239                    24442356.220  
      2787.613        2172.309          37.000          37.000  
 127983111.80225  99727194.233 6  24354377.729                    24354397.599  
       198.832         154.633          31.000          37.000  
 113120877.692 7  88146202.468 7  21526189.114                    21526205.081  
     -1877.414       -1462.988          43.000          42.000  
 109801375.258 7  85559570.607 7  20894508.851                    20894523.467  
     -1849.137       -1440.836          45.000          45.000  
 128066576.599 5  99792263.655 3  24370267.310    24370291.584                  
     -2312.973       -1802.094          34.000          21.000  
 107493694.088 8  83761387.939 7  20455371.437                    20455387.308  
        21.473          16.895          48.000          45.000  
 127258549.367 6  99162580.824 6  24216499.965                    24216518.253  
     -3380.953       -2634.766          37.000          36.000  
 115019234.977 7  89625465.462 6  21887432.479                    21887450.205  
      2770.156        2158.543          47.000          39.000  
 24  1 10  3 22  3.0000000  0  8G08G24G18G23G16G10G15G32
 128444997.818 6 100087095.608 6  24442282.317                    24442303.526  
      2787.672        2172.281          37.000          37.000  
 127983092.10324  99727178.815 6  24354374.105                    24354394.115  
       197.648         154.051          29.000          37.000  
 113121065.449 7  88146348.701 7  21526225.148                    21526240.512  
     -1877.664       -1462.957          43.000          42.000  
 109801560.207 7  85559714.703 7  20894543.601                    20894558.547  
     -1849.254       -1440.898          45.000          45.000  
 128066807.835 5  99792443.833 3  24370311.164    24370335.632                  
     -2312.746       -1801.949          34.000          21.000  
 107493691.945 8  83761386.274 7  20455370.888                    20455386.902  
        21.570          16.902          48.000          45.000  
 127258887.476 6  99162844.248 6  24216564.133                    24216582.451  
     -3381.156       -2634.250          37.000          36.000  
 115018957.948 7  89625249.573 6  21887379.567                    21887397.631  
      2770.312        2158.871          47.000          39.000  
 24  1 10  3 22  3.1000000  0  8G08G24G18G23G16G10G15G32
 128444719.058 6 100086878.414 6  24442229.271                    24442250.485  
      2787.539        2171.980          37.000          37.000  
 127983072.19534  99727163.370 6  24354370.333                    24354390.343  
       198.301         154.352          29.000          37.000  
 113121253.251 7  88146495.084 7  21526260.885                    21526276.260  
     -1877.738       -1463.398          44.000          43.000  
 109801745.115 7  85559858.806 7  20894578.787                    20894593.739  
     -1849.137       -1441.031          45.000          45.000  
 128067039.132 5  99792624.055 3  24370355.178    24370379.644                  
     -2312.836       -1802.148          34.000          21.000  
 107493689.778 8  83761384.587 7  20455370.476                    20455386.489  
        21.617          16.781          48.000          45.000  
 127259225.550 6  99163107.742 5  24216628.466                    24216646.799  
     -3380.875       -2634.773          37.000          35.000  
 115018680.925 7  89625033.718 6  21887326.851                    21887344.917  
      2770.312        2158.543          47.000          39.000  
 24  1 10  3 22  3.2000000  0  8G08G24G18G23G16G10G15G32
 128444440.321 6 100086661.193 6  24442176.393                    24442197.696  
      2787.566        2172.367          37.000          37.000  
 127983052.48524  99727147.913 6  24354366.317                    24354386.498  
       197.988         154.754          29.000          37.000  
 113121440.959 7  88146641.323 7  21526296.933                    21526312.278  
     -1877.512       -1462.777          44.000          43.000  
 109801930.033 7  85560002.911 7  20894613.828                    20894628.493  
     -1849.109       -1440.922          45.000          45.000  
 128067270.324 5  99792804.196 3  24370398.993    24370423.667                  
     -2312.414       -1801.672          34.000          21.000  
 107493687.578 8  83761382.874 7  20455370.034                    20455386.118  
        21.809          17.043          48.000          45.000  
 127259563.678 6  99163371.114 5  24216693.021                    24216710.696  
     -3381.047       -2634.195          38.000          35.000  
 115018403.858 7  89624817.859 6  21887274.049                    21887292.226  
      2770.445        2158.664          47.000          39.000  
 24  1 10  3 22  3.3000000  0  8G08G24G18G23G16G10G15G32
 128444161.532 6 100086443.952 6  24442123.341                    24442144.643  
      2787.719        2172.195          37.000          37.000  
 127983032.58925  99727132.464 6  24354362.530                    24354382.725  
       198.266         154.309          30.000          38.000  
 113121628.742 7  88146787.688 7  21526332.667                    21526348.022  
     -1877.512       -1463.215          43.000          42.000  
 109802114.944 7  85560146.974 7  20894649.015                    20894663.675  
     -1849.121       -1440.816          45.000          44.000  
 128067501.634 5  99792984.436 3  24370443.010    24370467.684                  
     -2312.695       -1802.074          34.000          20.000  
 107493685.406 8  83761381.176 7  20455369.620                    20455385.703  
        21.797          17.078          48.000          45.000  
 127259901.830 6  99163634.651 5  24216757.369                    24216775.054  
     -3381.324       -2634.793          40.000          35.000  
 115018126.786 7  89624601.908 6  21887221.324                    21887239.488  
      2770.645        2159.273          47.000          39.000  
 24  1 10  3 22  3.4000000  0  8G08G24G18G23G16G10G15G32
 128443882.748 6 100086226.776 6  24442070.283                    24442091.958  
      2787.773        2172.160          37.000          37.000  
 127983012.81424  99727117.069 6  24354358.900                    24354379.317  
       198.195         153.914          29.000          38.000  
 113121816.513 7  88146933.992 7  21526368.446                    21526383.305  
     -1877.672       -1463.156          44.000          42.000  
 109802299.864 7  85560291.079 7  20894684.610                    20894698.648  
     -1849.102       -1440.969          45.000          44.000  
 128067732.847 5  99793164.593 3  24370486.922    24370511.664                  
     -2312.711       -1802.258          34.000          20.000  
 107493683.242 8  83761379.493 7  20455369.326                    20455385.277  
        21.746          16.852          48.000          45.000  
 127260239.984 6  99163898.096 5  24216822.429                    24216839.187  
     -3381.527       -2634.914          40.000          35.000  
 115017849.739 7  89624386.043 6  21887168.502                    21887187.131  
      2770.539        2158.828          47.000          39.000  
 24  1 10  3 22  3.5000000  0  8G08G24G18G23G16G10G15G32
 128443604.034 6 100086009.565 6  24442017.245                    24442038.913  
      2787.336        2171.957          37.000          37.000  
 127982993.04725  99727101.686 6  24354355.139                    24354375.560  
       197.766         153.871          30.000          38.000  
 113122004.325 7  88147080.284 7  21526404.185                    21526419.031  
     -1877.984       -1463.231          44.000          42.000  
 109802484.816 7  85560435.211 7  20894719.805                    20894733.847  
     -1849.457       -1441.102          45.000          44.000  
 128067964.137 5  99793344.823 3  24370530.935    24370555.678                  
     -2312.707       -1802.227          34.000          20.000  
 107493681.104 8  83761377.823 7  20455368.919                    20455384.869  
        21.508          16.590          48.000          45.000  
 127260578.122 6  99164161.574 6  24216886.774                    24216903.531  
     -3381.301       -2634.703          41.000          36.000  
 115017572.706 7  89624170.178 6  21887115.784                    21887134.415  
      2770.305        2158.547          47.000          39.000  
 24  1 10  3 22  3.6000000  0  8G08G24G18G23G16G10G15G32
 128443325.253 6 100085792.357 6  24441964.210                    24441986.001  
      2787.664        2172.164          37.000          37.000  
 127982973.29825  99727086.296 6  24354351.576                    24354371.685  
       197.695         153.930          30.000          38.000  
 113122192.088 7  88147226.622 7  21526439.837                    21526454.221  
     -1877.945       -1463.559          43.000          42.000  
 109802669.788 7  85560579.337 7  20894755.239                    20894769.294  
     -1849.574       -1441.410          45.000          44.000  
 128068195.376 5  99793525.019 3  24370574.923    24370599.676                  
     -2312.453       -1801.848          34.000          20.000  
 107493678.985 8  83761376.162 7  20455368.391                    20455384.370  
        21.383          16.562          48.000          45.000  
 127260916.251 7  99164425.094 6  24216951.993                    24216968.143  
     -3381.226       -2634.871          42.000          36.000  
 115017295.710 7  89623954.333 6  21887063.308                    21887081.875  
      2770.258        2158.617          47.000          39.000  
 24  1 10  3 22  3.7000000  0  8G08G24G18G23G16G10G15G32
 128443046.608 6 100085575.213 6  24441911.186                    24441932.973  
      2787.094        2171.633          37.000          37.000  
 127982953.56025  99727070.904 6  24354347.820                    24354367.926  
       197.211         153.801          30.000          38.000  
 113122379.926 7  88147373.013 7  21526475.581                    21526489.972  
     -1877.965       -1463.652          43.000          42.000  
 109802854.785 7  85560723.478 7  20894790.443                    20894804.494  
     -1849.793       -1441.211          44.000          44.000  
 128068426.730 5  99793705.295 3  24370618.948    24370643.701                  
     -2313.199       -1802.871          34.000          21.000  
 107493676.890 8  83761374.532 7  20455367.992                    20455383.972  
        21.066          16.383          48.000          45.000  
 127261254.392 7  99164688.593 6  24217016.339                    24217032.492  
     -3381.422       -2635.297          42.000          37.000  
 115017018.719 7  89623738.501 6  21887010.598                    21887029.167  
      2769.922        2158.289          47.000          39.000  
 24  1 10  3 22  3.8000000  0  8G08G24G18G23G16G10G15G32
 128442767.916 6 100085358.025 6  24441858.465                    24441879.558  
      2786.977        2171.863          37.000          37.000  
 127982933.89724  99727055.517 6  24354343.836                    24354364.215  
       197.219         154.215          29.000          38.000  
 113122567.708 7  88147519.364 7  21526510.878                    21526525.939  
     -1877.941       -1463.270          43.000          42.000  
 109803039.737 7  85560867.569 7  20894824.896                    20894839.636  
     -1849.684       -1441.234          44.000          45.000  
 128068658.026 5  99793885.525 3  24370662.744    24370687.645                  
     -2313.020       -1802.387          34.000          20.000  
 107493674.758 8  83761372.882 7  20455367.243                    20455383.545  
        21.180          16.430          48.000          45.000  
 127261592.494 7  99164952.063 6  24217081.662                    24217097.420  
     -3381.219       -2634.949          42.000          37.000  
 115016741.725 7  89623522.683 6  21886957.622                    21886975.977  
      2770.043        2158.422          47.000          39.000  
 24  1 10  3 22  3.9000000  0  8G08G24G18G23G16G10G15G32
 128442489.221 6 100085140.888 6  24441805.431                    24441826.531  
      2786.957        2171.531          37.000          37.000  
 127982914.03924  99727040.047 6  24354340.057                    24354360.437  
       198.004         154.453          29.000          38.000  
 113122755.533 7  88147665.652 7  21526546.620                    21526561.664  
     -1878.137       -1463.203          43.000          42.000  
 109803224.692 7  85561011.734 7  20894860.091                    20894874.843  
     -1849.516       -1441.219          45.000          45.000  
 128068889.385 5  99794065.806 3  24370706.770    24370731.671                  
     -2313.230       -1802.566          34.000          20.000  
 107493672.666 8  83761371.260 7  20455366.845                    20455383.149  
        21.023          16.406          48.000          45.000  
 127261930.605 7  99165215.581 6  24217146.003                    24217161.774  
     -3381.141       -2634.918          42.000          37.000  
 115016464.751 7  89623306.851 6  21886904.916                    21886923.269  
      2769.805        2158.305          47.000          39.000  
 24  1 10  3 22  4.0000000  0  8G08G24G18G23G16G10G15G32
 128442210.567 6 100084923.713 6  24441752.538                    24441773.659  
      2786.746        2171.582          37.000          38.000  
 127982894.20624  99727024.651 6  24354335.736                    24354356.396  
       198.000         154.066          28.000          38.000  
 113122943.301 7  88147811.956 7  21526582.366                    21526597.432  
     -1878.000       -1463.117          43.000          42.000  
 109803409.612 7  85561155.822 7  20894895.741                    20894909.788  
     -1849.367       -1441.109          45.000          44.000  
 128069120.724 5  99794246.072 3  24370750.847    24370775.733                  
     -2313.215       -1802.449          34.000          20.000  
 107493670.564 8  83761369.627 7  20455366.687                    20455382.813  
        21.078          16.289          48.000          45.000  
 127262268.708 6  99165479.038 6  24217210.849                    24217226.191  
     -3380.992       -2634.570          41.000          37.000  
 115016187.757 7  89623091.011 6  21886852.323                    21886870.465  
      2769.867        2158.602          47.000          39.000  
 24  1 10  3 22  4.1000000  0  8G08G24G18G23G16G10G15G32
 128441931.855 6 100084706.568 6  24441699.501                    24441720.630  
      2786.832        2171.238          37.000          38.000  
 127982874.44924  99727009.245 6  24354331.976                    24354352.634  
       197.984         154.094          27.000          38.000  
 113123131.058 7  88147958.318 7  21526618.095                    21526633.175  
     -1877.488       -1463.246          43.000          42.000  
 109803594.549 7  85561299.927 7  20894930.934                    20894944.980  
     -1849.281       -1441.039          45.000          44.000  
 128069352.067 5  99794426.335 3  24370794.870    24370819.755                  
     -2313.352       -1802.621          34.000          20.000  
 107493668.446 8  83761367.958 7  20455366.284                    20455382.405  
        21.145          16.562          48.000          45.000  
 127262606.828 6  99165742.476 6  24217275.191                    24217290.525  
     -3380.984       -2634.285          41.000          37.000  
 115015910.742 7  89622875.154 6  21886799.609                    21886817.750  
      2769.934        2158.387          47.000          39.000  
 24  1 10  3 22  4.2000000  0  8G08G24G18G23G16G10G15G32
 128441653.210 6 100084489.433 6  24441646.500                    24441668.009  
      2786.656        2171.395          36.000          38.000  
 127982854.45434  99726993.772 6  24354327.875                    24354349.261  
       198.617         154.578          28.000          38.000  
 113123318.829 7  88148104.633 7  21526653.757                    21526669.000  
     -1877.617       -1462.938          43.000          42.000  
 109803779.480 7  85561444.029 7  20894966.250                    20894980.007  
     -1849.371       -1440.922          45.000          45.000  
 128069583.477 5  99794606.654 3  24370839.054    24370863.838                  
     -2313.805       -1803.207          34.000          20.000  
 107493666.354 8  83761366.339 7  20455365.682                    20455381.932  
        21.039          16.348          48.000          45.000  
 127262944.914 6  99166005.878 6  24217338.855                    24217354.522  
     -3381.141       -2634.609          40.000          37.000  
 115015633.790 7  89622659.328 6  21886746.758                    21886764.981  
      2769.867        2158.410          47.000          39.000  
 24  1 10  3 22  4.3000000  0  8G08G24G18G23G16G10G15G32
 128441374.592 6 100084272.337 6  24441593.481                    24441614.992  
      2786.434        2171.195          37.000          38.000  
 127982834.66234  99726978.364 6  24354324.085                    24354345.499  
       198.996         154.395          28.000          38.000  
 113123506.618 7  88148250.908 7  21526689.492                    21526704.722  
     -1877.711       -1462.930          43.000          42.000  
 109803964.439 7  85561588.145 7  20895001.447                    20895015.202  
     -1849.496       -1441.074          44.000          45.000  
 128069814.881 5  99794786.971 3  24370883.089    24370907.873                  
     -2313.996       -1803.336          34.000          20.000  
 107493664.285 8  83761364.720 7  20455365.289                    20455381.536  
        20.805          16.188          48.000          45.000  
 127263283.040 6  99166269.402 6  24217403.198                    24217418.878  
     -3381.090       -2634.930          40.000          37.000  
 115015356.852 7  89622443.529 6  21886694.059                    21886712.281  
      2769.559        2157.770          47.000          39.000  
 24  1 10  3 22  4.4000000  0  7G08G16G18G23G10G32G15
 128441095.959 6 100084055.255 6  24441540.130                    24441562.057  
      2786.461        2170.941          37.000          38.000  
 128070046.386 5  99794967.368 3  24370927.346    24370951.912                  
     -2314.402       -1803.609          33.000          20.000  
 113123694.334 7  88148397.185 7  21526725.150                    21526740.483  
     -1877.617       -1463.094          43.000          42.000  
 109804149.358 7  85561732.235 7  20895036.143                    20895050.788  
     -1849.398       -1441.051          44.000          45.000  
 107493662.225 8  83761363.111 7  20455365.225                    20455381.104  
        20.672          16.004          48.000          45.000  
 115015079.888 7  89622227.741 6  21886641.292                    21886659.646  
      2769.551        2157.934          47.000          39.000  
 127263621.149 6  99166532.832 6  24217467.507                    24217482.968  
     -3381.188       -2634.445          40.000          37.000  
 24  1 10  3 22  4.5000000  0  7G08G16G18G23G10G32G15
 128440817.310 6 100083838.100 6  24441487.105                    24441509.025  
      2786.395        2171.527          37.000          38.000  
 128070277.724 5  99795147.629 3  24370971.368    24370995.934                  
     -2313.930       -1802.961          33.000          20.000  
 113123882.100 7  88148543.487 7  21526760.881                    21526776.212  
     -1877.496       -1462.934          43.000          42.000  
 109804334.263 7  85561876.312 7  20895071.330                    20895085.974  
     -1849.066       -1440.688          45.000          45.000  
 107493660.130 8  83761361.485 7  20455364.826                    20455380.707  
        20.840          16.238          48.000          45.000  
 115014802.943 7  89622011.935 6  21886588.591                    21886606.943  
      2769.648        2158.301          47.000          39.000  
 127263959.173 6  99166796.254 6  24217531.831                    24217547.298  
     -3380.598       -2633.949          40.000          37.000  
 24  1 10  3 22  4.6000000  0  7G08G16G18G23G10G32G15
 128440538.721 6 100083621.005 6  24441433.615                    24441455.915  
      2786.227        2171.000          38.000          38.000  
 128070509.162 5  99795327.973 3  24371015.292    24371039.976                  
     -2314.137       -1803.309          34.000          20.000  
 113124069.851 7  88148689.823 7  21526796.671                    21526811.691  
     -1877.445       -1462.930          43.000          42.000  
 109804519.204 7  85562020.422 7  20895106.687                    20895121.479  
     -1849.281       -1441.023          45.000          45.000  
 107493658.089 8  83761359.896 7  20455364.430                    20455380.124  
        20.641          15.984          48.000          45.000  
 115014525.996 7  89621796.100 6  21886535.585                    21886554.023  
      2769.480        2157.988          47.000          39.000  
 127264297.230 6  99167059.684 6  24217595.997                    24217611.607  
     -3380.578       -2634.465          40.000          36.000  
 24  1 10  3 22  4.7000000  0  7G08G16G18G23G10G32G15
 128440260.067 6 100083403.916 6  24441380.589                    24441402.899  
      2786.438        2171.035          38.000          38.000  
 128070740.706 5  99795508.396 3  24371059.354    24371084.037                  
     -2314.840       -1804.094          34.000          20.000  
 113124257.546 7  88148836.055 7  21526832.389                    21526847.402  
     -1877.340       -1462.969          44.000          42.000  
 109804704.123 7  85562164.523 7  20895141.876                    20895156.670  
     -1849.289       -1441.020          45.000          44.000  
 107493656.032 8  83761358.270 7  20455364.039                    20455379.727  
        20.547          16.047          48.000          45.000  
 115014249.065 7  89621580.351 6  21886482.887                    21886501.335  
      2769.348        2157.617          47.000          39.000  
 127264635.315 6  99167323.124 6  24217660.332                    24217675.942  
     -3380.770       -2634.398          39.000          36.000  
 24  1 10  3 22  4.8000000  0  7G08G16G18G23G10G32G15
 128439981.459 6 100083186.794 6  24441327.603                    24441350.071  
      2786.234        2171.285          38.000          37.000  
 128070972.115 5  99795688.716 3  24371102.991    24371128.018                  
     -2314.348       -1803.203          34.000          20.000  
 113124445.297 7  88148982.396 7  21526868.296                    21526883.109  
     -1877.180       -1462.742          44.000          42.000  
 109804889.013 7  85562308.547 7  20895177.192                    20895191.569  
     -1849.098       -1440.512          45.000          44.000  
 107493653.965 8  83761356.687 7  20455363.645                    20455379.286  
        20.734          16.141          48.000          45.000  
 115013972.141 7  89621364.579 6  21886430.424                    21886448.853  
      2769.418        2157.859          47.000          39.000  
 127264973.395 6  99167586.521 6  24217724.331                    24217740.258  
     -3380.762       -2634.121          39.000          36.000  
 24  1 10  3 22  4.9000000  0  7G08G16G18G23G10G32G15
 128439702.861 6 100082969.697 6  24441274.587                    24441297.054  
      2786.121        2170.855          37.000          37.000  
 128071203.582 5  99795869.077 3  24371147.037    24371172.064                  
     -2314.527       -1803.555          34.000          21.000  
 113124633.005 7  88149128.584 7  21526904.016                    21526918.809  
     -1877.402       -1462.777          43.000          42.000  
 109805073.901 7  85562452.652 7  20895212.375                    20895226.761  
     -1848.895       -1440.602          45.000          44.000  
 107493651.857 8  83761355.040 7  20455363.244                    20455378.883  
        20.863          16.363          48.000          45.000  
 115013695.177 7  89621148.749 6  21886377.720                    21886396.144  
      2769.520        2158.129          47.000          39.000  
 127265311.388 6  99167849.900 6  24217788.649                    24217804.578  
     -3380.398       -2633.879          38.000          36.000  
 24  1 10  3 22  5.0000000  0  7G08G16G18G23G10G32G15
 128439424.229 6 100082752.588 6  24441221.995                    24441244.018  
      2786.180        2171.137          37.000          37.000  
 128071435.054 5  99796049.449 3  24371190.671    24371216.066                  
     -2314.652       -1803.699          34.000          20.000  
 113124820.734 7  88149274.913 7  21526939.552                    21526954.443  
     -1877.254       -1462.945          43.000          42.000  
 109805258.803 7  85562596.728 7  20895247.498                    20895261.946  
     -1848.875       -1440.805          45.000          44.000  
 107493649.787 8  83761353.434 7  20455363.147                    20455378.889  
        20.824          16.141          48.000          45.000  
 115013418.240 7  89620932.924 6  21886325.036                    21886343.282  
      2769.375        2157.902          47.000          39.000  
 127265649.489 6  99168113.319 6  24217852.730                    24217869.087  
     -3380.699       -2634.363          38.000          36.000  
 24  1 10  3 22  5.1000000  0  7G08G16G18G23G10G32G15
 128439145.663 6 100082535.525 6  24441168.986                    24441191.009  
      2785.941        2170.770          37.000          37.000  
 128071666.525 5  99796229.812 3  24371234.719    24371260.112                  
     -2314.707       -1803.719          35.000          20.000  
 113125008.510 7  88149421.271 7  21526975.284                    21526990.185  
     -1877.449       -1463.273          43.000          42.000  
 109805443.730 7  85562740.829 7  20895282.688                    20895297.137  
     -1849.176       -1441.094          45.000          44.000  
 107493647.758 8  83761351.851 7  20455362.761                    20455378.503  
        20.574          15.891          48.000          45.000  
 115013141.355 7  89620717.158 6  21886272.346                    21886290.589  
      2769.078        2157.504          47.000          39.000  
 127265987.603 6  99168376.787 6  24217917.070                    24217933.429  
     -3380.856       -2634.406          38.000          36.000  
 24  1 10  3 22  5.2000000  0  7G08G16G18G23G10G32G15
 128438867.042 6 100082318.422 6  24441116.075                    24441137.756  
      2786.047        2171.066          37.000          37.000  
 128071898.028 5  99796410.199 3  24371278.960    24371304.134                  
     -2314.832       -1803.773          35.000          20.000  
 113125196.289 7  88149567.564 7  21527011.213                    21527026.403  
     -1877.766       -1463.160          43.000          42.000  
 109805628.664 7  85562884.935 7  20895317.693                    20895332.251  
     -1849.441       -1441.176          45.000          44.000  
 107493645.705 8  83761350.247 7  20455361.987                    20455378.189  
        20.414          15.727          48.000          45.000  
 115012864.464 7  89620501.438 6  21886219.671                    21886237.705  
      2768.965        2157.578          47.000          39.000  
 127266325.733 6  99168640.218 6  24217981.375                    24217998.027  
     -3381.043       -2634.441          38.000          37.000  
 24  1 10  3 22  5.3000000  0  7G08G16G18G23G10G32G15
 128438588.401 6 100082101.324 6  24441063.052                    24441084.738  
      2786.293        2170.953          37.000          37.000  
 128072129.466 5  99796590.537 3  24371323.001    24371348.174                  
     -2314.535       -1803.410          34.000          20.000  
 113125384.078 7  88149713.862 7  21527046.948                    21527062.131  
     -1877.824       -1463.207          43.000          42.000  
 109805813.593 7  85563029.035 7  20895352.884                    20895367.441  
     -1849.160       -1440.789          45.000          44.000  
 107493643.643 8  83761348.640 7  20455361.595                    20455377.797  
        20.531          16.055          48.000          45.000  
 115012587.549 7  89620285.637 6  21886166.976                    21886185.004  
      2769.094        2157.926          47.000          39.000  
 127266663.728 6  99168903.622 6  24218045.694                    24218062.353  
     -3380.500       -2633.953          38.000          36.000  
 24  1 10  3 22  5.4000000  0  7G08G16G18G23G10G32G15
 128438309.813 6 100081884.223 6  24441009.898                    24441031.618  
      2786.051        2171.246          37.000          37.000  
 128072360.895 5  99796770.876 3  24371367.103    24371392.262                  
     -2314.465       -1803.438          35.000          21.000  
 113125571.854 7  88149860.176 7  21527082.813                    21527097.714  
     -1877.875       -1463.281          44.000          42.000  
 109805998.525 7  85563173.157 7  20895388.184                    20895402.669  
     -1849.328       -1441.340          44.000          44.000  
 107493641.593 8  83761347.037 7  20455361.127                    20455377.085  
        20.562          16.113          48.000          45.000  
 115012310.652 7  89620069.891 6  21886114.089                    21886132.348  
      2768.969        2157.539          47.000          39.000  
 127267001.805 6  99169167.109 6  24218109.535                    24218126.332  
     -3380.711       -2634.633          38.000          36.000  
 24  1 10  3 22  5.5000000  0  7G08G16G18G23G10G32G15
 128438031.187 6 100081667.116 6  24440956.877                    24440978.599  
      2786.230        2170.922          37.000          37.000  
 128072592.358 5  99796951.237 3  24371411.149    24371436.308                  
     -2314.570       -1803.605          35.000          21.000  
 113125759.656 7  88150006.549 7  21527118.551                    21527133.459  
     -1877.738       -1463.523          44.000          42.000  
 109806183.472 7  85563317.285 7  20895423.378                    20895437.866  
     -1849.391       -1441.156          44.000          44.000  
 107493639.551 8  83761345.458 7  20455360.738                    20455376.700  
        20.578          15.809          48.000          45.000  
 115012033.780 7  89619854.129 6  21886061.402                    21886079.657  
      2768.930        2157.656          47.000          39.000  
 127267339.866 6  99169430.561 6  24218173.866                    24218190.670  
     -3380.781       -2634.445          38.000          36.000  
 24  1 10  3 22  5.6000000  0  8G08G24G18G23G16G10G15G32
 128437752.579 6 100081450.001 6  24440903.594                    24440925.585  
      2786.145        2171.125          37.000          37.000  
 127982577.29135  99726777.723 6  24354274.640                    24354295.508  
       197.688         153.637          32.000          37.000  
 113125947.487 7  88150152.927 7  21527154.349                    21527169.183  
     -1878.094       -1463.586          43.000          42.000  
 109806368.442 7  85563461.388 7  20895458.538                    20895473.276  
     -1849.629       -1441.367          45.000          44.000  
 128072823.798 5  99797131.581 3  24371454.956    24371480.396                  
     -2314.473       -1803.449          35.000          21.000  
 107493637.516 8  83761343.879 7  20455360.359                    20455376.400  
        20.359          15.684          48.000          45.000  
 127267678.004 6  99169694.019 6  24218237.681                    24218255.118  
     -3380.922       -2634.652          38.000          37.000  
 115011756.903 7  89619638.399 6  21886008.894                    21886027.091  
      2768.836        2157.320          47.000          39.000  
 24  1 10  3 22  5.7000000  0  8G08G24G18G23G16G10G15G32
 128437473.932 6 100081232.910 6  24440850.569                    24440872.569  
      2786.254        2170.926          37.000          37.000  
 127982557.53125  99726762.280 6  24354270.880                    24354291.737  
       197.621         154.219          32.000          37.000  
 113126135.292 7  88150299.240 7  21527190.087                    21527204.914  
     -1878.168       -1463.523          44.000          42.000  
 109806553.361 7  85563605.523 7  20895493.727                    20895508.475  
     -1849.293       -1441.039          44.000          44.000  
 128073055.239 5  99797311.923 3  24371498.998    24371524.438                  
     -2314.320       -1803.238          35.000          21.000  
 107493635.459 8  83761342.263 7  20455359.967                    20455376.005  
        20.449          16.102          48.000          45.000  
 127268016.085 6  99169957.452 6  24218302.015                    24218319.451  
     -3380.973       -2634.715          38.000          37.000  
 115011479.999 7  89619422.637 6  21885956.201                    21885974.399  
      2768.930        2157.551          47.000          39.000  
 24  1 10  3 22  5.8000000  0  8G08G24G18G23G16G10G15G32
 128437195.294 6 100081015.788 6  24440797.359                    24440819.569  
      2786.324        2171.137          38.000          36.000  
 127982537.85325  99726746.902 6  24354267.198                    24354287.708  
       197.223         153.719          33.000          37.000  
 113126323.123 7  88150445.664 7  21527226.080                    21527240.743  
     -1878.078       -1463.637          44.000          43.000  
 109806738.308 7  85563749.610 7  20895528.859                    20895543.538  
     -1849.426       -1440.961          44.000          44.000  
 128073286.713 5  99797492.296 3  24371543.460    24371568.494                  
     -2314.746       -1803.938          35.000          21.000  
 107493633.411 8  83761340.660 7  20455359.414                    20455375.528  
        20.512          16.020          48.000          45.000  
 127268354.265 6  99170220.976 6  24218366.173                    24218384.033  
     -3381.352       -2634.926          38.000          37.000  
 115011203.110 7  89619206.862 6  21885903.628                    21885921.807  
      2768.875        2157.605          47.000          39.000  
 24  1 10  3 22  5.9000000  0  8G08G24G18G23G16G10G15G32
 128436916.753 6 100080798.664 6  24440744.354                    24440766.545  
      2785.777        2171.367          38.000          36.000  
 127982518.11325  99726731.523 6  24354263.441                    24354283.952  
       197.434         153.852          33.000          37.000  
 113126510.917 7  88150591.917 7  21527261.816                    21527276.459  
     -1878.234       -1463.094          43.000          43.000  
 109806923.271 7  85563893.728 7  20895564.056                    20895578.733  
     -1849.531       -1441.106          45.000          44.000  
 128073518.059 5  99797672.566 3  24371587.483    24371612.518                  
     -2314.098       -1803.078          35.000          22.000  
 107493631.349 8  83761339.066 7  20455359.021                    20455375.138  
        20.617          16.043          48.000          45.000  
 127268692.378 6  99170484.411 6  24218430.514                    24218448.367  
     -3381.192       -2634.512          38.000          37.000  
 115010926.218 7  89618991.100 6  21885850.937                    21885869.115  
      2768.953        2157.766          47.000          39.000  
 24  1 10  3 22  6.0000000  0  8G08G24G18G23G16G10G15G32
 128436638.059 6 100080581.549 6  24440691.211                    24440713.500  
      2786.461        2171.320          37.000          36.000  
 127982498.28125  99726716.133 6  24354259.589                    24354280.334  
       197.875         153.832          34.000          37.000  
 113126698.743 7  88150738.283 7  21527297.222                    21527312.758  
     -1878.090       -1463.543          44.000          43.000  
 109807108.179 7  85564037.803 7  20895599.657                    20895613.324  
     -1849.371       -1441.145          45.000          44.000  
 128073749.521 5  99797852.931 3  24371631.623    24371656.573                  
     -2314.254       -1803.332          34.000          22.000  
 107493629.272 8  83761337.434 7  20455358.962                    20455374.974  
        20.695          16.184          48.000          45.000  
 127269030.498 6  99170747.858 6  24218494.684                    24218513.164  
     -3381.156       -2634.645          39.000          37.000  
 115010649.304 7  89618775.339 6  21885798.367                    21885816.651  
      2769.121        2157.789          47.000          39.000  
 24  1 10  3 22  6.1000000  0  8G08G24G18G23G16G10G15G32
 128436359.382 6 100080364.422 6  24440638.180                    24440660.475  
      2786.453        2171.262          37.000          36.000  
 127982478.60825  99726700.805 6  24354255.846                    24354276.591  
       197.359         153.711          34.000          37.000  
 113126886.496 7  88150884.617 7  21527332.950                    21527348.494  
     -1877.777       -1463.324          44.000          43.000  
 109807293.076 7  85564181.906 7  20895634.842                    20895648.515  
     -1849.031       -1440.465          45.000          44.000  
 128073980.869 5  99798033.198 3  24371675.647    24371700.596                  
     -2313.941       -1802.973          34.000          21.000  
 107493627.129 8  83761335.781 7  20455358.554                    20455374.571  
        21.129          16.680          48.000          45.000  
 127269368.562 6  99171011.343 6  24218559.016                    24218577.510  
     -3380.922       -2634.754          40.000          37.000  
 115010372.341 7  89618559.552 6  21885745.663                    21885763.954  
      2769.508        2157.926          47.000          39.000  
 24  1 10  3 22  6.2000000  0  8G08G24G18G23G16G10G15G32
 128436080.770 6 100080147.297 6  24440585.326                    24440607.623  
      2786.289        2171.051          37.000          36.000  
 127982458.95925  99726685.347 6  24354252.099                    24354272.214  
       197.035         153.941          34.000          37.000  
 113127074.264 7  88151030.937 7  21527369.002                    21527384.540  
     -1877.719       -1462.828          43.000          43.000  
 109807477.943 7  85564325.912 7  20895670.091                    20895683.410  
     -1848.828       -1440.363          45.000          44.000  
 128074212.259 5  99798213.498 3  24371719.781    24371744.604                  
     -2313.781       -1802.770          34.000          21.000  
 107493624.984 8  83761334.105 7  20455358.177                    20455374.161  
        21.301          16.766          48.000          45.000  
 127269706.717 6  99171274.763 6  24218623.451                    24218641.089  
     -3381.285       -2634.070          40.000          36.000  
 115010095.370 7  89618343.686 6  21885692.824                    21885711.580  
      2769.559        2158.559          47.000          39.000  
 24  1 10  3 22  6.3000000  0  8G08G24G18G23G16G10G15G32
 128435802.139 6 100079930.195 6  24440532.305                    24440554.605  
      2786.320        2171.230          37.000          37.000  
 127982439.04635  99726669.996 6  24354248.325                    24354268.465  
       198.367         153.551          32.000          37.000  
 113127261.985 7  88151177.205 7  21527404.724                    21527420.260  
     -1877.316       -1462.770          43.000          43.000  
 109807662.811 7  85564469.959 7  20895705.270                    20895718.588  
     -1848.781       -1440.566          44.000          44.000  
 128074443.670 5  99798393.816 3  24371763.817    24371788.639                  
     -2314.109       -1803.281          34.000          21.000  
 107493622.837 8  83761332.412 7  20455357.769                    20455373.748  
        21.438          16.855          48.000          45.000  
 127270044.821 6  99171538.204 6  24218687.790                    24218705.425  
     -3381.031       -2634.492          39.000          37.000  
 115009818.405 7  89618127.880 6  21885640.119                    21885658.879  
      2769.566        2158.141          47.000          39.000  
 24  1 10  3 22  6.4000000  0  8G08G24G18G23G16G10G15G32
 128435523.534 6 100079713.061 6  24440479.671                    24440501.523  
      2786.242        2171.285          38.000          36.000  
 127982419.30635  99726654.619 6  24354244.514                    24354265.015  
       197.273         153.812          31.000          38.000  
 113127449.700 7  88151323.457 7  21527440.249                    21527455.656  
     -1877.445       -1462.848          43.000          43.000  
 109807847.601 7  85564614.007 7  20895740.232                    20895754.625  
     -1848.148       -1440.188          44.000          44.000  
 128074675.092 5  99798574.130 3  24371807.894    24371832.658                  
     -2313.965       -1802.879          34.000          21.000  
 107493620.650 8  83761330.719 7  20455357.430                    20455373.131  
        21.668          17.008          48.000          45.000  
 127270382.845 6  99171801.652 6  24218752.660                    24218769.339  
     -3380.602       -2634.293          38.000          37.000  
 115009541.411 7  89617912.037 6  21885586.917                    21885606.206  
      2769.770        2158.438          47.000          39.000  
 24  1 10  3 22  6.5000000  0  8G08G24G18G23G16G10G15G32
 128435244.870 6 100079495.947 6  24440426.643                    24440448.502  
      2786.367        2171.332          37.000          36.000  
 127982399.65225  99726639.227 6  24354240.774                    24354261.256  
       197.160         153.840          32.000          37.000  
 113127637.418 7  88151469.761 7  21527475.971                    21527491.385  
     -1877.145       -1462.840          44.000          43.000  
 109808032.452 7  85564758.039 7  20895775.407                    20895789.799  
     -1848.371       -1440.109          44.000          45.000  
 128074906.511 5  99798754.443 3  24371851.931    24371876.692                  
     -2314.242       -1803.367          34.000          21.000  
 107493618.467 8  83761329.028 7  20455357.015                    20455372.718  
        21.723          16.945          48.000          45.000  
 127270720.913 6  99172065.173 6  24218816.993                    24218833.694  
     -3380.766       -2634.969          37.000          38.000  
 115009264.444 7  89617696.248 6  21885534.212                    21885553.509  
      2769.832        2158.316          47.000          39.000  
 24  1 10  3 22  6.6000000  0  8G08G24G18G23G16G10G15G32
 128434966.246 6 100079278.854 6  24440373.732                    24440395.415  
      2786.449        2170.789          38.000          37.000  
 127982379.86925  99726623.874 6  24354236.986                    24354257.600  
       197.523         153.809          32.000          38.000  
 113127825.170 7  88151616.018 7  21527511.691                    21527526.782  
     -1877.301       -1462.430          43.000          43.000  
 109808217.268 7  85564902.017 7  20895810.171                    20895825.272  
     -1848.359       -1440.074          44.000          45.000  
 128075137.932 5  99798934.769 3  24371896.196    24371920.722                  
     -2314.254       -1803.320          34.000          20.000  
 107493616.309 8  83761327.337 7  20455356.464                    20455372.423  
        21.711          16.941          48.000          45.000  
 127271058.963 6  99172328.581 6  24218880.688                    24218898.716  
     -3380.684       -2634.188          37.000          38.000  
 115008987.474 7  89617480.392 6  21885481.670                    21885500.349  
      2769.660        2158.137          47.000          39.000  
 24  1 10  3 22  6.7000000  0  8G08G24G18G23G16G10G15G32
 128434687.639 6 100079061.750 6  24440320.715                    24440342.396  
      2786.098        2170.957          37.000          37.000  
 127982360.14625  99726608.464 6  24354233.233                    24354253.837  
       197.223         153.902          33.000          38.000  
 113128012.898 7  88151762.282 7  21527547.414                    21527562.501  
     -1877.328       -1462.992          43.000          43.000  
 109808402.102 7  85565046.063 7  20895845.343                    20895860.450  
     -1848.273       -1440.141          44.000          45.000  
 128075369.363 5  99799115.096 3  24371940.236    24371964.760                  
     -2314.406       -1803.543          34.000          21.000  
 107493614.176 8  83761325.679 7  20455356.058                    20455372.018  
        21.504          16.594          48.000          45.000  
 127271397.120 6  99172591.972 6  24218945.038                    24218963.039  
     -3381.082       -2634.012          39.000          38.000  
 115008710.529 7  89617264.616 6  21885428.969                    21885447.654  
      2769.477        2157.867          47.000          39.000  
 24  1 10  3 22  6.8000000  0  8G08G24G18G23G16G10G15G32
 128434409.048 6 100078844.647 6  24440267.513                    24440289.268  
      2786.105        2171.125          37.000          37.000  
 127982340.50325  99726593.081 6  24354229.479                    24354250.252  
       197.164         154.293          33.000          38.000  
 113128200.667 7  88151908.584 7  21527583.044                    21527597.909  
     -1877.641       -1462.945          44.000          43.000  
 109808586.977 7  85565190.106 7  20895880.461                    20895895.728  
     -1848.633       -1440.559          44.000          45.000  
 128075600.842 5  99799295.457 3  24371984.464    24372008.806                  
     -2314.391       -1803.324          34.000          21.000  
 107493612.052 8  83761324.021 7  20455355.974                    20455371.363  
        21.176          16.418          48.000          45.000  
 127271735.171 6  99172855.455 6  24219009.640                    24219027.704  
     -3380.703       -2634.727          39.000          38.000  
 115008433.628 7  89617048.839 6  21885376.808                    21885394.959  
      2769.258        2157.852          47.000          38.000  
 24  1 10  3 22  6.9000000  0  8G08G24G18G23G16G10G15G32
 128434130.447 6 100078627.560 6  24440214.497                    24440236.253  
      2785.984        2170.816          37.000          37.000  
 127982320.578 5  99726577.638 6  24354225.688                    24354246.481  
       197.906         154.137          32.000          38.000  
 113128388.403 7  88152054.906 7  21527618.769                    21527633.642  
     -1877.328       -1463.215          43.000          43.000  
 109808771.853 7  85565334.183 7  20895915.642                    20895930.913  
     -1848.691       -1440.918          44.000          45.000  
 128075832.354 5  99799475.854 3  24372028.520    24372052.860                  
     -2314.859       -1803.988          34.000          21.000  
 107493609.985 8  83761322.394 7  20455355.581                    20455370.965  
        20.988          16.207          48.000          45.000  
 127272073.226 6  99173118.836 6  24219073.970                    24219092.025  
     -3380.703       -2633.965          39.000          38.000  
 115008156.755 7  89616833.066 6  21885324.121                    21885342.265  
      2768.918        2157.488          47.000          38.000  
 24  1 10  3 22  7.0000000  0  8G08G24G18G23G16G10G15G32
 128433851.873 6 100078410.528 6  24440161.752                    24440183.221  
      2785.922        2170.586          37.000          37.000  
 127982300.907 5  99726562.271 6  24354222.226                    24354242.752  
       197.527         153.965          33.000          38.000  
 113128576.203 7  88152201.238 7  21527654.733                    21527669.511  
     -1877.668       -1463.086          43.000          43.000  
 109808956.729 7  85565478.243 7  20895951.330                    20895966.500  
     -1848.844       -1440.672          45.000          45.000  
 128076063.893 5  99799656.274 3  24372072.283    24372096.921                  
     -2315.137       -1804.184          34.000          21.000  
 107493607.927 8  83761320.804 7  20455354.853                    20455370.835  
        20.738          15.973          48.000          45.000  
 127272411.284 6  99173382.298 6  24219138.284                    24219156.123  
     -3380.570       -2634.426          39.000          38.000  
 115007879.911 7  89616617.391 6  21885271.557                    21885289.955  
      2768.648        2157.223          47.000          38.000  
 24  1 10  3 22  7.1000000  0  8G08G24G18G23G16G10G15G32
 128433573.283 6 100078193.440 6  24440108.738                    24440130.206  
      2785.840        2170.930          38.000          37.000  
 127982281.056 5  99726546.874 6  24354218.448                    24354238.992  
       197.781         153.871          32.000          38.000  
 113128763.991 7  88152347.573 7  21527690.468                    21527705.247  
     -1877.914       -1463.590          43.000          43.000  
 109809141.612 7  85565622.303 7  20895986.513                    20896001.681  
     -1848.781       -1440.887          44.000          45.000  
 128076295.429 5  99799836.697 3  24372116.343    24372140.982                  
     -2315.219       -1804.180          34.000          20.000  
 107493605.912 8  83761319.239 7  20455354.470                    20455370.453  
        20.480          15.742          48.000          45.000  
 127272749.355 6  99173645.699 6  24219202.617                    24219220.448  
     -3380.578       -2633.844          39.000          38.000  
 115007603.097 7  89616401.638 6  21885218.881                    21885237.266  
      2768.332        2156.934          47.000          38.000  
 24  1 10  3 22  7.2000000  0  8G08G24G18G23G16G10G15G32
 128433294.763 6 100077976.353 6  24440055.917                    24440077.456  
      2785.473        2170.855          38.000          37.000  
 127982261.448 5  99726531.506 6  24354214.842                    24354235.543  
       197.098         153.594          31.000          38.000  
 113128951.745 7  88152493.908 7  21527726.251                    21527741.187  
     -1877.797       -1463.492          43.000          43.000  
 109809326.533 7  85565766.417 7  20896021.522                    20896035.672  
     -1848.988       -1440.766          44.000          45.000  
 128076526.984 5  99800017.136 3  24372160.477    24372185.078                  
     -2315.422       -1804.391          34.000          20.000  
 107493603.915 8  83761317.677 7  20455354.238                    20455369.837  
        20.133          15.570          48.000          45.000  
 127273087.356 6  99173909.107 6  24219267.366                    24219284.509  
     -3380.207       -2634.164          38.000          37.000  
 115007326.312 7  89616186.003 6  21885166.085                    21885185.059  
      2768.047        2156.648          47.000          39.000  
 24  1 10  3 22  7.3000000  0  8G08G24G18G23G16G10G15G32
 128433016.200 6 100077759.303 6  24440002.908                    24440024.451  
      2785.656        2170.402          37.000          37.000  
 127982241.622 5  99726516.106 6  24354211.069                    24354231.782  
       197.754         154.125          31.000          38.000  
 113129139.626 7  88152640.280 7  21527762.003                    21527776.933  
     -1878.277       -1463.691          43.000          43.000  
 109809511.462 7  85565910.498 7  20896056.713                    20896070.858  
     -1849.059       -1441.141          44.000          44.000  
 128076758.564 5  99800197.583 3  24372204.545    24372229.145                  
     -2315.582       -1804.391          34.000          20.000  
 107493601.940 8  83761316.141 7  20455353.862                    20455369.462  
        19.977          15.324          48.000          45.000  
 127273425.394 6  99174172.486 6  24219331.693                    24219348.829  
     -3380.293       -2634.047          37.000          37.000  
 115007049.551 7  89615970.320 6  21885113.419                    21885132.386  
      2767.801        2156.648          47.000          39.000  
 24  1 10  3 22  7.4000000  0  8G08G24G18G23G16G10G15G32
 128432737.639 6 100077542.267 6  24439949.782                    24439971.261  
      2785.281        2170.328          38.000          37.000  
 127982221.768 5  99726500.739 6  24354206.978                    24354228.459  
       198.512         153.516          31.000          38.000  
 113129327.466 7  88152786.699 7  21527797.436                    21527812.690  
     -1878.383       -1464.016          44.000          43.000  
 109809696.485 7  85566054.670 7  20896091.359                    20896105.824  
     -1850.242       -1441.500          44.000          44.000  
 128076990.170 5  99800378.049 3  24372248.743    24372273.209                  
     -2316.117       -1804.719          33.000          20.000  
 107493600.019 8  83761314.637 7  20455353.403                    20455369.423  
        19.184          15.051          48.000          45.000  
 127273763.495 6  99174435.934 6  24219395.344                    24219413.759  
     -3381.047       -2634.328          36.000          37.000  
 115006772.837 7  89615754.705 6  21885060.551                    21885079.403  
      2767.227        2156.141          47.000          39.000  
 24  1 10  3 22  7.5000000  0  8G08G24G18G23G16G10G15G32
 128432459.078 6 100077325.203 6  24439896.774                    24439918.252  
      2785.863        2170.598          37.000          37.000  
 127982202.22035  99726485.372 6  24354203.251                    24354224.706  
       196.137         153.719          30.000          37.000  
 113129515.348 7  88152933.043 7  21527833.188                    21527848.428  
     -1879.066       -1463.727          43.000          43.000  
 109809881.403 7  85566198.763 7  20896126.548                    20896141.014  
     -1849.414       -1441.273          44.000          44.000  
 128077221.787 5  99800558.525 3  24372292.818    24372317.283                  
     -2315.949       -1804.578          34.000          20.000  
 107493598.085 8  83761313.134 7  20455353.035                    20455369.056  
        19.246          14.934          48.000          45.000  
 127274101.566 5  99174699.328 6  24219459.677                    24219478.083  
     -3380.442       -2634.047          34.000          37.000  
 115006496.123 7  89615539.109 6  21885007.894                    21885026.752  
      2767.027        2156.109          47.000          39.000  
 24  1 10  3 22  7.6000000  0  8G08G24G18G23G16G10G15G32
 128432180.567 6 100077108.144 6  24439843.783                    24439865.001  
      2785.363        2171.012          37.000          37.000  
 127982182.35224  99726469.970 6  24354199.165                    24354221.297  
       197.801         153.844          28.000          38.000  
 113129703.258 7  88153079.449 7  21527868.743                    21527884.065  
     -1878.691       -1464.000          43.000          43.000  
 109810066.443 7  85566342.937 7  20896161.205                    20896176.425  
     -1850.000       -1441.629          44.000          45.000  
 128077453.278 5  99800738.907 3  24372336.839    24372361.334                  
     -2315.617       -1804.328          34.000          20.000  
 107493596.199 8  83761311.664 7  20455352.731                    20455368.478  
        19.156          14.820          48.000          45.000  
 127274439.663 5  99174962.760 6  24219523.405                    24219542.400  
     -3380.824       -2634.398          34.000          37.000  
 115006219.449 7  89615323.477 6  21884955.292                    21884974.116  
      2767.008        2156.012          47.000          39.000  
 24  1 10  3 22  7.7000000  0  8G08G24G18G23G16G10G15G32
 128431901.979 6 100076891.094 6  24439790.769                    24439811.995  
      2785.684        2170.516          37.000          37.000  
 127982162.74624  99726454.594 6  24354195.434                    24354217.542  
       196.711         153.801          28.000          38.000  
 113129891.175 7  88153225.890 7  21527904.503                    21527919.828  
     -1879.188       -1464.582          43.000          43.000  
 109810251.454 7  85566487.122 7  20896196.412                    20896211.637  
     -1849.992       -1441.750          44.000          45.000  
 128077684.979 5  99800919.448 3  24372380.930    24372405.424                  
     -2316.152       -1804.930          34.000          20.000  
 107493594.331 8  83761310.200 7  20455352.375                    20455368.120  
        18.859          14.586          48.000          45.000  
 127274777.726 5  99175226.223 6  24219587.736                    24219606.740  
     -3380.758       -2634.496          35.000          36.000  
 115005942.795 7  89615107.940 6  21884902.646                    21884921.480  
      2766.777        2155.656          47.000          39.000  
 24  1 10  3 22  7.8000000  0  8G08G24G18G23G16G10G15G32
 128431623.391 6 100076674.027 6  24439737.943                    24439758.845  
      2785.699        2170.262          36.000          37.000  
 127982143.08424  99726439.281 6  24354191.716                    24354213.505  
       196.746         153.035          29.000          38.000  
 113130079.136 7  88153372.379 7  21527940.200                    21527955.734  
     -1879.258       -1464.527          43.000          43.000  
 109810436.483 7  85566631.280 7  20896232.411                    20896247.271  
     -1850.215       -1441.781          44.000          45.000  
 128077916.472 5  99801099.835 3  24372425.059    24372449.422                  
     -2315.691       -1804.379          34.000          20.000  
 107493592.456 8  83761308.749 7  20455351.933                    20455367.696  
        18.883          14.645          48.000          45.000  
 127275115.776 6  99175489.607 6  24219651.940                    24219671.015  
     -3380.574       -2633.863          36.000          36.000  
 115005666.122 7  89614892.358 6  21884850.029                    21884868.379  
      2766.691        2155.832          47.000          39.000  
 24  1 10  3 22  7.9000000  0  8G08G24G18G23G16G10G15G32
 128431344.880 6 100076456.993 6  24439684.945                    24439705.843  
      2785.355        2170.449          36.000          37.000  
 127982123.47525  99726423.943 6  24354187.985                    24354209.760  
       196.523         153.613          30.000          37.000  
 113130267.048 7  88153518.800 7  21527975.959                    21527991.492  
     -1879.207       -1464.430          43.000          43.000  
 109810621.488 7  85566775.466 7  20896267.616                    20896282.483  
     -1849.988       -1441.680          45.000          45.000  
 128078148.082 5  99801280.305 3  24372469.133    24372493.495                  
     -2315.887       -1804.633          34.000          20.000  
 107493590.562 8  83761307.277 7  20455351.572                    20455367.336  
        18.863          14.621          48.000          45.000  
 127275453.867 6  99175753.114 6  24219716.277                    24219735.366  
     -3380.664       -2634.711          38.000          36.000  
 115005389.448 7  89614676.750 6  21884797.379                    21884815.726  
      2766.707        2155.922          47.000          39.000  
 24  1 10  3 22  8.0000000  0  8G08G24G18G23G16G10G15G32
 128431066.318 6 100076239.905 6  24439631.913                    24439652.750  
      2785.582        2170.477          37.000          36.000  
 127982103.75725  99726408.648 6  24354184.514                    24354205.681  
       196.840         152.656          31.000          37.000  
 113130454.994 7  88153665.255 7  21528011.896                    21528027.320  
     -1879.434       -1464.598          43.000          42.000  
 109810806.540 7  85566919.649 7  20896303.525                    20896318.358  
     -1850.430       -1441.938          45.000          45.000  
 128078379.678 5  99801460.761 3  24372513.212    24372537.509                  
     -2315.742       -1804.316          34.000          20.000  
 107493588.683 8  83761305.821 7  20455351.191                    20455367.262  
        18.879          14.723          48.000          45.000  
 127275791.955 6  99176016.577 6  24219780.847                    24219799.198  
     -3380.879       -2634.387          39.000          36.000  
 115005112.793 7  89614461.167 6  21884744.773                    21884763.453  
      2766.656        2155.762          47.000          40.000  
 24  1 10  3 22  8.1000000  0  8G08G24G18G23G16G10G15G32
 128430787.768 6 100076022.886 6  24439578.906                    24439599.751  
      2785.555        2170.418          37.000          36.000  
 127982083.98525  99726393.304 6  24354180.751                    24354201.933  
       197.121         153.285          31.000          37.000  
 113130642.977 7  88153811.712 7  21528047.667                    21528063.086  
     -1879.605       -1464.598          44.000          42.000  
 109810991.575 7  85567063.855 7  20896338.736                    20896353.575  
     -1850.285       -1441.863          45.000          44.000  
 128078611.212 5  99801641.173 3  24372557.272    24372581.568                  
     -2315.633       -1804.301          34.000          20.000  
 107493586.796 8  83761304.352 7  20455350.832                    20455366.903  
        18.875          14.668          48.000          45.000  
 127276130.050 6  99176280.007 6  24219845.184                    24219863.531  
     -3380.836       -2634.574          39.000          36.000  
 115004836.112 7  89614245.592 6  21884692.122                    21884710.808  
      2766.762        2155.801          47.000          40.000  
 24  1 10  3 22  8.2000000  0  8G08G24G18G23G16G10G15G32
 128430509.180 6 100075805.836 6  24439525.658                    24439546.605  
      2785.641        2170.320          37.000          37.000  
 127982064.470 5  99726378.058 6  24354177.397                    24354197.765  
       195.887         152.562          31.000          37.000  
 113130830.995 7  88153958.207 7  21528083.274                    21528098.839  
     -1879.812       -1464.719          44.000          43.000  
 109811176.603 7  85567208.020 7  20896373.696                    20896388.336  
     -1850.285       -1442.012          44.000          44.000  
 128078842.781 5  99801821.609 3  24372601.197    24372625.655                  
     -2315.621       -1804.312          34.000          20.000  
 107493584.922 8  83761302.879 7  20455350.358                    20455366.817  
        18.836          14.637          48.000          45.000  
 127276468.175 6  99176543.494 6  24219910.230                    24219928.088  
     -3381.121       -2634.875          38.000          36.000  
 115004559.434 7  89614029.995 6  21884639.597                    21884658.211  
      2766.871        2156.191          47.000          40.000  
 24  1 10  3 22  8.3000000  0  8G08G24G18G23G16G10G15G32
 128430230.678 6 100075588.785 6  24439472.661                    24439493.599  
      2785.367        2170.434          37.000          37.000  
 127982044.858 5  99726362.751 6  24354173.665                    24354194.027  
       196.418         153.105          31.000          37.000  
 113131018.932 7  88154104.663 7  21528119.038                    21528134.605  
     -1879.723       -1464.754          43.000          43.000  
 109811361.655 7  85567352.214 7  20896408.910                    20896423.549  
     -1850.414       -1441.629          44.000          44.000  
 128079074.294 5  99802002.012 3  24372645.253    24372669.711                  
     -2315.262       -1803.906          34.000          20.000  
 107493583.015 8  83761301.393 7  20455349.995                    20455366.454  
        18.922          14.762          48.000          45.000  
 127276806.328 6  99176806.998 6  24219974.579                    24219992.438  
     -3381.308       -2634.828          38.000          37.000  
 115004282.734 7  89613814.375 6  21884586.943                    21884605.555  
      2766.875        2155.938          47.000          40.000  
 24  1 10  3 22  8.4000000  0  8G08G24G18G23G16G10G15G32
 128429952.126 6 100075371.753 6  24439419.662                    24439440.597  
      2785.492        2170.152          37.000          37.000  
 127982025.125 5  99726347.486 6  24354170.613                    24354190.487  
       196.426         152.445          31.000          37.000  
 113131206.915 7  88154251.128 7  21528154.833                    21528170.779  
     -1879.543       -1464.621          43.000          42.000  
 109811546.696 7  85567496.389 7  20896444.154                    20896458.602  
     -1850.488       -1442.047          44.000          44.000  
 128079305.842 5  99802182.446 3  24372689.292    24372713.830                  
     -2315.605       -1804.598          34.000          20.000  
 107493581.128 8  83761299.929 7  20455349.957                    20455365.972  
        18.910          14.684          48.000          45.000  
 127277144.529 6  99177070.499 6  24220039.257                    24220056.772  
     -3381.652       -2634.664          38.000          37.000  
 115004006.033 7  89613598.766 6  21884534.319                    21884552.698  
      2766.926        2156.371          47.000          40.000  
 24  1 10  3 22  8.5000000  0  8G08G24G18G23G16G10G15G32
 128429673.594 6 100075154.694 6  24439366.659                    24439387.590  
      2785.395        2170.430          37.000          37.000  
 127982005.659 5  99726332.198 6  24354166.909                    24354186.753  
       195.625         152.832          31.000          37.000  
 113131394.872 7  88154397.570 7  21528190.600                    21528206.542  
     -1879.875       -1464.707          43.000          43.000  
 109811731.776 7  85567640.601 7  20896479.373                    20896493.820  
     -1850.598       -1441.926          44.000          44.000  
 128079537.349 5  99802362.850 3  24372733.346    24372757.886                  
     -2315.027       -1803.711          34.000          20.000  
 107493579.229 8  83761298.454 7  20455349.595                    20455365.611  
        19.004          14.852          48.000          45.000  
 127277482.680 6  99177333.979 6  24220103.605                    24220121.117  
     -3381.566       -2635.059          39.000          37.000  
 115003729.309 7  89613383.114 6  21884481.661                    21884500.033  
      2767.121        2156.086          47.000          40.000  
 24  1 10  3 22  8.6000000  0  8G08G24G18G23G16G10G15G32
 128429395.052 6 100074937.646 6  24439313.358                    24439334.858  
      2785.473        2170.688          38.000          37.000  
 127981985.954 5  99726316.963 6  24354163.222                    24354182.806  
       196.258         152.754          31.000          37.000  
 113131582.879 7  88154544.068 7  21528226.681                    21528242.232  
     -1879.688       -1464.770          43.000          43.000  
 109811916.833 7  85567784.794 7  20896514.456                    20896529.206  
     -1850.660       -1442.148          44.000          45.000  
 128079768.835 5  99802543.242 3  24372777.584    24372801.971                  
     -2315.199       -1804.266          33.000          20.000  
 107493577.293 8  83761296.927 7  20455349.180                    20455364.934  
        19.145          14.961          48.000          45.000  
 127277820.869 6  99177597.547 6  24220168.022                    24220185.662  
     -3381.770       -2635.422          39.000          37.000  
 115003452.576 7  89613167.503 6  21884428.985                    21884447.449  
      2767.285        2156.434          47.000          40.000  
 24  1 10  3 22  8.7000000  0  8G08G24G18G23G16G10G15G32
 128429116.458 6 100074720.569 6  24439260.343                    24439281.845  
      2785.676        2170.691          38.000          37.000  
 127981966.493 5  99726301.689 6  24354159.518                    24354179.076  
       195.422         152.691          31.000          37.000  
 113131770.838 7  88154690.589 7  21528262.449                    21528278.014  
     -1879.746       -1465.086          44.000          42.000  
 109812101.867 7  85567929.007 7  20896549.666                    20896564.424  
     -1850.422       -1441.863          44.000          45.000  
 128080000.293 5  99802723.603 3  24372821.629    24372846.017                  
     -2314.664       -1803.379          34.000          20.000  
 107493575.360 8  83761295.443 7  20455348.812                    20455364.571  
        19.344          15.043          48.000          45.000  
 127278159.014 6  99177861.032 6  24220232.369                    24220250.008  
     -3381.574       -2634.836          40.000          37.000  
 115003175.803 7  89612951.855 6  21884376.316                    21884394.786  
      2767.543        2156.609          47.000          40.000  
 24  1 10  3 22  8.8000000  0  8G08G24G18G23G16G10G15G32
 128428837.925 6 100074503.527 6  24439207.559                    24439228.794  
      2785.574        2170.410          38.000          37.000  
 127981946.854 5  99726286.431 6  24354155.711                    24354175.162  
       195.980         152.508          31.000          37.000  
 113131958.792 7  88154837.044 7  21528298.434                    21528313.311  
     -1879.578       -1464.367          43.000          42.000  
 109812286.895 7  85568073.173 7  20896584.673                    20896599.498  
     -1850.324       -1441.758          45.000          44.000  
 128080231.735 5  99802903.947 3  24372865.780    24372890.044                  
     -2314.637       -1803.559          34.000          20.000  
 107493573.402 8  83761293.907 7  20455348.143                    20455364.579  
        19.383          15.270          48.000          45.000  
 127278497.203 6  99178124.551 6  24220296.842                    24220314.753  
     -3381.758       -2635.562          40.000          37.000  
 115002899.041 7  89612736.184 6  21884323.705                    21884341.882  
      2767.523        2156.520          47.000          40.000  
 24  1 10  3 22  8.9000000  0  8G08G24G18G23G16G10G15G32
 128428559.344 6 100074286.455 6  24439154.547                    24439175.783  
      2785.660        2170.750          37.000          37.000  
 127981927.391 5  99726271.174 6  24354152.007                    24354171.436  
       195.344         152.434          31.000          37.000  
 113132146.738 7  88154983.454 7  21528334.199                    21528349.066  
     -1879.699       -1464.477          42.000          42.000  
 109812471.927 7  85568217.356 7  20896619.883                    20896634.709  
     -1850.316       -1441.816          45.000          44.000  
 128080463.234 5  99803084.333 3  24372909.833    24372934.096                  
     -2314.742       -1803.672          35.000          20.000  
 107493571.472 8  83761292.395 7  20455347.775                    20455364.210  
        19.348          15.102          48.000          45.000  
 127278835.413 6  99178388.071 6  24220361.201                    24220379.107  
     -3381.918       -2635.039          40.000          38.000  
 115002622.271 7  89612520.512 6  21884271.037                    21884289.213  
      2767.676        2156.848          47.000          40.000  
 24  1 10  3 22  9.0000000  0  8G08G24G18G23G16G10G15G32
 128428280.825 6 100074069.413 6  24439101.671                    24439122.756  
      2785.355        2170.527          37.000          37.000  
 127981907.833 5  99726255.981 6  24354148.426                    24354168.124  
       195.539         151.758          31.000          38.000  
 113132334.740 6  88155129.999 7  21528368.818                    21528384.510  
     -1879.609       -1464.969          41.000          42.000  
 109812657.013 7  85568361.549 7  20896655.174                    20896669.375  
     -1850.586       -1441.836          45.000          44.000  
 128080694.653 5  99803264.659 3  24372954.191    24372978.102                  
     -2314.508       -1803.395          34.000          20.000  
 107493569.544 8  83761290.897 7  20455347.393                    20455363.938  
        19.324          15.164          48.000          45.000  
 127279173.611 6  99178651.631 6  24220426.167                    24220443.674  
     -3381.898       -2635.613          40.000          38.000  
 115002345.508 7  89612304.853 6  21884218.168                    21884236.484  
      2767.715        2156.488          47.000          40.000  
 24  1 10  3 22  9.1000000  0  8G08G24G18G23G16G10G15G32
 128428002.265 6 100073852.375 6  24439048.663                    24439069.753  
      2785.484        2170.324          37.000          37.000  
 127981888.136 5  99726240.786 6  24354144.678                    24354164.414  
       196.152         152.305          31.000          38.000  
 113132522.714 6  88155276.460 7  21528404.588                    21528420.277  
     -1879.926       -1464.910          41.000          42.000  
 109812842.012 7  85568505.731 7  20896690.379                    20896704.586  
     -1850.375       -1441.840          45.000          45.000  
 128080926.089 5  99803444.992 3  24372998.231    24373022.141                  
     -2314.410       -1803.328          35.000          20.000  
 107493567.580 8  83761289.357 7  20455347.019                    20455363.561  
        19.414          15.121          48.000          45.000  
 127279511.811 6  99178915.133 6  24220490.525                    24220508.024  
     -3382.047       -2635.199          40.000          38.000  
 115002068.725 7  89612089.144 6  21884165.498                    21884183.806  
      2767.715        2157.062          47.000          39.000  
 24  1 10  3 22  9.2000000  0  8G08G24G18G23G16G10G15G32
 128427723.686 6 100073635.301 6  24438995.839                    24439017.007  
      2785.625        2170.871          37.000          37.000  
 127981868.635 5  99726225.498 6  24354140.928                    24354161.157  
       195.629         152.531          31.000          38.000  
 113132710.641 7  88155422.878 7  21528439.787                    21528456.370  
     -1879.434       -1464.231          42.000          43.000  
 109813027.016 7  85568649.862 7  20896726.302                    20896740.370  
     -1850.047       -1441.477          45.000          45.000  
 128081157.526 5  99803625.323 3  24373042.257    24373066.227                  
     -2314.297       -1803.211          34.000          20.000  
 107493565.615 8  83761287.826 7  20455346.833                    20455362.906  
        19.699          15.477          48.000          45.000  
 127279849.958 6  99179178.651 6  24220555.106                    24220572.237  
     -3381.711       -2634.965          39.000          38.000  
 115001791.916 7  89611873.499 6  21884112.885                    21884131.143  
      2767.930        2156.555          47.000          39.000  
 24  1 10  3 22  9.3000000  0  8G08G24G18G23G16G10G15G32
 128427445.160 6 100073418.230 6  24438942.837                    24438963.996  
      2785.398        2170.621          37.000          37.000  
 127981849.064 5  99726210.226 6  24354137.204                    24354157.427  
       195.590         152.973          32.000          38.000  
 113132898.617 7  88155569.308 7  21528475.558                    21528492.130  
     -1879.586       -1464.348          42.000          43.000  
 109813212.080 7  85568794.107 7  20896761.519                    20896775.596  
     -1850.316       -1441.762          45.000          45.000  
 128081388.985 5  99803805.688 3  24373086.302    24373110.273                  
     -2314.668       -1803.930          34.000          20.000  
 107493563.672 8  83761286.322 7  20455346.463                    20455362.539  
        19.527          15.133          48.000          45.000  
 127280188.146 6  99179442.155 6  24220619.461                    24220636.588  
     -3381.734       -2634.953          39.000          38.000  
 115001515.161 7  89611657.811 6  21884060.221                    21884078.470  
      2767.770        2156.906          47.000          39.000  
 24  1 10  3 22  9.4000000  0  8G08G24G18G23G16G10G15G32
 128427166.639 6 100073201.205 6  24438889.656                    24438911.160  
      2785.363        2170.324          38.000          37.000  
 127981829.558 5  99726194.998 6  24354133.148                    24354153.966  
       195.316         152.082          32.000          38.000  
 113133086.579 7  88155715.810 7  21528512.279                    21528527.680  
     -1879.727       -1464.926          43.000          43.000  
 109813397.092 7  85568938.226 7  20896796.585                    20896810.495  
     -1850.324       -1441.820          45.000          45.000  
 128081620.532 5  99803986.119 3  24373130.098    24373154.313                  
     -2314.926       -1804.008          34.000          20.000  
 107493561.727 8  83761284.800 7  20455346.226                    20455362.058  
        19.383          15.023          48.000          45.000  
 127280526.344 6  99179705.662 6  24220683.568                    24220700.712  
     -3381.894       -2635.016          38.000          38.000  
 115001238.408 7  89611442.172 6  21884007.838                    21884025.715  
      2767.609        2156.246          47.000          39.000  
 24  1 10  3 22  9.5000000  0  8G08G24G18G23G16G10G15G32
 128426888.090 6 100072984.188 6  24438836.650                    24438858.163  
      2785.457        2170.367          38.000          37.000  
 127981809.895 5  99726179.775 6  24354129.406                    24354150.249  
       196.090         152.312          31.000          38.000  
 113133274.535 7  88155862.274 7  21528548.046                    21528563.448  
     -1879.570       -1465.008          43.000          42.000  
 109813582.107 7  85569082.416 7  20896831.792                    20896845.708  
     -1850.207       -1441.652          45.000          45.000  
 128081851.974 5  99804166.458 3  24373174.140    24373198.354                  
     -2314.766       -1803.695          34.000          20.000  
 107493559.803 8  83761283.305 7  20455345.860                    20455361.693  
        19.383          15.125          48.000          45.000  
 127280864.486 6  99179969.175 6  24220747.914                    24220765.065  
     -3381.648       -2635.117          38.000          39.000  
 115000961.634 7  89611226.523 6  21883955.169                    21883973.051  
      2767.531        2156.395          47.000          39.000  
 24  1 10  3 22  9.6000000  0  8G08G24G18G23G16G10G15G32
 128426609.544 6 100072767.161 6  24438783.317                    24438804.983  
      2785.340        2169.996          38.000          37.000  
 127981790.444 5  99726164.499 6  24354125.142                    24354146.260  
       195.176         152.480          32.000          38.000  
 113133462.475 7  88156008.769 7  21528584.380                    21528599.083  
     -1879.461       -1464.719          43.000          42.000  
 109813767.101 7  85569226.578 7  20896867.378                    20896881.609  
     -1850.109       -1441.676          45.000          45.000  
 128082083.502 5  99804346.861 3  24373218.277    24373242.426                  
     -2314.953       -1803.816          34.000          20.000  
 107493557.887 8  83761281.810 7  20455345.089                    20455361.437  
        19.230          14.898          48.000          45.000  
 127281202.677 6  99180232.690 6  24220811.887                    24220829.074  
     -3381.723       -2635.051          38.000          39.000  
 115000684.925 7  89611010.885 6  21883902.287                    21883920.218  
      2767.430        2156.141          47.000          39.000  
 24  1 10  3 22  9.7000000  0  8G08G24G18G23G16G10G15G32
 128426331.074 6 100072550.126 6  24438730.326                    24438751.980  
      2785.102        2170.109          38.000          37.000  
 127981770.767 5  99726149.264 6  24354121.398                    24354142.539  
       196.148         152.605          32.000          38.000  
 113133650.406 7  88156155.194 7  21528620.142                    21528634.842  
     -1879.484       -1464.172          43.000          42.000  
 109813952.116 7  85569370.751 7  20896902.585                    20896916.817  
     -1849.996       -1441.531          45.000          45.000  
 128082315.050 5  99804527.282 3  24373262.339    24373286.486                  
     -2315.285       -1804.234          34.000          20.000  
 107493555.956 8  83761280.301 7  20455344.721                    20455361.069  
        19.242          15.027          48.000          45.000  
 127281540.838 6  99180496.189 6  24220876.237                    24220893.423  
     -3381.695       -2635.035          38.000          39.000  
 115000408.206 7  89610795.254 6  21883849.629                    21883867.559  
      2767.180        2156.250          47.000          39.000  
 24  1 10  3 22  9.8000000  0  8G08G24G18G23G16G10G15G32
 128426052.528 6 100072333.109 6  24438677.305                    24438698.764  
      2785.273        2170.297          38.000          37.000  
 127981751.168 5  99726133.979 6  24354117.325                    24354138.736  
       196.066         152.523          32.000          38.000  
 113133838.364 7  88156301.619 7  21528655.839                    21528670.600  
     -1879.422       -1464.301          42.000          43.000  
 109814137.094 7  85569514.888 7  20896937.559                    20896952.228  
     -1849.914       -1441.430          45.000          45.000  
 128082546.635 5  99804707.729 3  24373306.689    24373330.546                  
     -2315.535       -1804.410          34.000          20.000  
 107493554.030 8  83761278.819 7  20455344.620                    20455360.691  
        19.328          15.023          48.000          45.000  
 127281878.958 6  99180759.658 6  24220940.806                    24220958.226  
     -3381.391       -2634.863          39.000          39.000  
 115000131.505 7  89610579.638 6  21883796.662                    21883814.857  
      2767.152        2156.465          47.000          39.000  
 24  1 10  3 22  9.9000000  0  8G08G24G18G23G16G10G15G32
 128425774.018 6 100072116.065 6  24438624.306                    24438645.760  
      2785.117        2170.418          38.000          37.000  
 127981731.568 5  99726118.661 6  24354113.595                    24354134.996  
       195.879         153.109          31.000          38.000  
 113134026.325 7  88156448.078 7  21528691.607                    21528706.367  
     -1879.578       -1464.797          43.000          43.000  
 109814322.130 7  85569659.050 7  20896972.770                    20896987.434  
     -1850.055       -1441.500          45.000          45.000  
 128082778.223 5  99804888.192 3  24373350.759    24373374.617                  
     -2315.695       -1804.543          33.000          20.000  
 107493552.136 8  83761277.322 7  20455344.260                    20455360.326  
        19.168          14.785          48.000          45.000  
 127282217.018 6  99181023.133 6  24221005.136                    24221022.569  
     -3381.074       -2634.652          38.000          39.000  
 114999854.829 7  89610364.071 6  21883744.012                    21883762.213  
      2766.898        2155.672          47.000          39.000  
 24  1 10  3 22 10.0000000  0  8G08G24G18G23G16G10G15G32
 128425495.529 6 100071899.060 6  24438571.436                    24438592.952  
      2784.934        2170.059          37.000          37.000  
 127981711.989 5  99726103.428 6  24354109.986                    24354130.901  
       195.703         152.344          31.000          38.000  
 113134214.302 7  88156594.558 7  21528727.229                    21528742.256  
     -1879.656       -1464.594          43.000          43.000  
 109814507.127 7  85569803.209 7  20897007.388                    20897022.850  
     -1850.246       -1441.746          45.000          45.000  
 128083009.816 5  99805068.658 3  24373395.017    24373418.712                  
     -2315.875       -1804.715          33.000          20.000  
 107493550.250 8  83761275.858 7  20455344.174                    20455359.804  
        18.871          14.570          48.000          45.000  
 127282555.119 6  99181286.576 6  24221069.451                    24221086.702  
     -3381.062       -2634.539          37.000          39.000  
 114999578.193 7  89610148.490 6  21883691.144                    21883709.933  
      2766.605        2155.559          47.000          39.000  
 24  1 10  3 22 10.1000000  0  8G08G24G18G23G16G10G15G32
 128425217.013 6 100071682.068 6  24438518.436                    24438539.961  
      2785.133        2170.027          37.000          37.000  
 127981692.264 5  99726088.141 6  24354106.233                    24354127.167  
       196.578         152.867          31.000          38.000  
 113134402.196 7  88156740.993 7  21528762.984                    21528778.017  
     -1879.336       -1464.535          43.000          43.000  
 109814692.095 7  85569947.336 7  20897042.586                    20897058.047  
     -1849.930       -1441.371          45.000          45.000  
 128083241.445 5  99805249.145 3  24373439.095    24373462.788                  
     -2315.973       -1804.645          33.000          20.000  
 107493548.330 8  83761274.371 7  20455343.809                    20455359.441  
        19.023          14.902          48.000          45.000  
 127282893.204 6  99181550.039 6  24221133.787                    24221151.042  
     -3381.066       -2634.457          36.000          39.000  
 114999301.525 7  89609932.933 6  21883638.495                    21883657.292  
      2766.539        2155.625          47.000          39.000  
 24  1 10  3 22 10.2000000  0  8G08G24G18G23G16G10G15G32
 128424938.494 6 100071465.016 6  24438465.514                    24438486.735  
      2785.043        2170.191          37.000          37.000  
 127981672.796 5  99726072.827 6  24354102.497                    24354123.623  
       195.527         152.980          31.000          38.000  
 113134590.125 7  88156887.404 7  21528798.730                    21528814.163  
     -1879.340       -1464.137          43.000          43.000  
 109814877.030 7  85570091.464 7  20897077.465                    20897092.385  
     -1849.426       -1441.094          45.000          45.000  
 128083473.022 5  99805429.592 3  24373483.358    24373506.832                  
     -2316.016       -1804.762          33.000          20.000  
 107493546.419 8  83761272.884 7  20455343.344                    20455359.273  
        19.223          15.027          48.000          45.000  
 127283231.228 6  99181813.478 6  24221196.970                    24221215.634  
     -3380.469       -2634.387          36.000          39.000  
 114999024.872 7  89609717.361 6  21883586.046                    21883604.663  
      2766.641        2155.809          47.000          39.000  
 24  1 10  3 22 10.3000000  0  8G08G24G18G23G16G10G15G32
 128424659.955 6 100071247.979 6  24438412.510                    24438433.733  
      2785.312        2170.352          37.000          37.000  
 127981653.034 5  99726057.514 6  24354098.736                    24354119.883  
       196.738         152.902          30.000          38.000  
 113134778.068 7  88157033.877 7  21528834.494                    21528849.933  
     -1879.090       -1464.383          44.000          43.000  
 109815062.029 7  85570235.586 7  20897112.670                    20897127.581  
     -1849.805       -1441.215          45.000          45.000  
 128083704.626 5  99805610.065 3  24373527.430    24373550.905                  
     -2315.887       -1804.562          33.000          19.000  
 107493544.507 8  83761271.383 7  20455342.980                    20455358.906  
        19.195          14.895          48.000          45.000  
 127283569.335 6  99182076.894 6  24221261.310                    24221279.963  
     -3380.969       -2634.145          36.000          39.000  
 114998748.229 7  89609501.784 6  21883533.402                    21883552.016  
      2766.562        2155.875          47.000          39.000  
 24  1 10  3 22 10.4000000  0  8G08G24G18G23G16G10G15G32
 128424381.438 6 100071030.961 6  24438359.252                    24438380.672  
      2785.312        2170.148          37.000          37.000  
 127981633.455 5  99726042.266 6  24354094.870                    24354116.316  
       195.926         152.629          31.000          38.000  
 113134966.041 7  88157180.317 7  21528870.499                    21528886.117  
     -1879.574       -1464.738          44.000          43.000  
 109815246.980 7  85570379.705 7  20897147.786                    20897162.409  
     -1849.758       -1441.594          45.000          45.000  
 128083936.270 5  99805790.569 3  24373571.487    24373594.932                  
     -2316.301       -1805.168          33.000          19.000  
 107493542.625 8  83761269.927 7  20455342.536                    20455358.645  
        18.879          14.617          48.000          45.000  
 127283907.455 6  99182340.339 6  24221325.339                    24221344.135  
     -3380.898       -2634.555          37.000          38.000  
 114998471.611 7  89609286.214 6  21883480.873                    21883499.372  
      2766.289        2155.605          47.000          39.000  
 24  1 10  3 22 10.5000000  0  8G08G24G18G23G16G10G15G32
 128424102.920 6 100070813.963 6  24438306.252                    24438327.679  
      2785.176        2169.766          37.000          37.000  
 127981613.897 5  99726027.032 6  24354091.148                    24354112.596  
       195.828         152.266          31.000          38.000  
 113135154.015 7  88157326.783 7  21528906.269                    21528921.886  
     -1879.672       -1464.574          44.000          43.000  
 109815431.969 7  85570523.902 7  20897182.989                    20897197.624  
     -1849.699       -1441.555          46.000          45.000  
 128084167.853 5  99805971.024 3  24373615.556    24373639.001                  
     -2316.141       -1804.848          33.000          19.000  
 107493540.722 8  83761268.440 7  20455342.174                    20455358.281  
        18.957          14.629          48.000          45.000  
 127284245.521 6  99182603.771 6  24221389.671                    24221408.468  
     -3380.871       -2634.367          38.000          38.000  
 114998195.000 7  89609070.701 6  21883428.235                    21883446.742  
      2766.277        2155.113          47.000          39.000  
 24  1 10  3 22 10.6000000  0  8G08G24G18G23G16G10G15G32
 128423824.441 6 100070596.920 6  24438252.892                    24438274.449  
      2785.020        2170.176          37.000          37.000  
 127981594.375 5  99726011.748 6  24354087.222                    24354109.035  
       195.547         152.766          31.000          38.000  
 113135341.980 7  88157473.293 7  21528942.405                    21528958.008  
     -1879.652       -1464.973          43.000          43.000  
 109815616.984 7  85570668.032 7  20897218.915                    20897233.009  
     -1850.020       -1441.445          46.000          45.000  
 128084399.557 5  99806151.570 3  24373659.828    24373683.115                  
     -2316.543       -1805.293          33.000          19.000  
 107493538.861 8  83761266.999 7  20455341.859                    20455357.930  
        18.805          14.613          48.000          45.000  
 127284583.674 6  99182867.229 6  24221453.699                    24221472.557  
     -3381.168       -2634.527          38.000          38.000  
 114997918.406 7  89608855.184 6  21883375.773                    21883393.790  
      2766.043        2155.227          47.000          39.000  
 24  1 10  3 22 10.7000000  0  8G08G24G18G23G16G10G15G32
 128423545.930 6 100070379.908 6  24438199.893                    24438221.452  
      2785.078        2170.070          38.000          37.000  
 127981574.721 5  99725996.523 6  24354083.482                    24354105.317  
       196.102         152.387          31.000          39.000  
 113135529.995 7  88157619.754 7  21528978.183                    21528993.776  
     -1879.980       -1464.914          43.000          43.000  
 109815801.999 7  85570812.205 7  20897254.122                    20897268.218  
     -1850.180       -1441.754          45.000          45.000  
 128084631.155 5  99806332.031 3  24373703.899    24373727.186                  
     -2316.332       -1804.945          33.000          19.000  
 107493537.005 8  83761265.542 7  20455341.506                    20455357.574  
        18.633          14.480          48.000          45.000  
 127284921.787 6  99183130.689 6  24221518.040                    24221536.897  
     -3381.113       -2634.703          39.000          38.000  
 114997641.816 7  89608639.645 6  21883323.140                    21883341.153  
      2765.941        2155.266          47.000          39.000  
 24  1 10  3 22 10.8000000  0  8G08G24G18G23G16G10G15G32
 128423267.458 6 100070162.897 6  24438147.409                    24438168.354  
      2784.938        2170.062          38.000          37.000  
 127981555.256 5  99725981.305 6  24354079.825                    24354102.085  
       195.242         152.266          31.000          39.000  
 113135718.006 7  88157766.292 7  21529013.398                    21529028.452  
     -1880.113       -1465.207          43.000          43.000  
 109815987.046 7  85570956.446 7  20897289.351                    20897303.716  
     -1850.172       -1442.012          45.000          44.000  
 128084862.759 5  99806512.503 3  24373747.605    24373771.337                  
     -2316.203       -1804.832          34.000          19.000  
 107493535.166 8  83761264.125 7  20455341.226                    20455357.384  
        18.574          14.375          48.000          45.000  
 127285259.929 6  99183394.143 6  24221582.550                    24221601.860  
     -3381.301       -2634.438          39.000          38.000  
 114997365.242 7  89608424.138 6  21883270.260                    21883288.821  
      2765.848        2155.184          47.000          39.000  
 24  1 10  3 22 10.9000000  0  8G08G24G18G23G16G10G15G32
 128422988.938 6 100069945.854 6  24438094.409                    24438115.350  
      2785.094        2170.426          37.000          37.000  
 127981535.698 5  99725966.107 6  24354076.103                    24354098.373  
       195.457         152.133          31.000          39.000  
 113135905.995 7  88157912.790 7  21529049.171                    21529064.229  
     -1879.988       -1465.039          43.000          43.000  
 109816172.079 7  85571100.585 7  20897324.561                    20897338.917  
     -1850.352       -1441.805          45.000          44.000  
 128085094.359 5  99806692.966 3  24373791.677    24373815.408                  
     -2316.051       -1804.609          34.000          19.000  
 107493533.290 8  83761262.670 7  20455340.869                    20455357.029  
        18.641          14.508          48.000          45.000  
 127285598.028 6  99183657.641 6  24221646.888                    24221666.208  
     -3381.058       -2634.938          39.000          38.000  
 114997088.639 7  89608208.621 6  21883217.624                    21883236.189  
      2765.922        2155.023          47.000          39.000  
 24  1 10  3 22 11.0000000  0  8G08G24G18G23G16G10G15G32
 128422710.404 6 100069728.862 6  24438041.523                    24438062.765  
      2785.055        2170.203          37.000          37.000  
 127981516.177 5  99725950.873 6  24354072.123                    24354095.098  
       195.285         152.281          31.000          38.000  
 113136094.043 7  88158059.313 7  21529084.721                    21529100.214  
     -1880.211       -1465.234          43.000          43.000  
 109816357.102 7  85571244.765 7  20897359.723                    20897373.502  
     -1850.316       -1441.742          46.000          45.000  
 128085325.974 5  99806873.445 3  24373835.408    24373859.490                  
     -2316.031       -1804.582          35.000          19.000  
 107493531.448 8  83761261.207 7  20455340.675                    20455356.250  
        18.562          14.594          48.000          45.000  
 127285936.230 6  99183921.145 6  24221711.637                    24221730.981  
     -3381.602       -2634.910          40.000          38.000  
 114996812.065 7  89607993.073 6  21883165.212                    21883183.418  
      2765.879        2155.402          47.000          39.000  
 24  1 10  3 22 11.1000000  0  8G08G24G18G23G16G10G15G32
 128422431.906 6 100069511.810 6  24437988.526                    24438009.758  
      2785.109        2170.395          37.000          37.000  
 127981496.724 5  99725935.698 6  24354068.421                    24354091.392  
       195.016         151.883          31.000          38.000  
 113136282.089 7  88158205.843 7  21529120.505                    21529135.998  
     -1880.340       -1465.297          43.000          43.000  
 109816542.151 7  85571388.960 7  20897394.937                    20897408.716  
     -1850.273       -1441.926          45.000          44.000  
 128085557.551 6  99807053.890 3  24373879.476    24373903.557                  
     -2315.855       -1804.434          36.000          19.000  
 107493529.574 8  83761259.752 7  20455340.318                    20455355.894  
        18.676          14.414          48.000          45.000  
 127286274.352 6  99184184.662 6  24221775.979                    24221795.334  
     -3381.394       -2635.141          40.000          39.000  
 114996535.479 7  89607777.580 6  21883112.580                    21883130.792  
      2765.852        2155.043          47.000          39.000  
 24  1 10  3 22 11.2000000  0  8G08G24G18G23G16G10G15G32
 128422153.400 6 100069294.839 6  24437935.599                    24437956.819  
      2785.078        2169.875          37.000          37.000  
 127981477.278 5  99725920.515 6  24354064.783                    24354087.380  
       194.602         151.711          32.000          38.000  
 113136470.175 7  88158352.410 7  21529156.218                    21529171.456  
     -1880.496       -1465.312          43.000          43.000  
 109816727.254 7  85571533.203 7  20897430.106                    20897444.105  
     -1850.801       -1442.320          45.000          44.000  
 128085789.162 5  99807234.361 3  24373923.198    24373947.622                  
     -2316.078       -1804.824          35.000          19.000  
 107493527.747 8  83761258.353 7  20455339.603                    20455355.592  
        18.434          14.281          48.000          45.000  
 127286612.533 6  99184448.187 6  24221840.950                    24221859.666  
     -3381.621       -2635.363          40.000          39.000  
 114996258.919 7  89607562.085 6  21883060.030                    21883078.143  
      2765.773        2155.031          47.000          39.000  
 24  1 10  3 22 11.3000000  0  8G08G24G18G23G16G10G15G32
 128421874.951 6 100069077.811 6  24437882.611                    24437903.818  
      2784.805        2170.289          37.000          37.000  
 127981457.836 5  99725905.346 6  24354061.084                    24354083.675  
       194.551         151.527          32.000          38.000  
 113136658.290 7  88158498.978 7  21529192.015                    21529207.249  
     -1881.043       -1465.914          43.000          43.000  
 109816912.312 7  85571677.380 7  20897465.321                    20897479.315  
     -1850.715       -1441.984          45.000          44.000  
 128086020.783 5  99807414.845 3  24373967.274    24373991.698                  
     -2316.035       -1804.684          35.000          19.000  
 107493525.912 8  83761256.917 7  20455339.254                    20455355.241  
        18.375          14.324          48.000          45.000  
 127286950.712 6  99184711.708 6  24221905.303                    24221924.021  
     -3381.754       -2635.285          40.000          39.000  
 114995982.350 7  89607346.545 6  21883007.401                    21883025.505  
      2765.668        2155.098          47.000          39.000  
 24  1 10  3 22 11.4000000  0  8G08G24G18G23G16G10G15G32
 128421596.402 6 100068860.792 6  24437829.512                    24437850.601  
      2785.152        2170.254          37.000          37.000  
 127981438.351 5  99725890.236 6  24354057.923                    24354080.001  
       194.707         151.355          32.000          38.000  
 113136846.351 7  88158645.522 7  21529228.209                    21529243.185  
     -1880.688       -1465.523          43.000          43.000  
 109817097.358 7  85571821.567 7  20897500.699                    20897515.081  
     -1850.516       -1441.875          45.000          45.000  
 128086252.341 5  99807595.285 3  24374011.409    24374035.818                  
     -2315.816       -1804.445          35.000          19.000  
 107493524.033 8  83761255.425 7  20455338.568                    20455354.908  
        18.574          14.629          48.000          45.000  
 127287288.885 6  99184975.216 6  24221969.812                    24221988.489  
     -3381.726       -2634.980          39.000          39.000  
 114995705.739 7  89607131.026 6  21882955.045                    21882973.116  
      2765.961        2155.145          47.000          39.000  
 24  1 10  3 22 11.5000000  0  8G08G24G18G23G16G10G15G32
 128421317.892 6 100068643.749 6  24437776.513                    24437797.597  
      2785.082        2170.156          37.000          37.000  
 127981418.867 5  99725875.032 6  24354054.215                    24354076.288  
       194.711         151.812          32.000          38.000  
 113137034.400 7  88158792.062 7  21529263.993                    21529278.972  
     -1880.578       -1465.106          44.000          43.000  
 109817282.430 7  85571965.777 7  20897535.916                    20897550.299  
     -1850.586       -1441.852          45.000          44.000  
 128086483.847 5  99807775.670 3  24374055.463    24374079.870                  
     -2315.629       -1804.367          34.000          20.000  
 107493522.151 8  83761253.973 7  20455338.210                    20455354.553  
        18.781          14.730          48.000          45.000  
 127287627.046 6  99185238.748 6  24222034.162                    24222052.847  
     -3381.672       -2635.328          38.000          39.000  
 114995429.150 7  89606915.518 6  21882902.412                    21882920.486  
      2766.035        2155.441          47.000          39.000  
 24  1 10  3 22 11.6000000  0  8G08G24G18G23G16G10G15G32
 128421039.375 6 100068426.770 6  24437723.497                    24437744.421  
      2785.117        2170.035          37.000          37.000  
 127981399.503 5  99725859.886 6  24354050.428                    24354071.956  
       194.352         151.406          32.000          38.000  
 113137222.468 7  88158938.572 7  21529300.039                    21529314.720  
     -1880.707       -1465.641          44.000          43.000  
 109817467.481 7  85572109.999 7  20897570.967                    20897585.059  
     -1850.496       -1442.164          45.000          44.000  
 128086715.412 5  99807956.105 3  24374099.919    24374123.942                  
     -2315.508       -1804.137          34.000          20.000  
 107493520.304 8  83761252.536 7  20455337.859                    20455354.288  
        18.660          14.492          48.000          45.000  
 127287965.273 6  99185502.282 6  24222098.579                    24222117.447  
     -3381.992       -2635.250          38.000          39.000  
 114995152.552 7  89606699.939 6  21882849.660                    21882867.996  
      2765.922        2155.223          47.000          39.000  
 24  1 10  3 22 11.7000000  0  8G08G24G18G23G16G10G15G32
 128420760.918 6 100068209.764 6  24437670.509                    24437691.426  
      2784.828        2170.047          37.000          37.000  
 127981380.039 5  99725844.728 6  24354046.725                    24354068.255  
       194.328         151.598          33.000          38.000  
 113137410.500 7  88159085.108 7  21529335.820                    21529350.505  
     -1880.566       -1465.301          44.000          43.000  
 109817652.516 7  85572254.177 7  20897606.178                    20897620.268  
     -1850.426       -1441.871          45.000          44.000  
 128086947.029 5  99808136.586 3  24374143.994    24374168.017                  
     -2315.797       -1804.539          34.000          20.000  
 107493518.399 8  83761251.034 7  20455337.496                    20455353.921  
        18.855          14.887          48.000          45.000  
 127288303.410 6  99185765.810 6  24222162.924                    24222181.803  
     -3381.582       -2635.324          38.000          39.000  
 114994875.938 7  89606484.426 6  21882797.022                    21882815.365  
      2766.031        2155.273          47.000          39.000  
 24  1 10  3 22 11.8000000  0  8G08G24G18G23G16G10G15G32
 128420482.416 6 100067992.722 6  24437617.511                    24437638.156  
      2785.062        2170.023          37.000          37.000  
 127981360.596 5  99725829.588 6  24354042.634                    24354065.018  
       194.602         151.355          33.000          39.000  
 113137598.523 7  88159231.631 7  21529371.576                    21529386.092  
     -1880.254       -1465.301          44.000          43.000  
 109817837.532 7  85572398.369 7  20897641.096                    20897655.786  
     -1850.242       -1441.750          45.000          45.000  
 128087178.596 5  99808317.024 3  24374187.739    24374212.090                  
     -2315.793       -1804.516          34.000          20.000  
 107493516.489 8  83761249.564 7  20455337.242                    20455353.391  
        18.969          14.688          48.000          45.000  
 127288641.619 6  99186029.340 6  24222227.315                    24222246.503  
     -3381.961       -2635.129          38.000          39.000  
 114994599.308 7  89606268.846 6  21882743.982                    21882762.742  
      2766.164        2155.645          47.000          39.000  
 24  1 10  3 22 11.9000000  0  8G08G24G18G23G16G10G15G32
 128420203.896 6 100067775.729 6  24437564.511                    24437585.165  
      2784.887        2169.996          37.000          36.000  
 127981341.100 5  99725814.455 6  24354038.924                    24354061.323  
       194.832         151.410          33.000          39.000  
 113137786.662 7  88159378.231 7  21529407.378                    21529421.893  
     -1880.734       -1465.352          43.000          43.000  
 109818022.594 7  85572542.546 7  20897676.312                    20897690.996  
     -1850.410       -1441.602          45.000          45.000  
 128087410.146 5  99808497.450 3  24374231.802    24374256.151                  
     -2315.656       -1804.383          33.000          20.000  
 107493514.620 8  83761248.121 7  20455336.886                    20455353.038  
        18.871          14.566          48.000          45.000  
 127288979.881 6  99186292.863 6  24222291.684                    24222310.858  
     -3382.297       -2635.426          39.000          39.000  
 114994322.729 7  89606053.367 6  21882691.351                    21882710.120  
      2765.980        2155.109          47.000          39.000  
 24  1 10  3 22 12.0000000  0  8G08G24G18G23G16G10G15G32
 128419925.467 6 100067558.771 6  24437511.606                    24437531.955  
      2784.715        2169.496          37.000          36.000  
 127981321.691 5  99725799.312 6  24354035.106                    24354057.429  
       194.516         151.277          33.000          39.000  
 113137974.702 7  88159524.711 7  21529443.278                    21529457.704  
     -1880.820       -1465.500          44.000          43.000  
 109818207.666 7  85572686.720 7  20897711.725                    20897726.337  
     -1850.613       -1442.000          45.000          45.000  
 128087641.813 5  99808677.974 3  24374275.730    24374300.229                  
     -2316.066       -1804.805          33.000          19.000  
 107493512.774 8  83761246.666 7  20455336.613                    20455353.042  
        18.621          14.586          48.000          45.000  
 127289318.093 6  99186556.445 6  24222356.035                    24222375.423  
     -3382.113       -2635.645          39.000          39.000  
 114994046.146 7  89605837.818 6  21882638.649                    21882657.629  
      2765.789        2155.035          47.000          39.000  
 24  1 10  3 22 12.1000000  0  8G08G24G18G23G16G10G15G32
 128419647.025 6 100067341.785 6  24437458.620                    24437478.964  
      2784.398        2169.852          37.000          36.000  
 127981302.318 5  99725784.152 6  24354031.419                    24354053.727  
       194.062         151.805          33.000          39.000  
 113138162.746 7  88159671.289 7  21529479.062                    21529493.500  
     -1880.441       -1465.613          44.000          43.000  
 109818392.669 7  85572830.889 7  20897746.930                    20897761.545  
     -1850.371       -1442.012          45.000          45.000  
 128087873.453 5  99808858.479 3  24374319.810    24374344.311                  
     -2316.219       -1804.992          34.000          20.000  
 107493510.917 8  83761245.195 7  20455336.260                    20455352.683  
        18.512          14.414          48.000          45.000  
 127289656.326 6  99186819.961 6  24222420.399                    24222439.776  
     -3382.258       -2635.230          40.000          39.000  
 114993769.595 7  89605622.352 6  21882586.023                    21882605.010  
      2765.766        2154.996          47.000          39.000  
 24  1 10  3 22 12.2000000  0  8G08G24G18G23G16G10G15G32
 128419368.598 6 100067124.799 6  24437405.676                    24437425.771  
      2784.457        2169.699          37.000          36.000  
 127981282.863 5  99725768.953 6  24354027.842                    24354050.047  
       194.320         151.895          33.000          39.000  
 113138350.778 7  88159817.833 7  21529514.663                    21529529.827  
     -1880.383       -1465.184          44.000          43.000  
 109818577.703 7  85572975.121 7  20897781.985                    20897796.174  
     -1850.258       -1441.809          45.000          44.000  
 128088105.014 5  99809038.929 3  24374363.664    24374388.370                  
     -2316.125       -1804.984          33.000          20.000  
 107493509.045 8  83761243.774 7  20455336.130                    20455351.813  
        18.711          14.484          48.000          45.000  
 127289994.499 6  99187083.482 6  24222484.884                    24222503.584  
     -3381.980       -2635.125          40.000          39.000  
 114993492.992 7  89605406.814 6  21882533.364                    21882552.694  
      2765.867        2155.480          47.000          39.000  
 24  1 10  3 22 12.3000000  0  8G08G24G18G23G16G10G15G32
 128419090.098 6 100066907.858 6  24437352.679                    24437372.792  
      2784.617        2169.727          37.000          37.000  
 127981263.435 5  99725753.841 6  24354024.145                    24354046.356  
       194.406         151.230          33.000          38.000  
 113138538.855 7  88159964.316 7  21529550.453                    21529565.599  
     -1880.754       -1465.098          43.000          43.000  
 109818762.761 7  85573119.304 7  20897817.200                    20897831.385  
     -1850.410       -1441.922          45.000          44.000  
 128088336.731 5  99809219.493 3  24374407.758    24374432.466                  
     -2316.316       -1804.941          33.000          20.000  
 107493507.220 8  83761242.334 7  20455335.783                    20455351.461  
        18.469          14.457          48.000          45.000  
 127290332.665 6  99187346.967 6  24222549.235                    24222567.930  
     -3381.734       -2634.992          40.000          38.000  
 114993216.435 7  89605191.302 6  21882480.737                    21882500.064  
      2765.668        2154.973          47.000          39.000  
 24  1 10  3 22 12.4000000  0  8G08G24G18G23G16G10G15G32
 128418811.683 6 100066690.886 6  24437299.839                    24437319.946  
      2784.414        2169.621          37.000          37.000  
 127981243.935 5  99725738.702 6  24354020.520                    24354042.854  
       194.570         151.562          32.000          38.000  
 113138726.880 7  88160110.875 7  21529585.749                    21529601.555  
     -1880.285       -1465.344          43.000          43.000  
 109818947.808 7  85573263.482 7  20897852.788                    20897866.798  
     -1850.465       -1441.758          45.000          45.000  
 128088568.344 5  99809399.975 3  24374451.700    24374476.557                  
     -2316.410       -1805.145          32.000          20.000  
 107493505.384 8  83761240.893 7  20455335.504                    20455351.226  
        18.355          14.293          48.000          45.000  
 127290670.820 6  99187610.503 6  24222613.920                    24222631.678  
     -3381.711       -2635.301          39.000          38.000  
 114992939.875 7  89604975.813 6  21882428.281                    21882447.353  
      2765.660        2155.129          47.000          39.000  
 24  1 10  3 22 12.5000000  0  8G08G24G18G23G16G10G15G32
 128418533.233 6 100066473.955 6  24437246.852                    24437266.969  
      2784.465        2169.176          37.000          37.000  
 127981224.511 5  99725723.542 6  24354016.824                    24354039.152  
       194.578         151.648          32.000          38.000  
 113138914.981 7  88160257.449 7  21529621.543                    21529637.350  
     -1880.879       -1465.812          43.000          43.000  
 109819132.876 7  85573407.693 7  20897888.006                    20897902.015  
     -1850.625       -1442.172          45.000          45.000  
 128088800.018 5  99809580.506 3  24374495.786    24374520.645                  
     -2316.684       -1805.469          32.000          19.000  
 107493503.596 8  83761239.505 7  20455335.164                    20455350.887  
        18.113          13.930          48.000          45.000  
 127291009.016 6  99187874.018 6  24222678.276                    24222696.031  
     -3381.770       -2635.215          39.000          38.000  
 114992663.375 7  89604760.354 6  21882375.665                    21882394.736  
      2765.305        2154.762          47.000          39.000  
 24  1 10  3 22 12.6000000  0  8G08G24G18G23G16G10G15G32
 128418254.861 6 100066257.038 6  24437193.598                    24437214.011  
      2784.055        2169.207          37.000          36.000  
 127981205.106 5  99725708.376 6  24354012.889                    24354035.206  
       194.332         151.461          32.000          38.000  
 113139103.053 7  88160403.992 7  21529657.363                    21529672.965  
     -1880.773       -1465.672          43.000          43.000  
 109819317.972 7  85573551.944 7  20897923.041                    20897937.431  
     -1850.812       -1442.457          45.000          45.000  
 128089031.795 5  99809761.111 3  24374540.001    24374564.766                  
     -2317.102       -1805.789          32.000          20.000  
 107493501.819 8  83761238.121 7  20455334.935                    20455350.635  
        17.840          13.672          48.000          45.000  
 127291347.271 6  99188137.551 6  24222742.386                    24222760.006  
     -3382.238       -2635.555          39.000          38.000  
 114992386.872 7  89604544.888 6  21882322.900                    21882342.250  
      2765.133        2154.402          47.000          39.000  
 24  1 10  3 22 12.7000000  0  8G08G24G18G23G16G10G15G32
 128417976.441 6 100066040.082 6  24437140.617                    24437161.028  
      2784.129        2169.332          37.000          37.000  
 127981185.580 5  99725693.218 6  24354009.173                    24354031.504  
       194.730         151.637          31.000          38.000  
 113139291.135 7  88160550.538 7  21529693.154                    21529708.753  
     -1880.797       -1465.449          43.000          43.000  
 109819503.026 7  85573696.137 7  20897958.255                    20897972.644  
     -1850.684       -1442.078          45.000          45.000  
 128089263.442 5  99809941.616 3  24374584.082    24374608.847                  
     -2316.801       -1805.215          33.000          20.000  
 107493500.058 8  83761236.747 7  20455334.600                    20455350.300  
        17.746          13.785          48.000          45.000  
 127291685.405 6  99188401.080 6  24222806.731                    24222824.363  
     -3381.625       -2635.078          39.000          38.000  
 114992110.361 7  89604329.441 6  21882270.281                    21882289.635  
      2765.109        2154.387          47.000          39.000  
 24  1 10  3 22 12.8000000  0  8G08G24G18G23G16G10G15G32
 128417698.055 6 100065823.158 6  24437087.228                    24437108.225  
      2783.969        2169.352          37.000          37.000  
 127981166.130 4  99725678.030 6  24354005.753                    24354027.538  
       194.398         151.996          29.000          37.000  
 113139479.266 7  88160697.135 7  21529729.079                    21529743.936  
     -1881.004       -1465.961          43.000          43.000  
 109819688.172 7  85573840.390 7  20897993.183                    20898007.966  
     -1851.090       -1442.496          45.000          45.000  
 128089495.152 5  99810122.163 3  24374628.268    24374652.970                  
     -2317.004       -1805.551          34.000          20.000  
 107493498.350 8  83761235.427 7  20455334.470                    20455349.868  
        17.473          13.340          48.000          45.000  
 127292023.561 6  99188664.563 6  24222871.134                    24222888.294  
     -3381.652       -2635.156          39.000          37.000  
 114991833.894 7  89604114.011 6  21882217.765                    21882237.025  
      2764.879        2154.379          47.000          39.000  
 24  1 10  3 22 12.9000000  0  8G08G24G18G23G16G10G15G32
 128417419.718 6 100065606.227 6  24437034.262                    24437055.248  
      2783.715        2169.137          37.000          37.000  
 127981146.707 4  99725662.840 6  24354002.057                    24354023.828  
       194.383         151.496          29.000          37.000  
 113139667.434 7  88160843.755 7  21529764.886                    21529779.743  
     -1881.441       -1466.234          43.000          43.000  
 109819873.352 7  85573984.722 7  20898028.421                    20898043.213  
     -1851.324       -1442.941          45.000          45.000  
 128089726.862 5  99810302.718 3  24374672.361    24374697.063                  
     -2317.102       -1805.637          34.000          20.000  
 107493496.672 8  83761234.119 7  20455334.151                    20455349.548  
        16.996          12.949          48.000          45.000  
 127292361.772 6  99188928.140 6  24222935.494                    24222952.662  
     -3381.965       -2635.555          40.000          38.000  
 114991557.460 7  89603898.606 6  21882165.161                    21882184.421  
      2764.543        2154.023          47.000          39.000  
 24  1 10  3 22 13.0000000  0  8G08G24G18G23G16G10G15G32
 128417141.349 6 100065389.365 6  24436980.993                    24437002.265  
      2783.617        2168.629          37.000          37.000  
 127981127.326 4  99725647.812 6  24353998.408                    24354019.642  
       194.328         150.496          29.000          36.000  
 113139855.561 7  88160990.316 7  21529800.842                    21529816.058  
     -1881.609       -1466.211          43.000          43.000  
 109820058.519 7  85574128.965 7  20898063.384                    20898078.369  
     -1851.680       -1442.828          45.000          45.000  
 128089958.576 5  99810483.271 3  24374716.713    24374741.140                  
     -2317.141       -1805.637          34.000          20.000  
 107493494.999 8  83761232.808 7  20455333.747                    20455349.291  
        16.832          12.961          48.000          45.000  
 127292699.975 6  99189191.634 6  24223000.352                    24223017.158  
     -3381.957       -2635.109          40.000          38.000  
 114991281.031 7  89603683.209 6  21882112.379                    21882131.389  
      2764.387        2153.918          47.000          39.000  
 24  1 10  3 22 13.1000000  0  8G08G24G18G23G16G10G15G32
 128416862.992 6 100065172.420 6  24436928.024                    24436949.285  
      2783.691        2169.496          37.000          37.000  
 127981107.891 5  99725632.680 6  24353994.710                    24354015.947  
       194.117         151.395          31.000          36.000  
 113140043.703 7  88161136.979 7  21529836.644                    21529851.874  
     -1881.145       -1465.961          44.000          43.000  
 109820243.634 7  85574273.233 7  20898098.610                    20898113.600  
     -1851.367       -1442.684          45.000          45.000  
 128090190.250 5  99810663.781 3  24374760.799    24374785.223                  
     -2316.805       -1805.035          34.000          20.000  
 107493493.301 8  83761231.486 7  20455333.423                    20455348.968  
        16.938          13.262          48.000          45.000  
 127293038.152 6  99189455.144 6  24223064.705                    24223081.510  
     -3381.801       -2635.309          41.000          38.000  
 114991004.548 7  89603467.761 6  21882059.766                    21882078.775  
      2764.594        2154.168          47.000          39.000  
 24  1 10  3 22 13.2000000  0  8G08G24G18G23G16G10G15G32
 128416584.611 6 100064955.539 6  24436874.964                    24436896.438  
      2783.637        2168.801          37.000          37.000  
 127981088.463 5  99725617.447 6  24353990.880                    24354011.766  
       194.457         151.848          31.000          36.000  
 113140231.827 7  88161283.560 7  21529872.818                    21529887.655  
     -1881.164       -1465.859          44.000          43.000  
 109820428.796 7  85574417.535 7  20898133.970                    20898148.996  
     -1851.371       -1442.809          45.000          45.000  
 128090422.043 5  99810844.386 3  24374804.837    24374829.336                  
     -2317.438       -1805.934          33.000          20.000  
 107493491.610 8  83761230.176 7  20455333.234                    20455348.437  
        17.004          13.262          48.000          45.000  
 127293376.395 6  99189718.754 6  24223128.891                    24223145.847  
     -3381.922       -2635.422          40.000          38.000  
 114990728.119 7  89603252.349 6  21882007.249                    21882026.309  
      2764.676        2154.766          47.000          39.000  
 24  1 10  3 22 13.3000000  0  8G08G24G18G23G16G10G15G32
 128416306.298 6 100064738.624 6  24436822.002                    24436843.465  
      2783.496        2169.133          36.000          37.000  
 127981069.019 5  99725602.350 6  24353987.180                    24354008.079  
       194.355         151.238          30.000          36.000  
 113140419.966 7  88161430.161 7  21529908.620                    21529923.457  
     -1881.270       -1465.746          43.000          43.000  
 109820613.958 7  85574561.794 7  20898169.206                    20898184.226  
     -1851.547       -1442.805          45.000          45.000  
 128090653.736 5  99811024.925 3  24374848.927    24374873.426                  
     -2317.141       -1805.426          33.000          20.000  
 107493489.914 8  83761228.855 7  20455332.912                    20455348.115  
        16.973          13.242          48.000          45.000  
 127293714.610 6  99189982.229 6  24223193.251                    24223210.191  
     -3382.289       -2635.445          40.000          39.000  
 114990451.607 7  89603036.911 6  21881954.631                    21881973.697  
      2764.738        2153.973          47.000          40.000  
 24  1 10  3 22 13.4000000  0  8G08G24G18G23G16G10G15G32
 128416027.988 6 100064521.769 6  24436769.089                    24436790.569  
      2783.215        2168.660          37.000          37.000  
 127981049.680 4  99725587.256 6  24353983.133                    24354004.401  
       193.836         151.258          29.000          37.000  
 113140608.121 7  88161576.764 7  21529944.018                    21529958.532  
     -1881.531       -1466.223          43.000          43.000  
 109820799.133 7  85574706.095 7  20898204.646                    20898219.294  
     -1851.590       -1442.801          45.000          44.000  
 128090885.431 5  99811205.460 3  24374893.111    24374917.530                  
     -2317.074       -1805.406          35.000          19.000  
 107493488.234 8  83761227.552 7  20455332.483                    20455347.788  
        16.887          13.340          48.000          45.000  
 127294052.871 6  99190245.845 6  24223257.440                    24223274.983  
     -3382.371       -2635.746          40.000          39.000  
 114990175.131 7  89602821.478 6  21881901.902                    21881920.703  
      2764.797        2154.457          47.000          39.000  
 24  1 10  3 22 13.5000000  0  8G08G24G18G23G16G10G15G32
 128415749.681 6 100064304.924 6  24436716.128                    24436737.613  
      2783.180        2168.512          37.000          36.000  
 127981030.323 5  99725572.146 6  24353979.449                    24354000.711  
       193.621         151.047          30.000          37.000  
 113140796.284 7  88161723.355 7  21529979.824                    21529994.331  
     -1881.824       -1466.199          42.000          43.000  
 109820984.292 7  85574850.351 7  20898239.881                    20898254.523  
     -1851.785       -1442.848          45.000          44.000  
 128091117.122 5  99811385.996 3  24374937.200    24374961.618                  
     -2316.875       -1805.121          35.000          20.000  
 107493486.537 8  83761226.217 7  20455332.160                    20455347.462  
        16.945          13.086          48.000          45.000  
 127294391.127 6  99190509.401 6  24223321.808                    24223339.346  
     -3382.484       -2635.633          40.000          39.000  
 114989898.653 7  89602606.024 6  21881849.290                    21881868.087  
      2764.793        2154.465          47.000          40.000  
 24  1 10  3 22 13.6000000  0  8G08G24G18G23G16G10G15G32
 128415471.313 6 100064088.034 6  24436663.337                    24436684.904  
      2783.391        2168.867          37.000          37.000  
 127981011.007 5  99725557.074 6  24353975.758                    24353997.389  
       193.480         150.652          31.000          37.000  
 113140984.469 7  88161870.006 7  21530015.135                    21530030.363  
     -1881.602       -1466.328          43.000          43.000  
 109821169.465 7  85574994.662 7  20898275.157                    20898289.327  
     -1851.656       -1443.016          45.000          44.000  
 128091348.827 5  99811566.531 3  24374981.417    24375005.629                  
     -2316.992       -1805.398          35.000          20.000  
 107493484.849 8  83761224.915 7  20455331.463                    20455347.223  
        16.914          13.176          48.000          45.000  
 127294729.381 6  99190772.990 6  24223386.082                    24223404.146  
     -3382.539       -2635.848          40.000          39.000  
 114989622.179 7  89602390.615 6  21881796.999                    21881815.678  
      2764.809        2154.113          47.000          39.000  
 24  1 10  3 22 13.7000000  0  8G08G24G18G23G16G10G15G32
 128415192.975 6 100063871.123 6  24436610.370                    24436631.932  
      2783.535        2168.691          37.000          37.000  
 127980991.512 5  99725542.004 6  24353972.048                    24353993.709  
       194.207         151.102          32.000          37.000  
 113141172.628 7  88162016.642 7  21530050.940                    21530066.174  
     -1881.520       -1466.309          42.000          43.000  
 109821354.636 7  85575138.955 7  20898310.394                    20898324.565  
     -1851.660       -1442.898          45.000          44.000  
 128091580.453 5  99811747.015 3  24375025.494    24375049.705                  
     -2316.730       -1805.117          35.000          20.000  
 107493483.159 8  83761223.582 7  20455331.142                    20455346.897  
        16.895          13.207          48.000          45.000  
 127295067.614 6  99191036.516 6  24223450.445                    24223468.502  
     -3382.527       -2635.781          40.000          39.000  
 114989345.679 7  89602175.157 6  21881744.383                    21881763.060  
      2764.906        2154.438          47.000          39.000  
 24  1 10  3 22 13.8000000  0  8G08G24G18G23G16G10G15G32
 128414914.610 6 100063654.223 6  24436557.298                    24436579.221  
      2783.582        2169.184          37.000          36.000  
 127980972.160 5  99725526.853 6  24353968.248                    24353990.775  
       193.934         151.266          33.000          37.000  
 113141360.745 7  88162163.220 7  21530086.800                    21530101.860  
     -1881.434       -1465.898          42.000          42.000  
 109821539.810 7  85575283.217 7  20898345.257                    20898359.475  
     -1851.672       -1442.633          45.000          44.000  
 128091812.083 5  99811927.503 3  24375069.759    24375093.790                  
     -2316.352       -1804.652          35.000          20.000  
 107493481.437 8  83761222.250 7  20455330.799                    20455346.619  
        17.156          13.426          48.000          45.000  
 127295405.862 6  99191300.098 6  24223515.054                    24223532.840  
     -3382.371       -2635.676          40.000          39.000  
 114989069.170 7  89601959.673 6  21881691.812                    21881710.625  
      2765.008        2154.812          47.000          39.000  
 24  1 10  3 22 13.9000000  0  8G08G24G18G23G16G10G15G32
 128414636.266 6 100063437.305 6  24436504.331                    24436526.247  
      2783.520        2168.809          37.000          36.000  
 127980952.753 5  99725511.748 6  24353964.555                    24353987.086  
       194.000         151.094          33.000          37.000  
 113141548.889 7  88162309.829 7  21530122.603                    21530137.663  
     -1881.367       -1465.875          43.000          42.000  
 109821724.919 7  85575427.464 7  20898380.482                    20898394.702  
     -1851.379       -1442.676          45.000          44.000  
 128092043.750 5  99812108.026 3  24375113.844    24375137.875                  
     -2316.602       -1805.285          35.000          20.000  
 107493479.718 8  83761220.917 7  20455330.471                    20455346.293  
        17.152          13.414          48.000          45.000  
 127295744.076 6  99191563.647 6  24223579.414                    24223597.202  
     -3382.359       -2635.594          40.000          39.000  
 114988792.673 7  89601744.211 6  21881639.196                    21881658.007  
      2765.008        2154.500          47.000          39.000  
 24  1 10  3 22 14.0000000  0  8G08G24G18G23G16G10G15G32
 128414357.910 6 100063220.458 6  24436451.510                    24436473.111  
      2783.570        2168.594          37.000          36.000  
 127980933.400 5  99725496.692 6  24353961.084                    24353983.073  
       193.824         150.746          33.000          37.000  
 113141737.048 7  88162456.451 7  21530158.924                    21530173.501  
     -1881.539       -1466.356          43.000          42.000  
 109821910.090 7  85575571.770 7  20898416.031                    20898430.404  
     -1851.508       -1442.668          45.000          45.000  
 128092275.474 5  99812288.599 3  24375157.877    24375181.942                  
     -2316.805       -1805.434          35.000          20.000  
 107493478.015 8  83761219.573 7  20455330.077                    20455346.168  
        17.020          13.094          48.000          45.000  
 127296082.369 6  99191827.239 6  24223643.742                    24223661.464  
     -3382.512       -2635.820          39.000          39.000  
 114988516.197 7  89601528.789 6  21881586.444                    21881605.117  
      2764.891        2154.309          47.000          39.000  
 24  1 10  3 22 14.1000000  0  8G08G24G18G23G16G10G15G32
 128414079.573 6 100063003.510 6  24436398.544                    24436420.131  
      2783.414        2169.473          37.000          36.000  
 127980914.004 5  99725481.613 6  24353957.393                    24353979.391  
       193.875         150.570          33.000          37.000  
 113141925.243 7  88162603.087 7  21530194.736                    21530209.311  
     -1881.590       -1466.055          43.000          42.000  
 109822095.227 7  85575716.020 7  20898451.261                    20898465.631  
     -1851.566       -1442.695          45.000          45.000  
 128092507.142 5  99812469.123 3  24375201.962    24375226.028                  
     -2316.824       -1805.441          35.000          20.000  
 107493476.295 8  83761218.245 7  20455329.750                    20455345.844  
        17.102          13.461          48.000          45.000  
 127296420.620 6  99192090.771 6  24223708.109                    24223725.821  
     -3382.512       -2635.316          40.000          39.000  
 114988239.691 7  89601313.346 6  21881533.827                    21881552.504  
      2764.895        2154.453          47.000          39.000  
 24  1 10  3 22 14.2000000  0  8G08G24G18G23G16G10G15G32
 128413801.196 6 100062786.650 6  24436345.547                    24436367.046  
      2783.570        2168.879          37.000          36.000  
 127980894.624 5  99725466.548 6  24353953.392                    24353975.399  
       193.750         151.094          33.000          36.000  
 113142113.367 7  88162749.654 7  21530230.699                    21530245.245  
     -1881.410       -1466.016          43.000          42.000  
 109822280.327 7  85575860.277 7  20898486.688                    20898500.891  
     -1851.070       -1442.531          44.000          45.000  
 128092738.830 5  99812649.665 3  24375245.918    24375270.118                  
     -2316.859       -1805.441          34.000          20.000  
 107493474.551 8  83761216.865 7  20455329.254                    20455345.374  
        17.371          13.512          48.000          45.000  
 127296758.837 6  99192354.353 6  24223772.806                    24223790.073  
     -3382.332       -2635.898          40.000          39.000  
 114987963.210 7  89601097.880 6  21881481.355                    21881499.877  
      2764.988        2154.543          47.000          39.000  
 24  1 10  3 22 14.3000000  0  8G08G24G18G23G16G10G15G32
 128413522.883 6 100062569.728 6  24436292.586                    24436314.071  
      2783.457        2169.016          37.000          36.000  
 127980875.279 5  99725451.389 6  24353949.711                    24353971.697  
       193.535         151.289          32.000          37.000  
 113142301.470 7  88162896.262 7  21530266.494                    21530281.048  
     -1881.320       -1466.234          43.000          42.000  
 109822465.474 7  85576004.540 7  20898521.920                    20898536.122  
     -1851.199       -1442.445          44.000          45.000  
 128092970.512 5  99812830.195 3  24375290.006    24375314.205                  
     -2316.977       -1805.586          35.000          20.000  
 107493472.833 8  83761215.538 7  20455328.927                    20455345.050  
        17.191          13.457          48.000          45.000  
 127297097.049 6  99192617.915 6  24223837.165                    24223854.438  
     -3382.356       -2635.742          40.000          39.000  
 114987686.716 7  89600882.461 6  21881428.740                    21881447.269  
      2764.871        2154.238          47.000          39.000  
 24  1 10  3 22 14.4000000  0  8G08G24G18G23G16G10G15G32
 128413244.554 6 100062352.915 6  24436239.700                    24436261.006  
      2783.309        2168.473          36.000          36.000  
 127980855.897 5  99725436.281 6  24353945.913                    24353967.367  
       193.801         151.125          32.000          37.000  
 113142489.629 7  88163042.866 7  21530302.261                    21530317.069  
     -1881.375       -1465.586          44.000          42.000  
 109822650.608 7  85576148.754 7  20898557.173                    20898571.895  
     -1851.391       -1442.504          44.000          45.000  
 128093202.239 5  99813010.757 3  24375333.727    24375358.269                  
     -2317.043       -1805.559          35.000          20.000  
 107493471.103 8  83761214.199 7  20455328.660                    20455344.902  
        17.340          13.512          48.000          45.000  
 127297435.293 6  99192881.514 6  24223901.969                    24223919.038  
     -3382.246       -2635.633          41.000          39.000  
 114987410.239 7  89600667.006 6  21881376.112                    21881394.442  
      2764.840        2154.758          47.000          39.000  
 24  1 10  3 22 14.5000000  0  8G08G24G18G23G16G10G15G32
 128412966.234 6 100062136.028 6  24436186.737                    24436208.041  
      2783.234        2168.680          36.000          36.000  
 127980836.579 5  99725421.302 6  24353942.237                    24353963.709  
       193.480         150.055          32.000          37.000  
 113142677.752 7  88163189.444 7  21530338.059                    21530352.865  
     -1881.434       -1466.281          43.000          43.000  
 109822835.716 7  85576293.044 7  20898592.398                    20898607.132  
     -1851.254       -1442.707          45.000          45.000  
 128093434.056 5  99813191.396 3  24375377.840    24375402.383                  
     -2317.535       -1806.066          35.000          20.000  
 107493469.398 8  83761212.864 7  20455328.336                    20455344.576  
        17.090          13.191          48.000          45.000  
 127297773.520 6  99193145.029 6  24223966.331                    24223983.391  
     -3382.438       -2635.742          41.000          39.000  
 114987133.767 7  89600451.587 6  21881323.501                    21881341.835  
      2764.715        2154.020          47.000          39.000  
 24  1 10  3 22 14.6000000  0  8G08G24G18G23G16G10G15G32
 128412687.928 6 100061919.136 6  24436133.738                    24436154.995  
      2783.223        2169.051          36.000          36.000  
 127980817.154 5  99725406.150 6  24353938.713                    24353960.337  
       193.863         151.211          32.000          37.000  
 113142865.862 7  88163336.030 7  21530373.433                    21530388.600  
     -1881.227       -1465.731          43.000          43.000  
 109823020.841 7  85576437.279 7  20898627.712                    20898642.356  
     -1851.223       -1442.316          44.000          45.000  
 128093665.690 5  99813371.891 3  24375421.966    24375446.422                  
     -2317.000       -1805.332          35.000          20.000  
 107493467.669 8  83761211.505 7  20455328.429                    20455344.096  
        17.137          13.418          48.000          45.000  
 127298111.746 6  99193408.591 6  24224031.068                    24224047.803  
     -3382.184       -2635.473          41.000          39.000  
 114986857.290 7  89600236.129 6  21881271.022                    21881288.710  
      2764.801        2154.438          47.000          39.000  
 24  1 10  3 22 14.7000000  0  8G08G24G18G23G16G10G15G32
 128412409.594 6 100061702.250 6  24436080.773                    24436102.029  
      2783.219        2168.832          36.000          36.000  
 127980797.788 5  99725391.022 6  24353935.028                    24353956.643  
       193.602         151.375          31.000          37.000  
 113143053.980 7  88163482.612 7  21530409.231                    21530424.397  
     -1881.141       -1465.738          43.000          43.000  
 109823205.947 7  85576581.494 7  20898662.937                    20898677.575  
     -1851.109       -1442.375          45.000          45.000  
 128093897.359 5  99813552.415 3  24375466.051    24375490.508                  
     -2316.766       -1805.082          35.000          20.000  
 107493465.962 8  83761210.186 7  20455328.104                    20455343.774  
        17.238          13.465          48.000          45.000  
 127298449.942 6  99193672.149 6  24224095.425                    24224112.166  
     -3381.961       -2635.383          41.000          39.000  
 114986580.812 7  89600020.725 6  21881218.410                    21881236.106  
      2764.801        2154.453          47.000          39.000  
 24  1 10  3 22 14.8000000  0  8G08G24G18G23G16G10G15G32
 128412131.309 6 100061485.457 6  24436028.278                    24436049.180  
      2783.082        2168.383          36.000          36.000  
 127980778.474 5  99725375.978 6  24353931.446                    24353952.961  
       193.512         150.812          31.000          37.000  
 113143242.134 7  88163629.237 7  21530444.676                    21530459.970  
     -1881.367       -1466.016          42.000          43.000  
 109823391.096 7  85576725.800 7  20898698.357                    20898712.925  
     -1851.227       -1442.609          45.000          45.000  
 128094129.131 5  99813733.011 3  24375510.421    24375534.596                  
     -2317.375       -1805.996          35.000          20.000  
 107493464.265 8  83761208.852 7  20455327.500                    20455343.604  
        17.016          13.145          48.000          45.000  
 127298788.123 6  99193935.661 6  24224159.255                    24224175.714  
     -3381.894       -2635.316          41.000          39.000  
 114986304.374 7  89599805.302 6  21881165.689                    21881183.599  
      2764.523        2153.969          47.000          39.000  
 24  1 10  3 22 14.9000000  0  8G08G24G18G23G16G10G15G32
 128411852.998 6 100061268.594 6  24435975.318                    24435996.220  
      2783.141        2168.199          36.000          36.000  
 127980759.066 5  99725360.854 6  24353927.753                    24353949.267  
       193.770         151.148          32.000          37.000  
 113143430.279 7  88163775.797 7  21530480.479                    21530495.762  
     -1881.484       -1465.934          43.000          42.000  
 109823576.202 7  85576870.015 7  20898733.582                    20898748.144  
     -1851.352       -1442.555          45.000          45.000  
 128094360.945 5  99813913.648 3  24375554.534    24375578.710                  
     -2317.637       -1806.094          35.000          20.000  
 107493462.590 8  83761207.564 7  20455327.181                    20455343.290  
        16.922          12.906          48.000          45.000  
 127299126.345 6  99194199.234 6  24224223.617                    24224240.081  
     -3382.109       -2635.621          41.000          39.000  
 114986027.918 7  89599589.880 6  21881113.081                    21881130.991  
      2764.547        2154.234          47.000          39.000  
 24  1 10  3 22 15.0000000  0  8G08G24G18G23G16G10G15G32
 128411574.769 6 100061051.753 6  24435922.732                    24435943.351  
      2782.266        2168.598          36.000          36.000  
 127980739.743 5  99725345.757 6  24353924.177                    24353946.080  
       193.363         150.844          33.000          37.000  
 113143618.456 7  88163922.493 7  21530516.429                    21530531.742  
     -1881.414       -1466.438          43.000          43.000  
 109823761.390 7  85577014.323 7  20898768.767                    20898783.174  
     -1851.758       -1442.961          45.000          45.000  
 128094592.703 5  99814094.243 3  24375598.691    24375622.805                  
     -2317.773       -1806.074          35.000          20.000  
 107493460.966 8  83761206.294 7  20455326.598                    20455343.355  
        16.246          12.773          48.000          45.000  
 127299464.637 6  99194462.830 6  24224287.921                    24224304.477  
     -3382.797       -2635.809          40.000          39.000  
 114985751.512 7  89599374.494 6  21881060.412                    21881078.532  
      2763.992        2153.934          47.000          39.000  
 24  1 10  3 22 15.1000000  0  8G08G24G18G23G16G10G15G32
 128411296.544 6 100060834.952 6  24435869.787                    24435890.406  
      2782.438        2167.840          36.000          36.000  
 127980720.333 5  99725330.706 6  24353920.484                    24353942.405  
       193.469         150.699          33.000          37.000  
 113143806.658 7  88164069.136 7  21530552.242                    21530567.554  
     -1882.434       -1466.871          42.000          43.000  
 109823946.585 7  85577158.643 7  20898804.008                    20898818.419  
     -1851.980       -1443.305          45.000          45.000  
 128094824.510 5  99814274.865 3  24375642.802    24375666.915                  
     -2318.082       -1806.270          35.000          20.000  
 107493459.358 8  83761205.034 7  20455326.292                    20455343.047  
        15.902          12.238          48.000          45.000  
 127299802.888 6  99194726.350 6  24224352.288                    24224368.832  
     -3382.797       -2635.711          40.000          39.000  
 114985475.149 7  89599159.173 6  21881007.822                    21881025.948  
      2763.562        2153.258          47.000          39.000  
 24  1 10  3 22 15.2000000  0  8G08G24G18G23G16G10G15G32
 128411018.265 6 100060618.146 6  24435816.957                    24435837.288  
      2782.617        2168.004          36.000          36.000  
 127980700.991 5  99725315.603 6  24353916.615                    24353938.857  
       193.625         150.684          32.000          37.000  
 113143994.877 7  88164215.747 7  21530588.012                    21530603.819  
     -1881.902       -1465.891          42.000          43.000  
 109824131.794 7  85577302.963 7  20898839.073                    20898853.554  
     -1851.996       -1443.289          44.000          45.000  
 128095056.296 5  99814455.474 3  24375686.910    24375710.974                  
     -2317.867       -1806.121          35.000          20.000  
 107493457.759 8  83761203.806 7  20455325.965                    20455342.825  
        16.180          12.457          48.000          45.000  
 127300141.143 6  99194989.886 6  24224416.500                    24224433.197  
     -3382.551       -2635.312          40.000          38.000  
 114985198.749 7  89598943.778 6  21880955.061                    21880973.565  
      2763.996        2154.000          47.000          39.000  
 24  1 10  3 22 15.3000000  0  8G08G24G18G23G16G10G15G32
 128410740.068 6 100060401.297 6  24435764.018                    24435784.331  
      2782.293        2168.332          36.000          36.000  
 127980681.748 5  99725300.582 6  24353912.954                    24353935.189  
       193.281         150.320          32.000          37.000  
 113144183.017 7  88164362.351 7  21530623.814                    21530639.621  
     -1881.848       -1466.504          42.000          43.000  
 109824316.968 7  85577447.255 7  20898874.310                    20898888.791  
     -1851.855       -1442.750          45.000          45.000  
 128095288.072 5  99814636.068 3  24375731.015    24375755.077                  
     -2317.930       -1806.242          35.000          20.000  
 107493456.141 8  83761202.534 7  20455325.657                    20455342.515  
        16.195          12.645          48.000          45.000  
 127300479.361 6  99195253.498 6  24224480.860                    24224497.574  
     -3382.289       -2635.844          39.000          38.000  
 114984922.336 7  89598728.386 6  21880902.461                    21880920.965  
      2763.977        2153.664          47.000          39.000  
 24  1 10  3 22 15.4000000  0  8G08G24G18G23G16G10G15G32
 128410461.795 6 100060184.500 6  24435711.557                    24435731.356  
      2782.629        2167.930          36.000          37.000  
 127980662.357 5  99725285.504 6  24353909.412                    24353931.561  
       193.465         150.906          31.000          37.000  
 113144371.206 7  88164509.063 7  21530659.508                    21530675.887  
     -1881.547       -1466.320          42.000          43.000  
 109824502.169 7  85577591.557 7  20898909.389                    20898924.008  
     -1851.770       -1442.816          45.000          45.000  
 128095519.844 5  99814816.660 3  24375774.823    24375799.242                  
     -2317.809       -1806.020          35.000          20.000  
 107493454.489 8  83761201.250 7  20455325.655                    20455342.170  
        16.359          12.785          48.000          45.000  
 127300817.636 6  99195517.065 6  24224544.677                    24224562.018  
     -3382.609       -2635.598          39.000          38.000  
 114984645.927 7  89598513.008 6  21880850.065                    21880868.351  
      2764.156        2153.840          47.000          39.000  
 24  1 10  3 22 15.5000000  0  8G08G24G18G23G16G10G15G32
 128410183.529 6 100059967.709 6  24435658.605                    24435678.413  
      2782.594        2168.117          36.000          37.000  
 127980643.083 5  99725270.417 6  24353905.744                    24353927.877  
       192.992         150.445          31.000          37.000  
 113144559.394 7  88164655.681 7  21530695.319                    21530711.693  
     -1881.820       -1466.445          43.000          43.000  
 109824687.329 7  85577735.833 7  20898944.624                    20898959.241  
     -1851.695       -1442.953          45.000          45.000  
 128095751.548 5  99814997.212 3  24375818.915    24375843.335                  
     -2317.387       -1805.551          35.000          20.000  
 107493452.880 8  83761199.986 7  20455325.349                    20455341.861  
        16.277          12.730          48.000          45.000  
 127301155.903 6  99195780.621 6  24224609.047                    24224626.381  
     -3382.488       -2635.520          38.000          39.000  
 114984369.511 7  89598297.609 6  21880797.465                    21880815.749  
      2764.195        2154.152          47.000          40.000  
 24  1 10  3 22 15.6000000  0  8G08G24G18G23G16G10G15G32
 128409905.284 6 100059750.845 6  24435605.117                    24435625.875  
      2782.496        2168.336          36.000          37.000  
 127980623.644 5  99725255.381 6  24353902.108                    24353924.533  
       193.863         150.738          30.000          37.000  
 113144747.584 7  88164802.309 7  21530731.638                    21530747.439  
     -1881.977       -1466.555          43.000          43.000  
 109824872.503 7  85577880.149 7  20898980.189                    20898995.063  
     -1851.750       -1443.145          45.000          45.000  
 128095983.378 5  99815177.857 3  24375863.031    24375887.536                  
     -2317.781       -1806.137          35.000          20.000  
 107493451.236 8  83761198.714 7  20455325.020                    20455341.113  
        16.305          12.672          48.000          45.000  
 127301494.137 6  99196044.209 6  24224672.559                    24224691.096  
     -3382.535       -2635.922          38.000          39.000  
 114984093.087 7  89598082.218 6  21880744.785                    21880763.070  
      2764.188        2153.883          47.000          40.000  
 24  1 10  3 22 15.7000000  0  8G08G24G18G23G16G10G15G32
 128409627.019 6 100059533.979 6  24435552.165                    24435572.914  
      2782.605        2168.172          36.000          37.000  
 127980604.420 5  99725240.299 6  24353898.450                    24353920.850  
       192.816         150.840          30.000          37.000  
 113144935.772 7  88164948.953 7  21530767.449                    21530783.250  
     -1881.863       -1466.473          43.000          43.000  
 109825057.688 7  85578024.457 7  20899015.429                    20899030.305  
     -1851.766       -1442.797          45.000          45.000  
 128096215.092 5  99815358.419 3  24375907.124    24375931.631                  
     -2317.363       -1805.539          35.000          20.000  
 107493449.597 8  83761197.444 7  20455324.708                    20455340.803  
        16.391          12.891          48.000          45.000  
 127301832.463 6  99196307.794 6  24224736.941                    24224755.466  
     -3382.820       -2635.801          38.000          39.000  
 114983816.661 7  89597866.832 6  21880692.183                    21880710.471  
      2764.270        2154.039          47.000          40.000  
 24  1 10  3 22 15.8000000  0  8G08G24G18G23G16G10G15G32
 128409348.771 6 100059317.181 6  24435499.130                    24435519.571  
      2782.520        2168.305          36.000          36.000  
 127980585.119 5  99725225.284 6  24353894.761                    24353917.050  
       193.176         150.098          32.000          38.000  
 113145124.001 7  88165095.647 7  21530803.072                    21530818.739  
     -1882.105       -1466.617          43.000          43.000  
 109825242.918 7  85578168.743 7  20899050.950                    20899065.306  
     -1852.020       -1443.035          45.000          45.000  
 128096446.810 5  99815538.972 3  24375951.203    24375975.724                  
     -2317.375       -1805.746          34.000          20.000  
 107493447.977 8  83761196.164 7  20455324.267                    20455340.483  
        16.344          12.805          48.000          45.000  
 127302170.772 6  99196571.374 6  24224801.178                    24224819.796  
     -3382.934       -2635.918          38.000          39.000  
 114983540.258 7  89597651.449 6  21880639.468                    21880657.997  
      2764.195        2153.945          47.000          40.000  
 24  1 10  3 22 15.9000000  0  8G08G24G18G23G16G10G15G32
 128409070.551 6 100059100.424 6  24435446.187                    24435466.637  
      2782.348        2167.574          36.000          37.000  
 127980565.851 5  99725210.320 6  24353891.094                    24353913.396  
       192.594         149.855          32.000          38.000  
 113145312.227 7  88165242.271 7  21530838.891                    21530854.546  
     -1882.348       -1466.879          43.000          43.000  
 109825428.153 7  85578313.115 7  20899086.199                    20899100.563  
     -1852.199       -1443.645          45.000          45.000  
 128096678.579 5  99815719.581 3  24375995.307    24376019.830                  
     -2317.547       -1805.996          34.000          20.000  
 107493446.376 8  83761194.940 7  20455323.963                    20455340.184  
        16.078          12.312          48.000          45.000  
 127302509.110 6  99196835.025 6  24224865.562                    24224884.182  
     -3383.156       -2636.391          38.000          38.000  
 114983263.865 7  89597436.085 6  21880586.872                    21880605.403  
      2763.973        2153.496          47.000          40.000  
 24  1 10  3 22 16.0000000  0  8G08G24G18G23G16G10G15G32
 128408792.329 6 100058883.597 6  24435392.931                    24435413.701  
      2782.285        2168.145          36.000          37.000  
 127980546.609 5  99725195.342 6  24353887.628                    24353909.738  
       192.875         149.734          31.000          38.000  
 113145500.480 7  88165388.978 7  21530875.042                    21530890.014  
     -1882.402       -1466.781          43.000          43.000  
 109825613.358 7  85578457.434 7  20899121.497                    20899135.519  
     -1852.242       -1443.379          45.000          45.000  
 128096910.335 5  99815900.170 3  24376039.159    24376063.916                  
     -2317.523       -1805.906          34.000          20.000  
 107493444.775 8  83761193.677 7  20455323.759                    20455339.820  
        16.055          12.582          48.000          45.000  
 127302847.410 6  99197098.653 6  24224930.126                    24224948.430  
     -3383.051       -2636.176          38.000          38.000  
 114982987.466 7  89597220.706 6  21880534.549                    21880553.000  
      2763.996        2153.996          47.000          40.000  
 24  1 10  3 22 16.1000000  0  8G08G24G18G23G16G10G15G32
 128408514.083 6 100058666.781 6  24435339.982                    24435360.752  
      2782.441        2168.254          36.000          36.000  
 127980527.244 5  99725180.320 6  24353883.943                    24353906.070  
       193.070         150.207          32.000          38.000  
 113145688.760 7  88165535.667 7  21530910.871                    21530925.837  
     -1882.574       -1467.090          42.000          42.000  
 109825798.610 7  85578601.776 7  20899156.750                    20899170.768  
     -1852.281       -1443.371          45.000          45.000  
 128097142.098 5  99816080.765 3  24376083.262    24376108.020                  
     -2317.672       -1806.156          34.000          20.000  
 107493443.190 8  83761192.454 7  20455323.458                    20455339.522  
        15.953          12.059          48.000          45.000  
 127303185.688 6  99197362.237 6  24224994.498                    24225012.800  
     -3383.016       -2636.043          39.000          38.000  
 114982711.089 7  89597005.316 6  21880481.956                    21880500.400  
      2763.832        2153.328          47.000          40.000  
 24  1 10  3 22 16.2000000  0  8G08G24G18G23G16G10G15G32
 128408235.898 6 100058450.007 6  24435286.811                    24435307.728  
      2782.059        2167.648          36.000          36.000  
 127980508.132 5  99725165.355 6  24353880.142                    24353902.048  
       191.965         149.633          32.000          38.000  
 113145877.083 7  88165682.459 7  21530946.231                    21530961.529  
     -1883.086       -1467.840          42.000          42.000  
 109825983.938 7  85578746.172 7  20899191.610                    20899206.133  
     -1852.898       -1443.812          45.000          45.000  
 128097373.839 5  99816261.349 3  24376127.345    24376152.112                  
     -2317.512       -1805.855          35.000          20.000  
 107493441.668 8  83761191.270 7  20455322.965                    20455339.428  
        15.504          11.926          48.000          45.000  
 127303524.051 6  99197625.872 6  24225059.105                    24225077.073  
     -3383.285       -2636.117          39.000          38.000  
 114982434.756 7  89596790.030 6  21880429.278                    21880448.043  
      2763.504        2153.012          47.000          39.000  
 24  1 10  3 22 16.3000000  0  8G08G24G18G23G16G10G15G32
 128407957.682 6 100058233.252 6  24435233.868                    24435254.794  
      2782.145        2167.535          36.000          36.000  
 127980488.964 5  99725150.387 6  24353876.495                    24353898.393  
       191.910         149.656          31.000          38.000  
 113146065.399 7  88165829.185 7  21530982.066                    21530997.360  
     -1882.992       -1467.152          42.000          42.000  
 109826169.223 7  85578890.555 7  20899226.869                    20899241.393  
     -1852.906       -1443.957          45.000          45.000  
 128097605.590 5  99816441.931 3  24376171.446    24376196.212                  
     -2317.477       -1805.770          35.000          20.000  
 107493440.156 8  83761190.065 7  20455322.677                    20455339.134  
        15.316          11.879          48.000          45.000  
 127303862.383 6  99197889.503 6  24225123.487                    24225141.454  
     -3383.328       -2636.484          40.000          38.000  
 114982158.421 7  89596574.688 6  21880376.693                    21880395.455  
      2763.434        2153.211          47.000          40.000  
 24  1 10  3 22 16.4000000  0  8G08G24G18G23G16G10G15G32
 128407679.481 6 100058016.453 6  24435180.803                    24435201.912  
      2782.070        2168.000          36.000          36.000  
 127980469.708 5  99725135.376 6  24353872.979                    24353894.875  
       192.418         150.000          30.000          38.000  
 113146253.736 7  88165975.961 7  21531017.827                    21531032.673  
     -1883.277       -1468.000          42.000          42.000  
 109826354.528 7  85579034.958 7  20899261.967                    20899276.134  
     -1852.961       -1444.148          45.000          45.000  
 128097837.393 5  99816622.548 3  24376216.049    24376240.336                  
     -2317.785       -1806.168          35.000          20.000  
 107493438.652 8  83761188.900 7  20455322.860                    20455338.732  
        15.109          11.629          48.000          45.000  
 127304200.711 6  99198153.183 6  24225188.377                    24225205.801  
     -3383.172       -2636.570          40.000          38.000  
 114981882.119 7  89596359.378 6  21880324.044                    21880342.624  
      2763.160        2152.973          47.000          39.000  
 24  1 10  3 22 16.5000000  0  8G08G24G18G23G16G10G15G32
 128407401.294 6 100057799.669 6  24435127.866                    24435148.971  
      2781.879        2167.648          36.000          36.000  
 127980450.496 5  99725120.423 6  24353869.323                    24353891.224  
       191.930         149.449          30.000          39.000  
 113146442.111 7  88166122.733 7  21531053.674                    21531068.517  
     -1883.406       -1467.496          43.000          42.000  
 109826539.875 7  85579179.377 7  20899297.237                    20899311.403  
     -1853.285       -1444.234          45.000          45.000  
 128098069.200 5  99816803.180 3  24376260.160    24376284.448                  
     -2318.055       -1806.512          35.000          20.000  
 107493437.179 8  83761187.764 7  20455322.580                    20455338.455  
        14.969          11.469          48.000          45.000  
 127304539.037 6  99198416.843 6  24225252.758                    24225270.189  
     -3383.285       -2636.578          40.000          38.000  
 114981605.865 7  89596144.131 6  21880271.475                    21880290.058  
      2762.945        2152.703          47.000          39.000  
 24  1 10  3 22 16.6000000  0  8G08G24G18G23G16G10G15G32
 128407123.109 6 100057582.919 6  24435074.867                    24435096.101  
      2781.938        2167.586          36.000          36.000  
 127980431.292 5  99725105.459 6  24353865.739                    24353887.913  
       192.078         149.695          31.000          39.000  
 113146630.471 7  88166269.487 7  21531089.783                    21531104.481  
     -1883.613       -1467.785          42.000          42.000  
 109826725.223 7  85579323.814 7  20899332.758                    20899346.511  
     -1853.258       -1444.312          45.000          44.000  
 128098300.942 5  99816983.761 3  24376304.322    24376328.587                  
     -2317.633       -1805.832          35.000          21.000  
 107493435.725 8  83761186.633 7  20455322.350                    20455338.014  
        14.734          11.270          48.000          45.000  
 127304877.448 6  99198680.492 6  24225317.304                    24225333.888  
     -3383.824       -2636.648          40.000          38.000  
 114981329.600 7  89595928.857 6  21880219.036                    21880237.322  
      2762.738        2152.734          47.000          39.000  
 24  1 10  3 22 16.7000000  0  8G08G24G18G23G16G10G15G32
 128406844.931 6 100057366.187 6  24435021.931                    24435043.173  
      2781.859        2167.203          37.000          37.000  
 127980412.058 5  99725090.549 6  24353862.079                    24353884.272  
       192.094         149.023          31.000          39.000  
 113146818.902 7  88166416.325 7  21531125.641                    21531140.340  
     -1883.910       -1468.074          42.000          43.000  
 109826910.600 7  85579468.270 7  20899368.034                    20899381.789  
     -1853.688       -1444.367          45.000          44.000  
 128098532.831 5  99817164.447 3  24376348.449    24376372.713                  
     -2318.230       -1806.602          34.000          20.000  
 107493434.280 8  83761185.503 7  20455322.075                    20455337.738  
        14.590          11.121          48.000          45.000  
 127305215.814 6  99198944.189 6  24225381.693                    24225398.285  
     -3383.726       -2636.828          39.000          38.000  
 114981053.334 7  89595713.590 6  21880166.465                    21880184.752  
      2762.617        2152.699          47.000          39.000  
 24  1 10  3 22 16.8000000  0  8G08G24G18G23G16G10G15G32
 128406566.781 6 100057149.443 6  24434968.939                    24434990.258  
      2781.770        2167.488          37.000          37.000  
 127980392.903 5  99725075.581 6  24353858.395                    24353880.999  
       191.930         149.609          31.000          39.000  
 113147007.247 7  88166563.076 7  21531161.622                    21531177.061  
     -1883.762       -1467.840          43.000          43.000  
 109827095.909 7  85579612.637 7  20899403.352                    20899417.733  
     -1853.375       -1444.277          45.000          45.000  
 128098764.604 5  99817345.048 3  24376392.225    24376416.809                  
     -2317.918       -1806.020          34.000          20.000  
 107493432.802 8  83761184.353 7  20455321.841                    20455337.668  
        14.621          11.512          48.000          45.000  
 127305554.172 6  99199207.866 6  24225445.776                    24225462.740  
     -3383.524       -2636.848          39.000          38.000  
 114980777.057 7  89595498.287 6  21880113.680                    21880132.079  
      2762.648        2152.582          47.000          39.000  
 24  1 10  3 22 16.9000000  0  8G08G24G18G23G16G10G15G32
 128406288.539 6 100056932.676 6  24434915.991                    24434937.321  
      2781.988        2167.594          36.000          37.000  
 127980373.679 5  99725060.655 6  24353854.736                    24353877.354  
       192.031         149.160          31.000          38.000  
 113147195.588 7  88166709.843 7  21531197.462                    21531212.903  
     -1883.445       -1467.453          43.000          43.000  
 109827281.230 7  85579757.083 7  20899438.617                    20899453.008  
     -1853.168       -1443.684          45.000          44.000  
 128098996.395 5  99817525.661 3  24376436.334    24376460.917                  
     -2318.055       -1806.348          33.000          20.000  
 107493431.289 8  83761183.180 7  20455321.553                    20455337.382  
        14.977          11.742          48.000          45.000  
 127305892.510 6  99199471.539 6  24225510.159                    24225527.132  
     -3383.539       -2636.695          39.000          37.000  
 114980500.768 7  89595283.043 6  21880061.104                    21880079.514  
      2762.992        2153.148          47.000          39.000  
 24  1 10  3 22 17.0000000  0  8G08G24G18G23G16G10G15G32
 128406010.400 6 100056715.854 6  24434862.868                    24434884.839  
      2781.723        2168.004          37.000          37.000  
 127980354.560 4  99725045.726 6  24353850.637                    24353873.654  
       191.855         149.520          29.000          38.000  
 113147383.927 7  88166856.599 7  21531234.130                    21531248.664  
     -1883.398       -1467.637          43.000          42.000  
 109827466.541 7  85579901.452 7  20899473.764                    20899488.334  
     -1853.137       -1444.012          45.000          45.000  
 128099228.187 5  99817706.278 3  24376480.458    24376504.987                  
     -2317.883       -1806.066          32.000          20.000  
 107493429.793 8  83761182.000 7  20455321.245                    20455337.289  
        15.047          11.832          48.000          45.000  
 127306230.864 6  99199735.157 6  24225574.140                    24225591.619  
     -3383.504       -2636.488          39.000          37.000  
 114980224.474 7  89595067.731 6  21880008.457                    21880026.753  
      2763.059        2153.039          47.000          39.000  
 24  1 10  3 22 17.1000000  0  8G08G24G18G23G16G10G15G32
 128405732.190 6 100056499.111 6  24434809.926                    24434831.909  
      2781.793        2167.328          37.000          37.000  
 127980335.45734  99725030.768 6  24353846.994                    24353870.001  
       191.348         149.281          27.000          38.000  
 113147572.321 7  88167003.404 7  21531269.980                    21531284.515  
     -1883.703       -1467.633          43.000          42.000  
 109827651.886 7  85580045.898 7  20899509.033                    20899523.610  
     -1853.254       -1443.996          44.000          44.000  
 128099460.043 5  99817886.950 3  24376524.579    24376549.109                  
     -2318.160       -1806.457          33.000          20.000  
 107493428.287 8  83761180.827 7  20455320.958                    20455337.003  
        14.957          11.844          48.000          45.000  
 127306569.267 6  99199998.822 6  24225638.536                    24225656.009  
     -3383.781       -2636.852          39.000          37.000  
 114979948.156 7  89594852.408 6  21879955.875                    21879974.169  
      2762.996        2153.254          47.000          39.000  
 24  1 10  3 22 17.2000000  0  8G08G24G18G23G16G10G15G32
 128405454.008 6 100056282.360 6  24434757.130                    24434779.195  
      2781.914        2167.605          36.000          37.000  
 127980316.33324  99725015.855 6  24353843.628                    24353866.539  
       191.105         148.852          27.000          38.000  
 113147760.636 7  88167150.127 7  21531305.151                    21531320.245  
     -1883.492       -1467.891          43.000          42.000  
 109827837.173 7  85580190.277 7  20899543.949                    20899558.626  
     -1853.094       -1444.141          44.000          44.000  
 128099691.759 5  99818067.514 3  24376568.657    24376593.157                  
     -2317.613       -1805.738          33.000          19.000  
 107493426.767 8  83761179.650 7  20455320.512                    20455336.614  
        15.137          11.723          48.000          45.000  
 127306907.619 6  99200262.521 6  24225702.805                    24225720.094  
     -3383.555       -2636.855          40.000          37.000  
 114979671.841 7  89594637.115 6  21879903.372                    21879921.780  
      2763.133        2153.074          47.000          39.000  
 24  1 10  3 22 17.3000000  0  8G08G24G18G23G16G10G15G32
 128405175.859 6 100056065.595 6  24434704.200                    24434726.258  
      2781.695        2167.688          36.000          37.000  
 127980297.12524  99725000.941 6  24353839.973                    24353862.896  
       191.621         148.809          28.000          38.000  
 113147948.954 7  88167296.913 7  21531340.987                    21531356.092  
     -1883.273       -1467.637          43.000          42.000  
 109828022.508 7  85580334.661 7  20899579.217                    20899593.886  
     -1853.188       -1443.750          45.000          44.000  
 128099923.520 5  99818248.109 3  24376612.760    24376637.260                  
     -2317.711       -1806.035          33.000          20.000  
 107493425.252 8  83761178.475 7  20455320.224                    20455336.327  
        15.133          11.809          48.000          45.000  
 127307245.989 6  99200526.206 6  24225767.194                    24225784.489  
     -3383.789       -2636.871          39.000          37.000  
 114979395.517 7  89594421.761 6  21879850.789                    21879869.188  
      2763.141        2153.180          47.000          39.000  
 24  1 10  3 22 17.4000000  0  8G08G24G18G23G16G10G15G32
 128404897.677 6 100055848.816 6  24434651.209                    24434673.241  
      2781.730        2167.434          36.000          37.000  
 127980277.96724  99724986.061 6  24353836.999                    24353859.012  
       191.531         149.109          28.000          38.000  
 113148137.367 7  88167443.729 7  21531376.450                    21531391.906  
     -1883.680       -1468.004          43.000          42.000  
 109828207.822 7  85580479.050 7  20899614.871                    20899628.819  
     -1853.285       -1444.254          45.000          44.000  
 128100155.268 5  99818428.690 3  24376656.751    24376681.321                  
     -2317.543       -1805.793          34.000          20.000  
 107493423.751 8  83761177.321 7  20455319.892                    20455336.256  
        15.098          11.727          48.000          45.000  
 127307584.439 6  99200789.878 6  24225831.474                    24225848.959  
     -3384.047       -2637.105          38.000          37.000  
 114979119.204 7  89594206.457 6  21879798.568                    21879816.273  
      2763.168        2153.191          47.000          39.000  
 24  1 10  3 22 17.5000000  0  8G08G24G18G23G16G10G15G32
 128404619.485 6 100055632.047 6  24434598.271                    24434620.303  
      2781.840        2167.836          36.000          38.000  
 127980258.83224  99724971.133 6  24353833.358                    24353855.367  
       191.488         148.957          28.000          38.000  
 113148325.724 7  88167590.452 7  21531412.293                    21531427.738  
     -1883.668       -1467.371          42.000          42.000  
 109828393.137 7  85580623.495 7  20899650.136                    20899664.094  
     -1853.137       -1443.977          45.000          44.000  
 128100387.037 5  99818609.280 3  24376700.855    24376725.423                  
     -2317.672       -1806.012          33.000          19.000  
 107493422.216 8  83761176.097 7  20455319.600                    20455335.957  
        15.246          12.109          48.000          45.000  
 127307922.788 6  99201053.554 6  24225895.860                    24225913.351  
     -3383.875       -2636.309          37.000          38.000  
 114978842.878 7  89593991.170 6  21879745.985                    21879763.697  
      2763.258        2153.148          47.000          39.000  
 24  1 10  3 22 17.6000000  0  8G08G24G18G23G16G10G15G32
 128404341.321 6 100055415.267 6  24434545.112                    24434567.449  
      2781.785        2167.465          36.000          37.000  
 127980239.75125  99724956.280 6  24353829.821                    24353851.146  
       191.238         148.762          30.000          38.000  
 113148514.099 7  88167737.226 7  21531448.304                    21531463.566  
     -1883.707       -1467.746          43.000          42.000  
 109828578.479 7  85580767.856 7  20899685.632                    20899698.568  
     -1853.258       -1443.731          45.000          44.000  
 128100618.781 5  99818789.854 3  24376745.517    24376769.560                  
     -2317.562       -1805.816          33.000          19.000  
 107493420.712 8  83761174.921 7  20455319.368                    20455335.553  
        15.082          11.762          48.000          45.000  
 127308261.138 6  99201317.222 6  24225959.839                    24225978.187  
     -3383.754       -2636.797          37.000          38.000  
 114978566.570 7  89593775.858 6  21879693.312                    21879711.577  
      2763.137        2152.977          47.000          39.000  
 24  1 10  3 22 17.7000000  0  8G08G24G18G23G16G10G15G32
 128404063.107 6 100055198.502 6  24434492.169                    24434514.513  
      2781.988        2167.855          36.000          37.000  
 127980220.64125  99724941.386 6  24353826.184                    24353847.509  
       191.020         148.980          30.000          38.000  
 113148702.458 7  88167884.023 7  21531484.148                    21531499.415  
     -1883.793       -1468.109          43.000          42.000  
 109828763.785 7  85580912.297 7  20899720.894                    20899733.842  
     -1853.090       -1444.289          45.000          44.000  
 128100850.510 5  99818970.413 3  24376789.613    24376813.654                  
     -2317.352       -1805.539          32.000          19.000  
 107493419.180 8  83761173.732 7  20455319.077                    20455335.262  
        15.172          11.879          48.000          45.000  
 127308599.560 6  99201580.910 6  24226024.239                    24226042.582  
     -3384.024       -2636.906          37.000          38.000  
 114978290.251 7  89593560.508 6  21879640.730                    21879658.986  
      2763.055        2153.062          47.000          39.000  
 24  1 10  3 22 17.8000000  0  8G08G24G18G23G16G10G15G32
 128403784.897 6 100054981.707 6  24434439.712                    24434461.515  
      2781.941        2168.000          37.000          37.000  
 127980201.579 5  99724926.464 6  24353822.909                    24353843.693  
       190.781         149.156          31.000          37.000  
 113148890.815 7  88168030.804 7  21531519.975                    21531535.253  
     -1883.469       -1467.848          42.000          42.000  
 109828949.109 7  85581056.700 7  20899755.832                    20899769.583  
     -1853.320       -1444.078          45.000          44.000  
 128101082.271 5  99819151.000 3  24376833.724    24376857.763                  
     -2317.500       -1805.766          32.000          19.000  
 107493417.657 8  83761172.546 7  20455318.701                    20455335.145  
        15.223          11.957          48.000          45.000  
 127308938.007 6  99201844.585 6  24226088.448                    24226107.349  
     -3384.312       -2636.773          37.000          38.000  
 114978013.925 7  89593345.234 6  21879588.139                    21879606.563  
      2763.145        2152.957          47.000          39.000  
 24  1 10  3 22 17.9000000  0  8G08G24G18G23G16G10G15G32
 128403506.719 6 100054764.923 6  24434386.777                    24434408.574  
      2781.938        2167.863          37.000          37.000  
 127980182.424 5  99724911.572 6  24353819.264                    24353840.056  
       191.246         149.051          31.000          37.000  
 113149079.204 7  88168177.630 7  21531555.824                    21531571.109  
     -1883.598       -1467.805          42.000          43.000  
 109829134.410 7  85581201.081 7  20899791.094                    20899804.842  
     -1852.996       -1443.953          45.000          44.000  
 128101313.962 5  99819331.524 3  24376877.813    24376901.849                  
     -2317.055       -1805.129          32.000          19.000  
 107493416.118 8  83761171.348 7  20455318.408                    20455334.852  
        15.367          11.996          48.000          45.000  
 127309276.408 6  99202108.256 6  24226152.844                    24226171.740  
     -3384.070       -2636.707          37.000          39.000  
 114977737.633 7  89593129.915 6  21879535.562                    21879553.979  
      2763.066        2152.992          47.000          39.000  
 24  1 10  3 22 18.0000000  0  8G08G24G18G23G16G10G15G32
 128403228.477 6 100054548.163 6  24434334.118                    24434355.631  
      2782.094        2167.531          36.000          37.000  
 127980163.308 5  99724896.656 6  24353815.977                    24353836.054  
       191.078         149.008          32.000          37.000  
 113149267.613 7  88168324.411 7  21531591.818                    21531606.837  
     -1884.137       -1468.242          42.000          43.000  
 109829319.773 7  85581345.526 7  20899826.109                    20899840.953  
     -1853.340       -1444.117          45.000          45.000  
 128101545.718 5  99819512.104 3  24376922.087    24376945.910                  
     -2317.434       -1805.836          31.000          18.000  
 107493414.620 8  83761170.182 7  20455318.138                    20455334.333  
        15.074          11.566          48.000          45.000  
 127309614.797 6  99202371.927 6  24226217.034                    24226235.764  
     -3383.953       -2636.711          38.000          39.000  
 114977461.377 7  89592914.653 6  21879482.789                    21879501.403  
      2762.824        2152.809          47.000          39.000  
 24  1 10  3 22 18.1000000  0  8G08G24G18G23G16G10G15G32
 128402950.324 6 100054331.407 6  24434281.187                    24434302.697  
      2781.926        2167.742          36.000          37.000  
 127980144.177 5  99724881.854 6  24353812.337                    24353832.439  
       191.375         148.348          32.000          37.000  
 113149456.037 7  88168471.240 7  21531627.674                    21531642.694  
     -1884.113       -1468.570          42.000          43.000  
 109829505.045 7  85581489.882 7  20899861.365                    20899876.206  
     -1853.211       -1444.098          44.000          45.000  
 128101777.581 5  99819692.786 3  24376966.209    24376990.034                  
     -2317.988       -1806.555          31.000          18.000  
 107493413.113 8  83761168.992 7  20455317.852                    20455334.042  
        15.059          11.852          48.000          45.000  
 127309953.192 6  99202635.614 6  24226281.428                    24226300.159  
     -3383.926       -2637.059          39.000          38.000  
 114977185.115 7  89592699.386 6  21879430.219                    21879448.832  
      2762.617        2152.598          47.000          39.000  
 24  1 10  3 22 18.2000000  0  8G08G24G18G23G16G10G15G32
 128402672.052 6 100054114.572 6  24434228.202                    24434249.760  
      2782.246        2168.184          36.000          37.000  
 127980125.143 5  99724866.957 6  24353808.559                    24353828.496  
       190.914         148.887          32.000          38.000  
 113149644.442 7  88168618.056 7  21531663.643                    21531679.400  
     -1884.020       -1467.879          43.000          43.000  
 109829690.374 7  85581634.301 7  20899896.187                    20899912.311  
     -1853.105       -1443.852          44.000          45.000  
 128102009.299 5  99819873.360 3  24377010.428    24377034.109                  
     -2317.629       -1805.996          31.000          18.000  
 107493411.576 8  83761167.807 7  20455317.465                    20455333.862  
        15.215          11.832          48.000          45.000  
 127310291.525 6  99202899.298 6  24226346.248                    24226364.538  
     -3383.582       -2636.816          40.000          39.000  
 114976908.852 7  89592484.117 6  21879377.726                    21879396.253  
      2762.738        2152.859          47.000          38.000  
 24  1 10  3 22 18.3000000  0  8G08G24G18G23G16G10G15G32
 128402393.820 6 100053897.780 6  24434175.257                    24434196.817  
      2782.293        2167.867          36.000          37.000  
 127980105.967 5  99724852.026 6  24353804.910                    24353824.850  
       191.266         149.016          32.000          38.000  
 113149832.854 7  88168764.832 7  21531699.497                    21531715.244  
     -1884.051       -1467.684          43.000          43.000  
 109829875.654 7  85581778.682 7  20899931.445                    20899947.570  
     -1852.910       -1443.922          44.000          45.000  
 128102241.062 5  99820053.959 3  24377054.531    24377078.213                  
     -2317.816       -1806.332          30.000          18.000  
 107493410.035 8  83761166.612 7  20455317.172                    20455333.570  
        15.438          12.035          48.000          45.000  
 127310629.896 6  99203162.951 6  24226410.638                    24226428.925  
     -3383.726       -2636.508          40.000          38.000  
 114976632.574 7  89592268.824 6  21879325.152                    21879343.677  
      2762.695        2152.836          47.000          38.000  
 24  1 10  3 22 18.4000000  0  8G08G24G18G23G16G10G15G32
 128402115.643 6 100053680.979 6  24434122.478                    24434143.723  
      2782.051        2168.121          36.000          37.000  
 127980086.874 5  99724837.151 6  24353800.690                    24353822.014  
       191.176         148.980          31.000          38.000  
 113150021.228 7  88168911.615 7  21531735.367                    21531750.887  
     -1883.973       -1468.062          43.000          43.000  
 109830060.929 7  85581923.070 7  20899966.264                    20899982.050  
     -1852.824       -1443.746          44.000          45.000  
 128102472.855 5  99820234.588 3  24377098.828    24377122.332                  
     -2317.680       -1805.996          30.000          18.000  
 107493408.482 8  83761165.396 7  20455317.330                    20455333.500  
        15.379          12.125          48.000          45.000  
 127310968.272 6  99203426.605 6  24226475.779                    24226493.226  
     -3383.746       -2636.734          40.000          38.000  
 114976356.311 7  89592053.600 6  21879272.526                    21879291.171  
      2762.691        2152.641          47.000          38.000  
 24  1 10  3 22 18.5000000  0  8G08G24G18G23G16G10G15G32
 128401837.339 6 100053464.208 6  24434069.518                    24434090.786  
      2782.551        2167.711          36.000          37.000  
 127980067.803 5  99724822.230 6  24353797.061                    24353818.371  
       190.887         149.070          31.000          38.000  
 113150209.564 7  88169058.416 7  21531771.206                    21531786.737  
     -1883.512       -1467.723          43.000          43.000  
 109830246.189 7  85582067.422 7  20900001.518                    20900017.302  
     -1852.723       -1443.691          44.000          45.000  
 128102704.579 5  99820415.153 2  24377142.923    24377166.428                  
     -2317.500       -1805.805          30.000          17.000  
 107493406.930 8  83761164.200 7  20455317.034                    20455333.208  
        15.598          11.965          48.000          45.000  
 127311306.598 6  99203690.261 6  24226540.160                    24226557.613  
     -3383.555       -2636.633          41.000          38.000  
 114976080.034 7  89591838.298 6  21879219.952                    21879238.593  
      2762.770        2152.812          47.000          38.000  
 24  1 10  3 22 18.6000000  0  8G08G24G18G23G16G10G15G32
 128401559.164 6 100053247.370 6  24434016.489                    24434037.785  
      2782.125        2168.254          37.000          37.000  
 127980048.742 5  99724807.391 6  24353792.879                    24353814.731  
       190.793         148.695          31.000          38.000  
 113150397.923 7  88169205.186 7  21531806.807                    21531822.658  
     -1883.648       -1467.938          43.000          43.000  
 109830431.449 7  85582211.797 7  20900037.357                    20900052.544  
     -1852.570       -1443.656          45.000          45.000  
 128102936.424 5  99820595.814 2  24377187.112    24377210.516                  
     -2317.992       -1806.527          30.000          17.000  
 107493405.387 8  83761162.981 7  20455316.538                    20455332.559  
        15.426          12.168          48.000          45.000  
 127311644.944 6  99203953.906 6  24226604.842                    24226622.022  
     -3383.473       -2636.551          40.000          38.000  
 114975803.778 7  89591623.039 6  21879167.523                    21879186.094  
      2762.598        2152.738          47.000          38.000  
 24  1 10  3 22 18.7000000  0  8G08G24G18G23G16G10G15G32
 128401280.886 6 100053030.598 6  24433963.535                    24433984.847  
      2782.426        2167.988          37.000          37.000  
 127980029.551 5  99724792.449 6  24353789.227                    24353811.082  
       191.328         149.102          31.000          38.000  
 113150586.348 7  88169352.008 7  21531842.663                    21531858.514  
     -1883.906       -1467.973          43.000          43.000  
 109830616.757 7  85582356.177 7  20900072.620                    20900087.803  
     -1852.879       -1443.531          44.000          45.000  
 128103168.182 5  99820776.401 2  24377231.214    24377254.617                  
     -2317.879       -1806.176          30.000          17.000  
 107493403.861 8  83761161.795 7  20455316.247                    20455332.269  
        15.371          11.965          48.000          45.000  
 127311983.279 6  99204217.550 6  24226669.225                    24226686.406  
     -3383.383       -2636.105          40.000          37.000  
 114975527.547 7  89591407.787 6  21879114.958                    21879133.528  
      2762.488        2152.246          47.000          38.000  
 24  1 10  3 22 18.8000000  0  8G08G24G18G23G16G10G15G32
 128401002.745 6 100052813.813 6  24433910.505                    24433931.726  
      2781.578        2167.945          37.000          37.000  
 127980010.546 5  99724777.643 6  24353785.095                    24353807.177  
       190.262         148.184          31.000          38.000  
 113150774.780 7  88169498.797 7  21531878.372                    21531894.158  
     -1884.293       -1468.172          42.000          43.000  
 109830802.051 7  85582500.536 7  20900107.451                    20900123.221  
     -1853.129       -1444.016          44.000          45.000  
 128103400.010 5  99820957.037 2  24377275.705    24377298.707                  
     -2318.055       -1806.219          30.000          17.000  
 107493402.389 8  83761160.637 7  20455315.280                    20455332.299  
        14.766          11.488          48.000          45.000  
 127312321.620 6  99204481.195 6  24226733.547                    24226750.783  
     -3383.246       -2636.535          40.000          38.000  
 114975251.386 7  89591192.599 6  21879062.344                    21879081.187  
      2761.562        2152.246          47.000          38.000  
 24  1 10  3 22 18.9000000  0  8G08G24G18G23G16G10G15G32
 128400724.568 6 100052597.065 6  24433857.570                    24433878.794  
      2781.793        2167.648          36.000          37.000  
 127979991.433 5  99724762.756 6  24353781.458                    24353803.542  
       191.434         148.730          32.000          38.000  
 113150963.206 7  88169645.672 7  21531914.229                    21531930.026  
     -1884.055       -1468.531          43.000          43.000  
 109830987.382 7  85582644.967 7  20900142.718                    20900158.493  
     -1853.371       -1444.035          44.000          45.000  
 128103631.909 4  99821137.713 2  24377319.834    24377342.830                  
     -2319.133       -1806.918          28.000          17.000  
 107493400.936 8  83761159.524 7  20455315.003                    20455332.027  
        14.359          11.203          48.000          45.000  
 127312660.048 6  99204744.926 6  24226797.948                    24226815.189  
     -3384.504       -2637.074          39.000          38.000  
 114974975.217 7  89590977.372 6  21879009.791                    21879028.627  
      2761.488        2151.426          47.000          38.000  
 24  1 10  3 22 19.0000000  0  8G08G24G18G23G16G10G15G32
 128400446.402 6 100052380.312 6  24433804.050                    24433825.689  
      2781.766        2167.793          36.000          37.000  
 127979972.410 5  99724747.907 6  24353778.026                    24353799.822  
       190.484         148.434          31.000          38.000  
 113151151.659 7  88169792.504 7  21531950.270                    21531965.743  
     -1884.285       -1468.258          43.000          43.000  
 109831172.676 7  85582789.352 7  20900178.080                    20900193.745  
     -1853.051       -1444.109          45.000          45.000  
 128103863.794 4  99821318.378 2  24377363.725    24377386.919                  
     -2318.664       -1806.594          28.000          17.000  
 107493399.493 8  83761158.379 7  20455314.658                    20455331.177  
        14.566          11.273          48.000          45.000  
 127312998.387 6  99205008.519 6  24226862.050                    24226879.311  
     -3383.664       -2636.227          38.000          38.000  
 114974699.076 7  89590762.253 6  21878957.016                    21878975.577  
      2761.602        2151.629          47.000          38.000  
 24  1 10  3 22 19.1000000  0  8G08G24G18G23G16G10G15G32
 128400168.190 6 100052163.543 6  24433751.109                    24433772.751  
      2782.090        2167.684          36.000          37.000  
 127979953.276 5  99724733.026 6  24353774.385                    24353796.188  
       191.246         148.902          31.000          38.000  
 113151340.052 7  88169939.255 7  21531986.120                    21532001.582  
     -1884.457       -1468.262          43.000          43.000  
 109831358.007 7  85582933.784 7  20900213.347                    20900229.017  
     -1853.129       -1444.078          45.000          45.000  
 128104095.700 4  99821499.074 2  24377407.856    24377431.046                  
     -2318.883       -1806.922          27.000          17.000  
 107493398.049 8  83761157.271 7  20455314.384                    20455330.906  
        14.516          11.133          48.000          45.000  
 127313336.758 6  99205272.138 6  24226926.440                    24226943.689  
     -3383.598       -2636.266          37.000          37.000  
 114974422.949 7  89590547.052 6  21878904.471                    21878923.023  
      2761.477        2151.949          47.000          38.000  
 24  1 10  3 22 19.2000000  0  8G08G24G18G23G16G10G15G32
 128399890.000 6 100051946.756 6  24433697.749                    24433720.154  
      2781.969        2167.805          36.000          37.000  
 127979934.128 5  99724718.063 6  24353770.905                    24353792.659  
       191.230         149.422          32.000          38.000  
 113151528.501 7  88170086.148 7  21532021.863                    21532037.571  
     -1884.246       -1468.477          43.000          43.000  
 109831543.336 7  85583078.183 7  20900249.138                    20900264.086  
     -1853.188       -1443.859          45.000          45.000  
 128104327.594 4  99821679.764 2  24377452.226    24377475.219                  
     -2318.945       -1806.945          26.000          17.000  
 107493396.603 8  83761156.138 7  20455314.522                    20455331.153  
        14.488          11.359          48.000          45.000  
 127313675.001 6  99205535.745 6  24226990.321                    24227007.588  
     -3383.051       -2635.969          37.000          37.000  
 114974146.818 7  89590331.902 6  21878852.198                    21878870.692  
      2761.328        2151.781          47.000          38.000  
 24  1 10  3 22 19.3000000  0  8G08G24G18G23G16G10G15G32
 128399611.867 6 100051730.024 6  24433644.822                    24433667.226  
      2781.656        2167.504          36.000          37.000  
 127979915.013 5  99724703.192 6  24353767.268                    24353789.027  
       191.262         148.746          33.000          38.000  
 113151716.907 7  88170232.966 7  21532057.716                    21532073.426  
     -1884.164       -1468.195          42.000          43.000  
 109831728.635 7  85583222.545 7  20900284.399                    20900299.340  
     -1853.121       -1443.891          45.000          45.000  
 128104559.97934  99821860.96632  24377496.346    24377519.330                  
     -2318.488       -1806.328          25.000          17.000  
 107493395.162 8  83761155.008 7  20455314.248                    20455330.877  
        14.375          11.105          48.000          45.000  
 127314013.294 6  99205799.376 6  24227054.696                    24227071.970  
     -3383.027       -2636.156          38.000          37.000  
 114973870.691 7  89590116.746 6  21878799.653                    21878818.148  
      2761.281        2151.418          47.000          38.000  
 24  1 10  3 22 19.4000000  0  8G08G24G18G23G16G10G15G32
 128399333.682 6 100051513.272 6  24433591.979                    24433614.371  
      2781.699        2167.305          36.000          37.000  
 127979895.872 5  99724688.314 6  24353763.977                    24353785.284  
       191.320         149.016          33.000          38.000  
 113151905.334 7  88170379.743 7  21532092.908                    21532109.028  
     -1884.297       -1468.086          43.000          43.000  
 109831913.948 7  85583366.976 7  20900319.592                    20900334.119  
     -1853.043       -1444.106          44.000          45.000  
 128104791.90134  99822041.69632  24377540.510    24377563.545                  
     -2319.336       -1807.820          25.000          17.000  
 107493393.712 8  83761153.888 7  20455314.019                    20455330.307  
        14.465          11.121          48.000          45.000  
 127314351.577 6  99206063.006 6  24227119.022                    24227136.507  
     -3382.961       -2636.145          39.000          37.000  
 114973594.555 7  89589901.569 6  21878746.801                    21878765.889  
      2761.418        2151.602          47.000          39.000  
 24  1 10  3 22 19.5000000  0  8G08G24G18G23G16G10G15G32
 128399055.533 6 100051296.505 6  24433539.049                    24433561.434  
      2781.598        2167.586          36.000          37.000  
 127979876.780 5  99724673.389 6  24353760.344                    24353781.639  
       191.117         149.121          32.000          39.000  
 113152093.686 7  88170526.553 7  21532128.750                    21532144.881  
     -1883.852       -1468.008          43.000          42.000  
 109832099.190 7  85583511.320 7  20900354.843                    20900369.370  
     -1852.699       -1443.691          44.000          45.000  
 128105023.79134  99822222.39032  24377584.630    24377607.656                  
     -2318.617       -1806.344          26.000          17.000  
 107493392.240 8  83761152.747 7  20455313.739                    20455330.028  
        14.668          11.449          48.000          45.000  
 127314689.903 6  99206326.586 6  24227183.404                    24227200.876  
     -3383.058       -2636.008          39.000          37.000  
 114973318.380 7  89589686.373 6  21878694.247                    21878713.336  
      2761.551        2152.207          47.000          39.000  
 24  1 10  3 22 19.6000000  0  8G08G24G18G23G16G10G15G32
 128398777.364 6 100051079.772 6  24433486.154                    24433508.404  
      2781.641        2167.301          36.000          37.000  
 127979857.626 5  99724658.505 6  24353756.777                    24353778.426  
       191.457         148.766          31.000          39.000  
 113152282.119 7  88170673.399 7  21532165.366                    21532179.961  
     -1883.840       -1467.805          44.000          42.000  
 109832284.481 7  85583655.692 7  20900389.962                    20900404.596  
     -1852.746       -1443.410          44.000          45.000  
 128105255.61034  99822403.02832  24377628.829    24377651.832                  
     -2319.047       -1807.426          26.000          17.000  
 107493390.765 8  83761151.598 7  20455313.419                    20455329.943  
        14.746          11.605          48.000          45.000  
 127315028.235 6  99206590.229 6  24227248.122                    24227265.940  
     -3383.203       -2636.461          39.000          37.000  
 114973042.198 7  89589471.140 6  21878641.668                    21878660.657  
      2761.727        2152.129          47.000          39.000  
 24  1 10  3 22 19.7000000  0  8G08G24G18G23G16G10G15G32
 128398499.205 6 100050863.043 6  24433433.222                    24433455.476  
      2781.574        2167.117          36.000          37.000  
 127979838.469 5  99724643.612 6  24353753.131                    24353774.789  
       191.262         149.035          31.000          39.000  
 113152470.477 7  88170820.074 7  21532201.209                    21532215.780  
     -1884.078       -1467.625          44.000          42.000  
 109832469.736 7  85583800.015 7  20900425.215                    20900439.841  
     -1852.797       -1443.613          44.000          45.000  
 128105487.58324  99822583.80422  24377672.972    24377695.980                  
     -2319.340       -1807.770          26.000          17.000  
 107493389.259 8  83761150.425 7  20455313.133                    20455329.656  
        14.922          11.660          48.000          45.000  
 127315366.592 6  99206853.908 6  24227312.509                    24227330.333  
     -3383.457       -2636.707          39.000          38.000  
 114972766.000 7  89589255.954 6  21878589.109                    21878608.106  
      2762.012        2152.125          47.000          39.000  
 24  1 10  3 22 19.8000000  0  8G08G24G18G23G16G10G15G32
 128398221.030 6 100050646.304 6  24433380.522                    24433402.414  
      2781.621        2167.488          37.000          37.000  
 127979819.55235  99724628.754 6  24353749.610                    24353771.911  
       190.605         148.707          30.000          39.000  
 113152658.837 7  88170966.911 7  21532238.076                    21532251.483  
     -1883.645       -1468.074          44.000          42.000  
 109832654.971 7  85583944.429 7  20900460.519                    20900475.343  
     -1852.496       -1443.852          44.000          45.000  
 128105719.33534  99822764.40732  24377716.925    24377740.054                  
     -2318.305       -1806.289          25.000          17.000  
 107493387.762 8  83761149.257 7  20455312.981                    20455329.363  
        15.000          11.809          48.000          45.000  
 127315704.994 6  99207117.497 6  24227376.835                    24227395.173  
     -3383.586       -2636.156          39.000          38.000  
 114972489.769 7  89589040.697 6  21878536.685                    21878555.304  
      2762.219        2152.391          47.000          39.000  
 24  1 10  3 22 19.9000000  0  8G08G24G18G23G16G10G15G32
 128397942.945 6 100050429.550 6  24433327.604                    24433349.480  
      2781.258        2167.281          37.000          37.000  
 127979800.34624  99724613.906 6  24353745.955                    24353768.285  
       191.301         148.629          29.000          39.000  
 113152847.195 7  88171113.741 7  21532273.919                    21532287.341  
     -1883.480       -1467.953          43.000          42.000  
 109832840.253 7  85584088.765 7  20900495.776                    20900510.591  
     -1852.613       -1443.481          45.000          44.000  
 128105951.39634  99822945.28732  24377761.061    24377784.203                  
     -2319.316       -1807.949          26.000          16.000  
 107493386.240 8  83761148.068 7  20455312.691                    20455329.073  
        15.082          11.852          48.000          45.000  
 127316043.377 6  99207381.181 6  24227441.227                    24227459.567  
     -3383.758       -2636.801          38.000          37.000  
 114972213.520 7  89588825.455 6  21878484.116                    21878502.740  
      2762.305        2152.672          47.000          39.000  
 24  1 10  3 22 20.0000000  0  8G08G24G18G23G16G10G15G32
 128397664.829 6 100050212.879 6  24433274.774                    24433296.489  
      2781.227        2166.820          37.000          36.000  
 127979781.32434  99724599.048 6  24353741.866                    24353764.516  
       190.258         148.504          28.000          39.000  
 113153035.623 7  88171260.522 7  21532309.378                    21532323.397  
     -1883.969       -1467.762          43.000          42.000  
 109833025.560 7  85584233.184 7  20900531.367                    20900545.484  
     -1852.891       -1444.133          44.000          44.000  
 128106183.11724  99823125.90722  24377804.953    24377828.258                  
     -2318.223       -1806.559          26.000          16.000  
 107493384.754 8  83761146.921 7  20455312.588                    20455328.707  
        14.945          11.535          48.000          45.000  
 127316381.729 6  99207644.862 6  24227505.363                    24227523.578  
     -3383.812       -2637.031          37.000          37.000  
 114971937.276 7  89588610.177 6  21878431.471                    21878450.268  
      2762.418        2152.816          47.000          39.000  
 24  1 10  3 22 20.1000000  0  8G08G24G18G23G16G10G15G32
 128397386.697 6 100049996.088 6  24433221.847                    24433243.546  
      2781.277        2167.648          36.000          36.000  
 127979762.19234  99724584.182 6  24353738.218                    24353760.885  
       191.410         148.699          27.000          39.000  
 113153223.962 7  88171407.229 7  21532345.217                    21532359.224  
     -1883.867       -1467.898          43.000          42.000  
 109833210.831 7  85584377.552 7  20900566.623                    20900580.741  
     -1852.859       -1443.723          45.000          44.000  
 128106414.88624  99823306.47922  24377849.057    24377872.355                  
     -2318.051       -1806.012          27.000          16.000  
 107493383.229 8  83761145.736 7  20455312.298                    20455328.418  
        15.086          11.918          48.000          45.000  
 127316720.165 6  99207908.542 6  24227569.765                    24227587.972  
     -3383.918       -2636.805          37.000          37.000  
 114971660.992 7  89588394.883 6  21878378.896                    21878397.691  
      2762.582        2152.848          47.000          39.000  
 24  1 10  3 22 20.2000000  0  8G08G24G18G23G16G10G15G32
 128397108.619 6 100049779.403 6  24433169.063                    24433190.622  
      2780.992        2166.898          36.000          36.000  
 127979743.20124  99724569.437 6  24353734.448                    24353757.644  
       190.332         147.625          26.000          39.000  
 113153412.394 7  88171554.112 7  21532380.668                    21532395.415  
     -1883.910       -1468.125          43.000          42.000  
 109833396.181 7  85584521.972 7  20900601.730                    20900616.463  
     -1853.086       -1444.078          44.000          44.000  
 128106646.67624  99823487.06022  24377892.798    24377916.447                  
     -2318.066       -1806.016          28.000          16.000  
 107493381.726 8  83761144.543 7  20455312.082                    20455327.720  
        15.160          11.781          48.000          45.000  
 127317058.562 6  99208172.311 6  24227634.746                    24227652.363  
     -3384.106       -2637.664          36.000          38.000  
 114971384.714 7  89588179.619 6  21878326.486                    21878344.981  
      2762.699        2152.750          47.000          39.000  
 24  1 10  3 22 20.3000000  0  8G08G24G18G23G16G10G15G32
 128396830.512 6 100049562.777 6  24433116.141                    24433137.720  
      2781.023        2166.531          37.000          37.000  
 127979724.36624  99724554.635 6  24353730.864                    24353754.029  
       189.527         147.711          28.000          39.000  
 113153600.853 7  88171700.961 7  21532416.531                    21532431.277  
     -1884.418       -1468.578          44.000          42.000  
 109833581.516 7  85584666.366 7  20900636.998                    20900651.725  
     -1853.410       -1444.238          44.000          44.000  
 128106878.56224  99823667.74222  24377936.925    24377960.571                  
     -2318.379       -1806.508          27.000          16.000  
 107493380.225 8  83761143.391 7  20455311.796                    20455327.439  
        14.961          11.535          48.000          45.000  
 127317396.984 6  99208436.053 6  24227699.146                    24227716.772  
     -3384.320       -2637.496          36.000          38.000  
 114971108.435 7  89587964.342 6  21878273.912                    21878292.408  
      2762.711        2152.555          47.000          39.000  
 24  1 10  3 22 20.4000000  0  8G08G24G18G23G16G10G15G32
 128396552.433 6 100049346.070 6  24433062.951                    24433084.930  
      2780.938        2167.121          37.000          37.000  
 127979705.38524  99724539.847 6  24353727.838                    24353750.511  
       189.695         147.961          28.000          38.000  
 113153789.201 7  88171847.715 7  21532452.896                    21532466.889  
     -1884.051       -1468.141          43.000          42.000  
 109833766.859 7  85584810.791 7  20900672.213                    20900686.784  
     -1853.309       -1444.082          44.000          44.000  
 128107110.41524  99823848.40022  24377980.865    24378004.706                  
     -2318.340       -1806.367          26.000          16.000  
 107493378.740 8  83761142.216 7  20455311.162                    20455326.894  
        14.926          11.801          48.000          45.000  
 127317735.536 6  99208699.868 6  24227763.351                    24227781.612  
     -3384.902       -2637.898          36.000          38.000  
 114970832.157 7  89587749.049 6  21878221.385                    21878240.073  
      2762.758        2153.062          47.000          39.000  
 24  1 10  3 22 20.5000000  0  8G08G24G18G23G16G10G15G32
 128396274.378 6 100049129.354 6  24433010.039                    24433032.006  
      2780.773        2166.840          37.000          37.000  
 127979686.47924  99724525.127 6  24353724.240                    24353746.916  
       189.348         147.289          28.000          38.000  
 113153977.697 7  88171994.635 7  21532488.766                    21532502.768  
     -1884.348       -1468.484          42.000          42.000  
 109833952.192 7  85584955.209 7  20900707.481                    20900722.052  
     -1853.355       -1444.285          44.000          45.000  
 128107342.12724  99824028.94022  24378024.958    24378048.795                  
     -2317.844       -1805.816          26.000          16.000  
 107493377.237 8  83761141.065 7  20455310.876                    20455326.613  
        15.000          11.598          48.000          45.000  
 127318074.029 6  99208963.596 6  24227827.764                    24227846.017  
     -3384.938       -2637.516          37.000          38.000  
 114970555.876 7  89587533.754 6  21878168.810                    21878187.496  
      2762.797        2152.824          47.000          39.000  
 24  1 10  3 22 20.6000000  0  8G08G24G18G23G16G10G15G32
 128395996.270 6 100048912.670 6  24432957.039                    24432979.160  
      2780.828        2167.012          37.000          37.000  
 127979667.40324  99724510.391 6  24353721.212                    24353742.583  
       190.234         147.555          28.000          38.000  
 113154166.151 7  88172141.442 7  21532524.518                    21532538.933  
     -1884.621       -1468.609          43.000          43.000  
 109834137.548 7  85585099.639 7  20900742.761                    20900757.785  
     -1853.508       -1444.289          45.000          45.000  
 128107573.87224  99824209.50422  24378069.105    24378092.969                  
     -2317.438       -1805.316          26.000          15.000  
 107493375.770 8  83761139.888 7  20455310.519                    20455326.489  
        14.879          11.699          48.000          45.000  
 127318412.573 6  99209227.367 6  24227892.367                    24227910.917  
     -3385.020       -2637.590          37.000          38.000  
 114970279.623 7  89587318.507 6  21878116.280                    21878135.251  
      2762.781        2152.863          47.000          39.000  
 24  1 10  3 22 20.7000000  0  8G08G24G18G23G16G10G15G32
 128395718.205 6 100048695.989 6  24432904.125                    24432926.244  
      2780.758        2166.797          37.000          36.000  
 127979648.56224  99724495.598 6  24353717.626                    24353738.971  
       189.238         147.645          28.000          37.000  
 113154354.649 7  88172288.351 7  21532560.388                    21532574.809  
     -1884.598       -1468.609          43.000          43.000  
 109834322.919 7  85585244.086 7  20900778.036                    20900793.060  
     -1853.617       -1444.508          45.000          45.000  
 128107805.63124  99824390.14722  24378113.207    24378137.084                  
     -2317.668       -1806.516          26.000          15.000  
 107493374.291 8  83761138.765 7  20455310.238                    20455326.215  
        14.738          11.246          48.000          45.000  
 127318751.000 6  99209491.119 6  24227956.767                    24227975.328  
     -3384.766       -2637.680          37.000          38.000  
 114970003.340 7  89587103.240 6  21878063.705                    21878082.680  
      2762.691        2152.574          47.000          39.000  
 24  1 10  3 22 20.8000000  0  8G08G24G18G23G16G10G15G32
 128395440.132 6 100048479.294 6  24432850.850                    24432873.473  
      2780.711        2166.855          37.000          36.000  
 127979629.60724  99724480.883 6  24353714.011                    24353734.815  
       189.305         147.086          29.000          37.000  
 113154543.172 7  88172435.190 7  21532596.012                    21532610.677  
     -1885.020       -1468.656          43.000          43.000  
 109834508.337 7  85585388.565 7  20900813.562                    20900828.304  
     -1853.812       -1444.617          45.000          45.000  
 128108037.42024  99824570.82922  24378157.198    24378181.138                  
     -2317.617       -1806.477          25.000          15.000  
 107493372.829 8  83761137.619 7  20455310.201                    20455325.842  
        14.727          11.305          48.000          45.000  
 127319089.559 6  99209754.924 6  24228020.998                    24228039.611  
     -3385.207       -2637.934          37.000          38.000  
 114969727.074 7  89586887.950 6  21878011.094                    21878029.995  
      2762.605        2152.430          47.000          39.000  
 24  1 10  3 22 20.9000000  0  8G08G24G18G23G16G10G15G32
 128395162.071 6 100048262.660 6  24432797.937                    24432820.569  
      2780.773        2166.531          37.000          36.000  
 127979610.75225  99724466.157 6  24353710.423                    24353731.219  
       188.809         147.785          30.000          37.000  
 113154731.628 7  88172582.085 7  21532631.874                    21532646.550  
     -1884.773       -1468.754          43.000          43.000  
 109834693.693 7  85585533.013 7  20900848.834                    20900863.580  
     -1853.793       -1444.633          44.000          45.000  
 128108269.33734  99824751.54732  24378201.322    24378225.287                  
     -2318.883       -1807.770          24.000          15.000  
 107493371.371 8  83761136.480 7  20455309.924                    20455325.563  
        14.594          11.395          48.000          45.000  
 127319428.049 6  99210018.731 6  24228085.410                    24228104.036  
     -3385.004       -2637.727          37.000          39.000  
 114969450.826 7  89586672.664 6  21877958.526                    21877977.420  
      2762.613        2152.836          47.000          39.000  
 24  1 10  3 22 21.0000000  0  7G08G24G18G23G10G32G15
 128394883.953 6 100048045.944 6  24432745.513                    24432768.129  
      2780.930        2167.137          37.000          36.000  
 127979591.85225  99724451.346 6  24353707.233                    24353726.906  
       189.016         147.965          31.000          37.000  
 113154920.061 7  88172728.911 7  21532668.216                    21532682.602  
     -1884.461       -1468.250          43.000          42.000  
 109834879.033 7  85585677.417 7  20900883.822                    20900898.650  
     -1853.523       -1444.266          44.000          45.000  
 107493369.885 8  83761135.334 7  20455309.493                    20455325.526  
        14.777          11.680          48.000          45.000  
 114969174.557 7  89586457.420 6  21877905.766                    21877925.043  
      2762.723        2152.578          47.000          39.000  
 127319766.571 6  99210282.437 6  24228149.868                    24228168.631  
     -3385.062       -2637.582          37.000          39.000  
 24  1 10  3 22 21.1000000  0  7G08G24G18G23G10G32G15
 128394605.856 6 100047829.254 6  24432692.592                    24432715.211  
      2780.875        2167.023          37.000          36.000  
 127979572.86425  99724436.562 6  24353703.620                    24353723.296  
       189.180         147.527          31.000          37.000  
 113155108.543 7  88172875.766 7  21532704.083                    21532718.465  
     -1884.594       -1468.418          43.000          42.000  
 109835064.409 7  85585821.865 7  20900919.098                    20900933.925  
     -1853.574       -1444.391          44.000          45.000  
 107493368.437 8  83761134.197 7  20455309.217                    20455325.248  
        14.742          11.281          48.000          45.000  
 114968898.290 7  89586242.123 6  21877853.194                    21877872.465  
      2762.602        2152.820          47.000          39.000  
 127320105.053 6  99210546.172 6  24228214.279                    24228233.037  
     -3384.906       -2637.262          38.000          39.000  
 24  1 10  3 22 21.2000000  0  7G08G24G18G23G10G32G15
 128394327.829 6 100047612.587 6  24432639.936                    24432662.674  
      2780.613        2166.594          37.000          36.000  
 127979553.98825  99724421.866 6  24353700.153                    24353719.176  
       189.391         147.273          32.000          37.000  
 113155297.031 7  88173022.621 7  21532739.475                    21532753.743  
     -1884.891       -1468.805          43.000          42.000  
 109835249.794 7  85585966.352 7  20900954.524                    20900969.000  
     -1853.727       -1444.793          45.000          45.000  
 107493367.013 8  83761133.068 7  20455309.142                    20455325.254  
        14.324          11.203          48.000          45.000  
 114968622.072 7  89586026.903 6  21877800.624                    21877819.843  
      2762.273        2152.453          47.000          39.000  
 127320443.543 6  99210809.944 6  24228278.863                    24228297.078  
     -3384.984       -2637.871          38.000          39.000  
 24  1 10  3 22 21.3000000  0  7G08G24G18G23G10G32G15
 128394049.808 6 100047395.938 6  24432587.030                    24432609.766  
      2780.430        2166.406          37.000          36.000  
 127979534.98825  99724407.106 6  24353696.537                    24353715.571  
       189.453         147.488          31.000          37.000  
 113155485.508 7  88173169.468 7  21532775.341                    21532789.604  
     -1884.949       -1468.805          43.000          42.000  
 109835435.156 7  85586110.768 7  20900989.797                    20901004.268  
     -1853.754       -1444.367          45.000          45.000  
 107493365.573 8  83761131.949 7  20455308.868                    20455324.980  
        14.266          10.973          48.000          45.000  
 114968345.885 7  89585811.691 6  21877748.067                    21877767.287  
      2762.195        2152.176          47.000          39.000  
 127320782.048 6  99211073.711 6  24228343.279                    24228361.493  
     -3384.965       -2637.457          39.000          38.000  
 24  1 10  3 22 21.4000000  0  7G08G24G18G23G10G32G15
 128393771.724 6 100047179.294 6  24432534.409                    24432556.328  
      2780.590        2166.730          36.000          36.000  
 127979516.09125  99724392.340 6  24353692.699                    24353711.512  
       189.137         147.473          31.000          37.000  
 113155673.966 7  88173316.361 7  21532811.078                    21532825.422  
     -1884.652       -1468.840          43.000          42.000  
 109835620.557 7  85586255.230 7  20901025.109                    20901039.781  
     -1853.801       -1444.484          45.000          45.000  
 107493364.147 8  83761130.857 7  20455308.706                    20455324.917  
        14.332          11.027          48.000          45.000  
 114968069.674 7  89585596.509 6  21877695.444                    21877714.784  
      2762.113        2151.980          47.000          39.000  
 127321120.499 6  99211337.456 6  24228407.730                    24228425.316  
     -3384.766       -2637.359          38.000          38.000  
 24  1 10  3 22 21.5000000  0  7G08G24G18G23G10G32G15
 128393493.671 6 100046962.624 6  24432481.497                    24432503.415  
      2780.668        2166.539          36.000          37.000  
 127979497.08625  99724377.584 6  24353689.082                    24353707.908  
       189.699         147.758          31.000          38.000  
 113155862.418 7  88173463.239 7  21532846.939                    21532861.292  
     -1884.535       -1468.371          43.000          42.000  
 109835805.897 7  85586399.635 7  20901060.378                    20901075.046  
     -1853.684       -1444.160          45.000          45.000  
 107493362.688 8  83761129.723 7  20455308.428                    20455324.640  
        14.531          11.539          48.000          45.000  
 114967793.440 7  89585381.212 6  21877642.878                    21877662.206  
      2762.258        2152.848          47.000          39.000  
 127321458.985 6  99211601.173 6  24228472.142                    24228489.718  
     -3384.762       -2637.031          38.000          38.000  
 24  1 10  3 22 21.6000000  0  7G08G24G18G23G10G32G15
 128393215.570 6 100046745.918 6  24432428.381                    24432450.329  
      2780.777        2166.910          36.000          36.000  
 127979478.11625  99724362.779 6  24353685.074                    24353704.582  
       189.641         147.727          31.000          38.000  
 113156050.867 7  88173610.011 7  21532883.128                    21532897.447  
     -1884.473       -1468.008          43.000          43.000  
 109835991.180 7  85586544.022 7  20901095.808                    20901110.166  
     -1853.129       -1443.934          44.000          45.000  
 107493361.213 8  83761128.553 7  20455307.936                    20455324.010  
        14.715          11.625          48.000          45.000  
 114967517.204 7  89585165.955 6  21877590.273                    21877609.185  
      2762.328        2152.434          47.000          39.000  
 127321797.388 6  99211864.898 6  24228536.218                    24228553.881  
     -3384.406       -2637.227          39.000          38.000  
 24  1 10  3 22 21.7000000  0  7G08G24G18G23G10G32G15
 128392937.524 6 100046529.258 6  24432375.471                    24432397.419  
      2780.691        2166.703          37.000          36.000  
 127979459.23925  99724348.001 6  24353681.482                    24353700.973  
       189.348         147.879          32.000          38.000  
 113156239.244 7  88173756.822 7  21532918.975                    21532933.300  
     -1884.219       -1468.266          43.000          43.000  
 109836176.463 7  85586688.394 7  20901131.066                    20901145.423  
     -1853.027       -1443.664          44.000          45.000  
 107493359.692 8  83761127.386 7  20455307.647                    20455323.725  
        14.949          11.672          48.000          45.000  
 114967240.953 7  89584950.695 6  21877537.704                    21877556.616  
      2762.426        2152.664          47.000          39.000  
 127322135.887 6  99212128.652 6  24228600.632                    24228618.292  
     -3384.750       -2637.266          39.000          38.000  
 24  1 10  3 22 21.8000000  0  7G08G24G18G23G10G32G15
 128392659.417 6 100046312.571 6  24432322.611                    24432344.384  
      2780.832        2166.867          36.000          37.000  
 127979440.18825  99724333.194 6  24353677.474                    24353698.060  
       189.828         147.914          32.000          38.000  
 113156427.618 7  88173903.624 7  21532954.407                    21532969.268  
     -1883.738       -1468.012          43.000          43.000  
 109836361.728 7  85586832.757 7  20901166.071                    20901180.366  
     -1852.648       -1443.531          44.000          44.000  
 107493358.168 8  83761126.197 7  20455307.146                    20455323.357  
        15.227          11.996          48.000          45.000  
 114966964.697 7  89584735.435 6  21877485.127                    21877504.071  
      2762.609        2152.871          47.000          39.000  
 127322474.324 6  99212392.307 6  24228665.566                    24228682.929  
     -3384.500       -2636.953          40.000          38.000  
 24  1 10  3 22 21.9000000  0  7G08G24G18G23G10G32G15
 128392381.353 6 100046095.902 6  24432269.698                    24432291.472  
      2780.648        2166.375          36.000          37.000  
 127979421.30825  99724318.404 6  24353673.881                    24353694.448  
       189.234         147.973          31.000          38.000  
 113156616.086 7  88174050.498 7  21532990.272                    21533005.136  
     -1884.230       -1468.266          43.000          43.000  
 109836547.029 7  85586977.145 7  20901201.332                    20901215.627  
     -1852.992       -1443.902          45.000          44.000  
 107493356.669 8  83761125.014 7  20455306.861                    20455323.068  
        15.023          11.598          48.000          45.000  
 114966688.483 7  89584520.222 6  21877432.565                    21877451.514  
      2762.301        2152.074          47.000          39.000  
 127322812.792 6  99212655.991 6  24228729.974                    24228747.324  
     -3384.684       -2637.039          40.000          38.000  
 24  1 10  3 22 22.0000000  0  7G08G24G18G23G10G32G15
 128392103.324 6 100045879.267 6  24432216.697                    24432238.356  
      2780.609        2166.863          36.000          37.000  
 127979402.30525  99724303.659 6  24353670.132                    24353691.176  
       189.602         147.730          31.000          38.000  
 113156804.468 7  88174197.256 7  21533025.893                    21533041.609  
     -1884.148       -1467.930          43.000          42.000  
 109836732.306 7  85587121.528 7  20901237.183                    20901250.926  
     -1852.875       -1443.824          45.000          44.000  
 107493355.155 8  83761123.841 7  20455306.370                    20455322.953  
        15.047          11.727          48.000          45.000  
 114966412.253 7  89584304.976 6  21877380.180                    21877399.058  
      2762.203        2152.555          47.000          39.000  
 127323151.260 6  99212919.749 6  24228795.289                    24228812.033  
     -3384.504       -2637.195          39.000          38.000  
 24  1 10  3 22 22.1000000  0  7G08G24G18G23G10G32G15
 128391825.246 6 100045662.510 6  24432163.780                    24432185.422  
      2780.648        2167.172          36.000          37.000  
 127979383.30125  99724288.870 6  24353666.516                    24353687.564  
       189.711         147.793          32.000          38.000  
 113156992.870 7  88174344.078 7  21533061.745                    21533077.464  
     -1884.059       -1468.273          43.000          43.000  
 109836917.577 7  85587265.855 7  20901272.439                    20901286.172  
     -1852.727       -1443.617          45.000          44.000  
 107493353.670 8  83761122.674 7  20455306.087                    20455322.668  
        14.973          11.609          48.000          45.000  
 114966136.069 7  89584089.762 6  21877327.624                    21877346.500  
      2762.082        2152.223          47.000          39.000  
 127323489.594 6  99213183.435 6  24228859.671                    24228876.428  
     -3384.000       -2637.035          39.000          39.000  
 24  1 10  3 22 22.2000000  0  7G08G24G18G23G10G32G15
 128391547.156 6 100045445.876 6  24432110.815                    24432132.736  
      2780.801        2166.711          37.000          37.000  
 127979364.40325  99724274.126 6  24353662.928                    24353684.299  
       189.559         147.484          32.000          38.000  
 113157181.329 7  88174490.927 7  21533097.889                    21533113.193  
     -1884.422       -1468.617          43.000          43.000  
 109837102.888 7  85587410.322 7  20901307.874                    20901321.718  
     -1852.828       -1444.141          45.000          44.000  
 107493352.221 8  83761121.546 7  20455306.147                    20455322.377  
        14.695          11.336          48.000          45.000  
 114965859.918 7  89583874.561 6  21877275.160                    21877293.852  
      2761.746        2151.824          47.000          39.000  
 127323827.972 6  99213447.156 6  24228923.899                    24228941.378  
     -3384.012       -2637.262          38.000          40.000  
 24  1 10  3 22 22.3000000  0  7G08G24G18G23G10G32G15
 128391269.115 6 100045229.198 6  24432057.905                    24432079.821  
      2780.559        2166.668          37.000          37.000  
 127979345.47625  99724259.364 6  24353659.326                    24353680.694  
       189.391         147.785          32.000          39.000  
 113157369.876 7  88174637.846 7  21533133.768                    21533149.072  
     -1884.871       -1468.758          43.000          43.000  
 109837288.214 7  85587554.701 7  20901343.141                    20901356.977  
     -1853.312       -1444.191          45.000          44.000  
 107493350.819 8  83761120.456 7  20455305.880                    20455322.111  
        14.305          10.875          48.000          45.000  
 114965583.808 7  89583659.444 6  21877222.618                    21877241.319  
      2761.312        2151.246          47.000          39.000  
 127324166.428 6  99213710.842 6  24228988.305                    24229005.773  
     -3384.238       -2637.031          37.000          40.000  
 24  1 10  3 22 22.4000000  0  7G08G24G18G23G10G32G15
 128390991.071 6 100045012.546 6  24432004.503                    24432026.944  
      2780.512        2166.270          37.000          37.000  
 127979326.53825  99724244.573 6  24353656.019                    24353677.199  
       189.574         147.746          32.000          39.000  
 113157558.372 7  88174784.678 7  21533169.411                    21533184.696  
     -1885.141       -1469.195          43.000          43.000  
 109837473.556 7  85587699.165 7  20901378.543                    20901392.155  
     -1853.234       -1444.461          45.000          44.000  
 107493349.441 8  83761119.393 7  20455305.274                    20455321.930  
        14.000          10.719          48.000          45.000  
 114965307.732 7  89583444.313 6  21877169.887                    21877188.633  
      2760.984        2151.543          47.000          39.000  
 127324504.806 6  99213974.535 6  24229052.133                    24229070.763  
     -3384.000       -2636.941          36.000          40.000  
 24  1 10  3 22 22.5000000  0  7G08G24G18G23G10G32G15
 128390713.078 6 100044795.918 6  24431951.603                    24431974.041  
      2780.312        2166.676          36.000          37.000  
 127979307.57825  99724229.873 6  24353652.411                    24353673.609  
       189.320         147.242          32.000          39.000  
 113157746.911 7  88174931.672 7  21533205.289                    21533220.593  
     -1885.129       -1469.012          42.000          43.000  
 109837658.953 7  85587843.613 7  20901413.823                    20901427.430  
     -1853.727       -1444.434          44.000          45.000  
 107493348.068 8  83761118.326 7  20455305.013                    20455321.669  
        13.773          10.305          48.000          45.000  
 114965031.673 7  89583229.188 6  21877117.355                    21877136.097  
      2760.820        2150.902          47.000          39.000  
 127324843.254 6  99214238.268 6  24229116.538                    24229135.169  
     -3384.152       -2636.871          36.000          40.000  
 24  1 10  3 22 22.6000000  0  7G08G24G18G23G10G32G15
 128390435.007 6 100044579.272 6  24431898.875                    24431921.165  
      2780.445        2165.977          37.000          37.000  
 127979288.62625  99724215.101 6  24353648.398                    24353669.572  
       189.613         147.574          31.000          39.000  
 113157935.400 7  88175078.479 7  21533240.727                    21533256.945  
     -1885.090       -1468.695          42.000          43.000  
 109837844.311 7  85587988.032 7  20901448.158                    20901462.457  
     -1853.598       -1444.531          44.000          45.000  
 107493346.729 8  83761117.293 7  20455305.040                    20455321.667  
        13.648          10.684          48.000          45.000  
 114964755.626 7  89583014.108 6  21877064.801                    21877082.948  
      2760.617        2150.832          47.000          39.000  
 127325181.664 5  99214501.992 6  24229180.154                    24229199.402  
     -3384.102       -2637.273          35.000          40.000  
 24  1 10  3 22 22.7000000  0  7G08G24G18G23G10G32G15
 128390157.017 6 100044362.622 6  24431845.975                    24431868.257  
      2780.227        2166.469          37.000          37.000  
 127979269.64325  99724200.310 6  24353644.786                    24353665.960  
       189.699         147.852          31.000          39.000  
 113158123.878 7  88175225.408 7  21533276.593                    21533292.827  
     -1884.863       -1469.051          43.000          43.000  
 109838029.713 7  85588132.505 7  20901483.439                    20901497.739  
     -1853.762       -1444.375          44.000          44.000  
 107493345.392 8  83761116.235 7  20455304.785                    20455321.408  
        13.512          10.441          48.000          45.000  
 114964479.585 7  89582799.029 6  21877012.273                    21877030.423  
      2760.516        2150.828          47.000          39.000  
 127325520.108 5  99214765.646 6  24229244.558                    24229263.788  
     -3384.270       -2636.633          35.000          40.000  
 24  1 10  3 22 22.8000000  0  7G08G24G18G23G10G32G15
 128389878.984 6 100044145.957 6  24431793.216                    24431815.142  
      2780.316        2166.492          37.000          37.000  
 127979250.64725  99724185.588 6  24353640.976                    24353662.529  
       189.613         147.352          30.000          39.000  
 113158312.417 7  88175372.320 7  21533312.760                    21533328.329  
     -1885.176       -1469.090          43.000          42.000  
 109838215.056 7  85588276.914 7  20901518.505                    20901533.106  
     -1853.617       -1444.344          44.000          45.000  
 107493344.032 8  83761115.177 7  20455304.597                    20455320.775  
        13.551          10.703          48.000          45.000  
 114964203.510 7  89582583.889 6  21876959.776                    21876977.720  
      2760.609        2151.055          47.000          39.000  
 127325858.500 5  99215029.368 6  24229308.170                    24229328.052  
     -3384.125       -2636.996          34.000          40.000  
 24  1 10  3 22 22.9000000  0  7G08G24G18G23G10G32G15
 128389600.921 6 100043929.325 6  24431740.302                    24431762.239  
      2780.367        2166.504          37.000          37.000  
 127979231.87624  99724170.801 6  24353637.404                    24353658.918  
       188.672         147.645          29.000          39.000  
 113158500.850 7  88175519.139 7  21533348.618                    21533364.184  
     -1884.727       -1468.801          43.000          42.000  
 109838400.388 7  85588421.353 7  20901553.773                    20901568.380  
     -1853.402       -1444.191          44.000          45.000  
 107493342.643 8  83761114.087 7  20455304.332                    20455320.509  
        13.766          10.742          48.000          45.000  
 114963927.407 7  89582368.733 6  21876907.236                    21876925.177  
      2760.887        2151.664          47.000          39.000  
 127326196.871 5  99215293.083 6  24229372.560                    24229392.453  
     -3384.039       -2637.195          34.000          40.000  
 24  1 10  3 22 23.0000000  0  7G08G24G18G23G10G32G15
 128389322.947 6 100043712.683 6  24431687.780                    24431708.785  
      2780.156        2166.223          37.000          36.000  
 127979212.84024  99724156.051 6  24353633.766                    24353655.941  
       189.840         147.570          28.000          38.000  
 113158689.438 7  88175666.113 7  21533384.239                    21533400.029  
     -1885.086       -1468.719          42.000          43.000  
 109838585.745 7  85588565.784 7  20901589.100                    20901603.901  
     -1853.543       -1444.332          44.000          45.000  
 107493341.263 8  83761113.036 7  20455304.218                    20455320.346  
        13.852          10.746          48.000          45.000  
 114963651.323 7  89582153.606 6  21876854.722                    21876872.804  
      2760.891        2151.383          47.000          39.000  
 127326535.362 6  99215556.768 6  24229436.379                    24229456.590  
     -3384.469       -2637.121          36.000          40.000  
 24  1 10  3 22 23.1000000  0  7G08G24G18G23G10G32G15
 128389044.911 6 100043496.019 6  24431634.872                    24431655.874  
      2780.254        2166.770          37.000          36.000  
 127979194.10534  99724141.327 6  24353630.185                    24353652.345  
       188.215         147.344          29.000          38.000  
 113158877.927 7  88175812.934 7  21533420.108                    21533435.885  
     -1885.355       -1469.062          43.000          42.000  
 109838771.111 7  85588710.199 7  20901624.374                    20901639.169  
     -1853.633       -1444.312          44.000          45.000  
 107493339.878 8  83761111.953 7  20455303.955                    20455320.081  
        13.812          10.781          48.000          45.000  
 114963375.216 7  89581938.461 6  21876802.181                    21876820.264  
      2761.059        2151.605          47.000          39.000  
 127326873.801 6  99215820.531 6  24229500.782                    24229521.004  
     -3384.371       -2637.594          37.000          40.000  
 24  1 10  3 22 23.2000000  0  6G08G10G18G23G32G15
 128388766.870 6 100043279.416 6  24431581.697                    24431602.493  
      2780.246        2166.000          37.000          36.000  
 107493338.513 8  83761110.866 7  20455303.726                    20455319.785  
        13.699          10.684          48.000          45.000  
 113159066.448 7  88175959.884 7  21533456.232                    21533471.224  
     -1885.043       -1469.156          43.000          42.000  
 109838956.524 7  85588854.685 7  20901659.844                    20901674.602  
     -1853.820       -1444.754          45.000          44.000  
 114963099.119 7  89581723.325 6  21876749.633                    21876768.085  
      2760.887        2151.246          47.000          39.000  
 127327212.249 6  99216084.306 6  24229565.600                    24229585.850  
     -3384.586       -2637.648          37.000          40.000  
 24  1 10  3 22 23.3000000  0  6G08G10G18G23G32G15
 128388488.887 6 100043062.781 6  24431528.798                    24431549.588  
      2780.066        2166.480          37.000          36.000  
 107493337.182 8  83761109.826 7  20455303.473                    20455319.531  
        13.516          10.293          48.000          45.000  
 113159255.080 7  88176106.866 7  21533492.127                    21533507.119  
     -1885.809       -1469.531          43.000          42.000  
 109839141.952 7  85588999.174 7  20901695.130                    20901709.888  
     -1854.227       -1445.023          45.000          44.000  
 114962823.042 7  89581508.211 6  21876697.098                    21876715.552  
      2760.836        2150.969          47.000          40.000  
 127327550.779 6  99216348.051 6  24229630.021                    24229650.259  
     -3384.934       -2637.543          37.000          39.000  
 24  1 10  3 22 23.4000000  0  6G08G10G18G23G32G15
 128388210.905 6 100042846.171 6  24431475.908                    24431496.268  
      2779.934        2166.160          37.000          37.000  
 107493335.848 8  83761108.805 7  20455303.414                    20455318.766  
        13.340          10.328          48.000          45.000  
 113159443.661 7  88176253.760 7  21533528.279                    21533542.531  
     -1886.066       -1469.426          43.000          42.000  
 109839327.387 7  85589143.694 7  20901730.417                    20901744.915  
     -1854.137       -1445.016          45.000          44.000  
 114962546.980 7  89581293.086 6  21876644.455                    21876662.789  
      2760.824        2151.332          47.000          40.000  
 127327889.332 6  99216611.837 6  24229694.820                    24229714.835  
     -3385.176       -2637.883          37.000          39.000  
 24  1 10  3 22 23.5000000  0  6G08G10G18G23G32G15
 128387932.875 6 100042629.554 6  24431423.001                    24431443.368  
      2780.168        2166.266          37.000          37.000  
 107493334.554 8  83761107.795 7  20455303.168                    20455318.519  
        13.180          10.035          48.000          45.000  
 113159632.314 7  88176400.755 7  21533564.178                    21533578.429  
     -1886.238       -1469.762          43.000          42.000  
 109839512.867 7  85589288.197 7  20901765.712                    20901780.205  
     -1854.586       -1445.031          44.000          44.000  
 114962270.910 7  89581077.992 6  21876591.921                    21876610.261  
      2760.633        2150.859          47.000          40.000  
 127328227.928 6  99216875.645 6  24229759.253                    24229779.259  
     -3385.594       -2638.195          37.000          39.000  
 24  1 10  3 22 23.6000000  0  6G08G10G18G23G32G15
 128387654.905 6 100042412.937 6  24431370.581                    24431390.718  
      2779.898        2166.211          37.000          37.000  
 107493333.253 8  83761106.800 7  20455302.671                    20455318.839  
        13.051          10.129          48.000          45.000  
 113159820.963 7  88176547.739 7  21533600.077                    21533615.175  
     -1886.309       -1469.891          43.000          42.000  
 109839698.341 7  85589432.725 7  20901801.101                    20901815.804  
     -1854.836       -1445.582          44.000          44.000  
 114961994.846 7  89580862.851 6  21876539.122                    21876557.964  
      2760.621        2151.332          47.000          40.000  
 127328566.439 6  99217139.440 6  24229823.888                    24229842.478  
     -3385.398       -2637.887          37.000          39.000  
 24  1 10  3 22 23.7000000  0  6G08G10G18G23G32G15
 128387376.894 6 100042196.311 6  24431317.678                    24431337.816  
      2780.035        2166.012          37.000          37.000  
 107493331.939 8  83761105.770 7  20455302.420                    20455318.587  
        13.141          10.219          48.000          45.000  
 113160009.554 7  88176694.726 7  21533635.965                    21533651.071  
     -1886.148       -1470.125          43.000          43.000  
 109839883.813 7  85589577.296 7  20901836.395                    20901851.110  
     -1854.625       -1445.238          44.000          44.000  
 114961718.766 7  89580647.743 6  21876486.586                    21876505.432  
      2760.793        2151.332          47.000          40.000  
 127328904.987 6  99217403.254 6  24229888.312                    24229906.904  
     -3385.449       -2638.219          37.000          38.000  
 24  1 10  3 22 23.8000000  0  6G08G10G18G23G32G15
 128387098.910 6 100041979.682 6  24431265.115                    24431284.874  
      2780.020        2166.320          37.000          37.000  
 107493330.607 8  83761104.721 7  20455301.847                    20455317.987  
        13.289          10.445          48.000          45.000  
 113160198.160 7  88176841.772 7  21533672.058                    21533687.216  
     -1885.695       -1469.840          43.000          42.000  
 109840069.271 7  85589721.746 7  20901871.546                    20901885.941  
     -1854.680       -1444.930          44.000          44.000  
 114961442.694 7  89580432.599 6  21876434.535                    21876453.267  
      2760.832        2151.508          47.000          40.000  
 127329243.563 6  99217667.059 6  24229953.014                    24229971.804  
     -3385.496       -2638.098          38.000          38.000  
 24  1 10  3 22 23.9000000  0  6G08G10G18G23G32G15
 128386820.920 6 100041763.021 6  24431212.215                    24431231.963  
      2779.855        2166.344          37.000          37.000  
 107493329.296 8  83761103.666 7  20455301.597                    20455317.730  
        13.242          10.473          48.000          45.000  
 113160386.813 7  88176988.779 7  21533707.958                    21533723.116  
     -1886.254       -1470.020          42.000          42.000  
 109840254.781 7  85589866.278 7  20901906.847                    20901921.237  
     -1854.754       -1445.004          45.000          44.000  
 114961166.591 7  89580217.476 6  21876381.995                    21876400.732  
      2760.926        2151.137          47.000          40.000  
 127329582.068 6  99217930.900 6  24230017.429                    24230036.237  
     -3385.383       -2638.277          38.000          38.000  
 24  1 10  3 22 24.0000000  0  6G08G10G18G23G32G15
 128386542.933 6 100041546.452 6  24431159.003                    24431179.176  
      2779.832        2165.992          36.000          37.000  
 107493328.008 8  83761102.686 7  20455301.594                    20455317.326  
        12.934           9.914          48.000          45.000  
 113160575.482 7  88177135.679 7  21533743.149                    21533758.873  
     -1887.004       -1469.906          42.000          43.000  
 109840440.277 7  85590010.869 7  20901942.333                    20901956.462  
     -1855.031       -1445.949          45.000          44.000  
 114960890.533 7  89580002.356 6  21876329.603                    21876348.463  
      2760.586        2150.973          47.000          40.000  
 127329920.674 6  99218194.707 6  24230082.184                    24230100.591  
     -3385.668       -2638.086          39.000          38.000  
 24  1 10  3 22 24.1000000  0  6G08G10G18G23G32G15
 128386264.926 6 100041329.829 6  24431106.101                    24431126.274  
      2780.043        2166.145          37.000          37.000  
 107493326.712 8  83761101.684 7  20455301.348                    20455317.081  
        12.980          10.109          48.000          45.000  
 113160764.129 6  88177282.687 7  21533779.048                    21533794.774  
     -1886.492       -1469.848          41.000          43.000  
 109840625.768 7  85590155.399 7  20901977.631                    20901991.758  
     -1854.781       -1445.156          45.000          44.000  
 114960614.461 7  89579787.225 6  21876277.068                    21876295.925  
      2760.598        2151.473          47.000          40.000  
 127330259.202 6  99218458.477 6  24230146.604                    24230165.006  
     -3385.496       -2637.910          40.000          38.000  
 24  1 10  3 22 24.2000000  0  6G08G10G18G23G32G15
 128385986.967 6 100041113.237 6  24431053.175                    24431073.521  
      2779.750        2165.840          37.000          37.000  
 107493325.449 8  83761100.704 7  20455300.935                    20455316.577  
        12.789           9.805          48.000          45.000  
 113160952.824 7  88177429.706 7  21533813.916                    21533830.756  
     -1886.633       -1470.293          42.000          43.000  
 109840811.275 7  85590299.928 7  20902013.026                    20902027.358  
     -1855.016       -1445.445          45.000          44.000  
 114960338.442 7  89579572.161 6  21876224.372                    21876243.592  
      2760.523        2150.676          47.000          39.000  
 127330597.761 6  99218722.346 6  24230211.397                    24230228.930  
     -3385.531       -2638.590          40.000          38.000  
 24  1 10  3 22 24.3000000  0  6G08G10G18G23G32G15
 128385708.950 6 100040896.643 6  24431000.271                    24431020.627  
      2779.973        2166.160          37.000          37.000  
 107493324.167 8  83761099.703 7  20455300.691                    20455316.332  
        12.742           9.801          48.000          45.000  
 113161141.480 7  88177576.750 7  21533849.816                    21533866.665  
     -1886.605       -1470.203          42.000          43.000  
 109840996.761 7  85590444.474 7  20902048.322                    20902062.658  
     -1854.883       -1445.441          45.000          44.000  
 114960062.400 7  89579357.054 6  21876171.843                    21876191.061  
      2760.414        2151.020          47.000          40.000  
 127330936.302 6  99218986.144 6  24230275.819                    24230293.352  
     -3385.531       -2638.008          40.000          38.000  
 24  1 10  3 22 24.4000000  0  7G08G24G18G23G10G32G15
 128385431.027 6 100040680.021 6  24430947.298                    24430967.569  
      2779.539        2166.160          37.000          37.000  
 127978949.30835  99723950.964 6  24353583.812                    24353604.606  
       187.402         146.328          35.000          38.000  
 113161330.143 7  88177723.777 7  21533886.569                    21533902.610  
     -1886.438       -1470.020          44.000          43.000  
 109841182.248 7  85590589.029 7  20902084.073                    20902098.319  
     -1854.863       -1445.414          45.000          44.000  
 107493322.896 8  83761098.709 7  20455300.332                    20455316.503  
        12.672           9.820          48.000          45.000  
 114959786.383 7  89579141.993 6  21876119.248                    21876138.549  
      2760.277        2150.875          47.000          39.000  
 127331274.823 6  99219249.976 6  24230340.433                    24230357.619  
     -3385.293       -2638.000          40.000          38.000  
 24  1 10  3 22 24.5000000  0  7G08G24G18G23G10G32G15
 128385153.049 6 100040463.449 6  24430894.400                    24430914.680  
      2779.832        2165.719          37.000          37.000  
 127978930.37926  99723936.356 6  24353580.210                    24353601.039  
       188.359         146.418          36.000          38.000  
 113161518.737 7  88177870.711 7  21533922.457                    21533938.493  
     -1886.133       -1469.562          44.000          43.000  
 109841367.699 7  85590733.508 7  20902119.363                    20902133.602  
     -1854.828       -1444.981          45.000          45.000  
 107493321.623 8  83761097.731 7  20455300.090                    20455316.265  
        12.785           9.996          48.000          45.000  
 114959510.367 7  89578926.894 6  21876066.724                    21876086.019  
      2760.227        2150.578          47.000          39.000  
 127331613.355 6  99219513.746 6  24230404.853                    24230422.034  
     -3385.320       -2637.926          39.000          38.000  
 24  1 10  3 22 24.6000000  0  7G08G24G18G23G10G32G15
 128384875.063 6 100040246.864 6  24430841.650                    24430862.288  
      2779.652        2165.984          37.000          37.000  
 127978911.63126  99723921.757 6  24353577.190                    24353597.669  
       187.832         146.004          37.000          38.000  
 113161707.384 7  88178017.757 7  21533959.598                    21533974.684  
     -1886.414       -1470.191          44.000          43.000  
 109841553.198 7  85590878.059 7  20902154.881                    20902168.434  
     -1854.742       -1445.551          45.000          45.000  
 107493320.370 8  83761096.741 7  20455300.203                    20455316.617  
        12.602           9.781          48.000          45.000  
 114959234.391 7  89578711.866 6  21876014.075                    21876033.616  
      2759.965        2150.469          47.000          40.000  
 127331951.948 6  99219777.521 6  24230469.168                    24230486.021  
     -3385.586       -2637.742          38.000          38.000  
 24  1 10  3 22 24.7000000  0  7G08G24G18G23G10G32G15
 128384597.194 6 100040030.289 6  24430788.773                    24430809.398  
      2779.285        2165.512          37.000          37.000  
 127978892.82326  99723907.093 6  24353573.611                    24353594.088  
       188.023         146.652          37.000          38.000  
 113161896.042 7  88178164.708 7  21533995.498                    21534010.571  
     -1886.703       -1469.805          43.000          43.000  
 109841738.670 7  85591022.585 7  20902190.175                    20902203.729  
     -1854.809       -1445.227          45.000          44.000  
 107493319.113 8  83761095.769 7  20455299.964                    20455316.379  
        12.629           9.832          48.000          45.000  
 114958958.403 7  89578496.795 6  21875961.556                    21875981.094  
      2759.984        2150.684          47.000          40.000  
 127332290.453 6  99220041.304 6  24230533.583                    24230550.439  
     -3385.254       -2637.863          38.000          38.000  
 24  1 10  3 22 24.8000000  0  7G08G24G18G23G10G32G15
 128384319.167 6 100039813.697 6  24430736.046                    24430756.957  
      2779.746        2165.930          36.000          37.000  
 127978873.94226  99723892.387 6  24353570.549                    24353590.723  
       188.320         147.055          36.000          38.000  
 113162084.672 7  88178311.679 7  21534030.886                    21534046.244  
     -1886.355       -1469.953          43.000          43.000  
 109841924.116 7  85591167.108 7  20902225.019                    20902239.070  
     -1854.512       -1444.965          44.000          45.000  
 107493317.848 8  83761094.777 7  20455299.739                    20455316.028  
        12.676           9.914          48.000          45.000  
 114958682.404 7  89578281.716 6  21875909.160                    21875928.257  
      2759.973        2150.477          47.000          40.000  
 127332628.890 6  99220305.075 6  24230597.681                    24230615.082  
     -3384.840       -2637.648          38.000          38.000  
 24  1 10  3 22 24.9000000  0  7G08G24G18G23G10G32G15
 128384041.288 6 100039597.117 6  24430683.167                    24430704.066  
      2779.180        2165.621          36.000          37.000  
 127978854.669 5  99723877.768 6  24353566.881                    24353587.153  
       188.059         146.172          35.000          37.000  
 113162273.312 7  88178458.696 7  21534066.783                    21534082.147  
     -1886.230       -1469.891          43.000          43.000  
 109842109.612 7  85591311.615 7  20902260.318                    20902274.360  
     -1854.719       -1445.231          44.000          45.000  
 107493316.617 8  83761093.816 7  20455299.505                    20455315.793  
        12.539           9.723          48.000          45.000  
 114958406.446 7  89578066.721 6  21875856.647                    21875875.753  
      2759.707        2150.176          47.000          39.000  
 127332967.426 6  99220568.823 6  24230662.102                    24230679.492  
     -3385.106       -2637.582          38.000          38.000  
 24  1 10  3 22 25.0000000  0  7G08G24G18G23G10G32G15
 128383763.352 6 100039380.545 6  24430630.176                    24430651.513  
      2779.371        2165.859          36.000          37.000  
 127978835.839 5  99723863.077 6  24353563.165                    24353583.128  
       188.246         146.637          34.000          38.000  
 113162461.972 7  88178605.751 7  21534102.801                    21534117.919  
     -1886.406       -1469.898          43.000          43.000  
 109842295.063 7  85591456.181 7  20902295.162                    20902309.961  
     -1854.742       -1445.598          44.000          45.000  
 107493315.391 8  83761092.847 7  20455299.373                    20455315.494  
        12.223           9.316          48.000          45.000  
 114958130.483 7  89577851.681 6  21875804.165                    21875822.972  
      2759.586        2150.258          47.000          40.000  
 127333305.888 6  99220832.573 6  24230726.392                    24230744.277  
     -3384.883       -2637.559          37.000          39.000  
 24  1 10  3 22 25.1000000  0  7G08G24G18G23G10G32G15
 128383485.410 6 100039163.994 6  24430577.286                    24430598.629  
      2779.312        2165.488          36.000          36.000  
 127978817.013 5  99723848.438 6  24353559.583                    24353579.553  
       188.246         146.348          34.000          38.000  
 113162650.586 7  88178752.655 7  21534138.693                    21534153.794  
     -1886.352       -1469.617          43.000          43.000  
 109842480.515 7  85591600.664 7  20902330.453                    20902345.245  
     -1854.641       -1445.078          45.000          45.000  
 107493314.158 8  83761091.918 7  20455299.138                    20455315.267  
        12.363           9.480          48.000          45.000  
 114957854.535 7  89577636.621 6  21875751.653                    21875770.453  
      2759.582        2150.445          47.000          40.000  
 127333644.388 6  99221096.300 6  24230790.807                    24230808.682  
     -3384.766       -2637.281          36.000          39.000  
