     2.11           OBSERVATION DATA    M (MIXED)           RINEX VERSION / TYPE
GPP.DLL V3.2.21                         18 - MAR - 24 07:43 PGM / RUN BY / DATE 
                                                            MARKER NAME         
                                                            MARKER NUMBER       
                                                            OBSERVER / AGENCY   
6028C00128          APX-15v3 AV         5.50                REC # / TYPE / VERS 
                    E                                       ANT # / TYPE        
 -4667746.9314  2554596.9339 -3505000.2709                  APPROX POSITION XYZ 
        0.0000       -0.0000       -0.0000                  ANTENNA: DELTA H/E/N
     1     1                                                WAVELENGTH FACT L1/2
     8    L1    L2    C1    C2    D1    D2    S1    S2      # / TYPES OF OBSERV 
     0.100                                                  INTERVAL            
  2024     1    10     3    23    0.0000000     GPS         TIME OF FIRST OBS   
  2024     1    10     3    23   59.9000000     GPS         TIME OF LAST OBS    
    18                                                      LEAP SECONDS        
     7                                                      # OF SATELLITES     
   G08   600   600   600   600   600   600   600   600      PRN / # OF OBS      
   G10   600   600   600   600   600   600   600   600      PRN / # OF OBS      
   G15   600   600   600   600   600   600   600   600      PRN / # OF OBS      
   G18   600   600   600   600   600   600   600   600      PRN / # OF OBS      
   G23   600   600   600   600   600   600   600   600      PRN / # OF OBS      
   G24   600   600   600   600   600   600   600   600      PRN / # OF OBS      
   G32   600   600   600   600   600   600   600   600      PRN / # OF OBS      
                                                            END OF HEADER       
 24  1 10  3 23  0.0000000  0  7G08G24G18G23G10G32G15
 128286870.421 6  99963879.680 6  24412192.080    24412212.649        2743.105  
      2137.352          36.000          36.000  
 127972518.35125  99718938.936 6  24352360.112    24352381.516         174.527  
       135.789          31.000          38.000  
 113228652.818 7  88230182.907 7  21546697.961    21546712.939       -1891.684  
     -1474.340          43.000          43.000  
 109907408.089 7  85642193.536 7  20914685.892    20914700.737       -1872.762  
     -1459.324          44.000          44.000  
 107493164.997 8  83760975.682 7  20455270.441    20455285.959          -9.980  
        -7.805          48.000          44.000  
 114861662.276 7  89502681.872 6  21857446.985    21857465.995        2763.805  
      2153.355          47.000          41.000  
 127451979.669 6  99313305.407 6  24253307.887    24253327.048       -3403.891  
     -2652.574          37.000          39.000  
 24  1 10  3 23  0.1000000  0  7G08G24G18G23G10G32G15
 128286596.142 6  99963665.959 6  24412139.887    24412160.456        2742.969  
      2137.359          37.000          36.000  
 127972500.97325  99718925.339 6  24352356.805    24352378.196         174.281  
       136.086          32.000          38.000  
 113228841.977 7  88230330.333 7  21546733.956    21546748.942       -1891.723  
     -1474.289          42.000          42.000  
 109907595.390 7  85642339.471 7  20914721.534    20914736.375       -1872.836  
     -1459.426          44.000          45.000  
 107493166.010 8  83760976.485 7  20455270.634    20455286.155         -10.023  
        -7.996          48.000          44.000  
 114861385.904 7  89502466.489 6  21857394.393    21857413.396        2763.730  
      2153.562          47.000          41.000  
 127452320.104 6  99313570.697 6  24253372.669    24253391.835       -3404.016  
     -2652.824          38.000          39.000  
 24  1 10  3 23  0.2000000  0  7G08G24G18G23G10G32G15
 128286321.816 6  99963452.216 6  24412087.872    24412107.914        2743.156  
      2137.484          37.000          37.000  
 127972483.49125  99718911.717 6  24352353.182    24352375.002         174.695  
       136.207          31.000          38.000  
 113229031.159 7  88230477.752 7  21546769.675    21546784.794       -1891.824  
     -1474.055          43.000          42.000  
 109907782.618 7  85642485.383 7  20914757.436    20914772.274       -1872.602  
     -1459.094          44.000          45.000  
 107493166.984 8  83760977.230 7  20455270.859    20455286.720          -9.832  
        -7.363          48.000          44.000  
 114861109.534 7  89502251.112 6  21857341.614    21857360.705        2763.812  
      2153.941          47.000          41.000  
 127452660.522 6  99313835.964 6  24253437.894    24253456.772       -3404.098  
     -2652.547          38.000          38.000  
 24  1 10  3 23  0.3000000  0  7G08G24G18G23G10G32G15
 128286047.498 6  99963238.439 6  24412035.671    24412055.708        2743.133  
      2137.410          37.000          37.000  
 127972466.05925  99718898.123 6  24352349.865    24352371.682         174.227  
       135.816          30.000          38.000  
 113229220.368 7  88230625.178 7  21546805.681    21546820.798       -1891.875  
     -1474.387          42.000          42.000  
 109907969.909 7  85642631.324 7  20914793.076    20914807.915       -1872.637  
     -1459.352          45.000          45.000  
 107493167.988 8  83760978.023 7  20455271.050    20455286.913          -9.926  
        -7.918          48.000          44.000  
 114860833.185 7  89502035.764 6  21857289.026    21857308.115        2763.566  
      2153.352          47.000          40.000  
 127453000.939 6  99314101.197 6  24253502.674    24253521.545       -3404.184  
     -2652.566          39.000          38.000  
 24  1 10  3 23  0.4000000  0  7G08G24G18G23G10G32G15
 128285773.209 6  99963024.756 6  24411983.210    24412003.595        2742.988  
      2136.977          37.000          37.000  
 127972448.75924  99718884.614 6  24352346.533    24352367.899         173.691  
       135.312          29.000          39.000  
 113229409.616 7  88230772.649 7  21546841.631    21546857.210       -1892.395  
     -1474.676          42.000          42.000  
 109908157.225 7  85642777.305 7  20914828.635    20914843.244       -1872.973  
     -1459.570          45.000          45.000  
 107493169.003 8  83760978.802 7  20455271.360    20455286.955         -10.059  
        -7.867          48.000          44.000  
 114860556.846 7  89501820.443 6  21857236.659    21857255.125        2763.395  
      2153.254          47.000          40.000  
 127453341.398 6  99314366.491 6  24253568.445    24253586.192       -3404.363  
     -2652.727          40.000          38.000  
 24  1 10  3 23  0.5000000  0  7G08G24G18G23G10G32G15
 128285498.931 6  99962810.983 6  24411931.016    24411951.389        2742.977  
      2137.488          37.000          37.000  
 127972431.36624  99718871.092 6  24352343.224    24352364.596         173.961  
       135.164          28.000          39.000  
 113229598.909 7  88230920.126 7  21546877.652    21546893.225       -1892.684  
     -1474.723          43.000          42.000  
 109908344.525 7  85642923.229 7  20914864.277    20914878.880       -1872.992  
     -1459.457          45.000          44.000  
 107493170.020 8  83760979.599 7  20455271.554    20455287.150         -10.137  
        -8.020          48.000          44.000  
 114860280.552 7  89501605.128 6  21857184.082    21857202.543        2763.148  
      2153.023          47.000          40.000  
 127453681.835 6  99314631.767 6  24253633.228    24253650.975       -3404.457  
     -2652.887          40.000          38.000  
 24  1 10  3 23  0.6000000  0  7G08G24G18G23G10G32G15
 128285224.553 6  99962597.206 6  24411878.937    24411899.362        2743.352  
      2137.652          37.000          37.000  
 127972413.93824  99718857.553 6  24352339.970    24352361.704         174.047  
       135.305          27.000          39.000  
 113229788.208 7  88231067.601 7  21546914.401    21546929.670       -1892.691  
     -1474.883          43.000          43.000  
 109908531.817 7  85643069.178 7  20914899.699    20914914.616       -1872.922  
     -1459.328          45.000          45.000  
 107493171.037 8  83760980.389 7  20455271.677    20455287.663         -10.133  
        -7.848          48.000          44.000  
 114860004.243 7  89501389.822 6  21857131.346    21857149.893        2763.102  
      2152.828          47.000          40.000  
 127454022.296 6  99314897.023 6  24253699.117    24253715.987       -3404.406  
     -2652.219          40.000          38.000  
 24  1 10  3 23  0.7000000  0  7G08G24G18G23G10G32G15
 128284950.231 6  99962383.438 6  24411826.735    24411847.158        2743.301  
      2137.785          37.000          37.000  
 127972396.73824  99718844.015 6  24352336.697    24352358.398         173.062  
       135.406          28.000          39.000  
 113229977.458 7  88231215.079 7  21546950.414    21546965.686       -1892.613  
     -1474.824          43.000          43.000  
 109908719.103 7  85643215.108 7  20914935.338    20914950.254       -1872.926  
     -1459.438          45.000          45.000  
 107493172.031 8  83760981.173 7  20455271.866    20455287.855         -10.086  
        -8.008          48.000          44.000  
 114859727.965 7  89501174.558 6  21857078.772    21857097.323        2762.875  
      2152.898          47.000          40.000  
 127454362.717 6  99315162.269 6  24253763.897    24253780.763       -3404.356  
     -2652.859          40.000          38.000  
 24  1 10  3 23  0.8000000  0  7G08G24G18G23G10G32G15
 128284675.895 6  99962169.680 6  24411774.288    24411794.925        2743.340  
      2137.750          37.000          37.000  
 127972379.23934  99718830.478 6  24352333.789    24352355.326         174.055  
       135.273          29.000          39.000  
 113230166.638 7  88231362.576 7  21546986.734    21547002.073       -1892.125  
     -1474.719          42.000          43.000  
 109908906.383 7  85643361.056 7  20914971.047    20914985.662       -1872.777  
     -1459.293          45.000          45.000  
 107493173.024 8  83760981.945 7  20455271.727    20455288.309          -9.875  
        -7.629          48.000          44.000  
 114859451.679 7  89500959.276 6  21857026.056    21857044.804        2762.965  
      2152.746          47.000          41.000  
 127454703.124 6  99315427.568 6  24253828.542    24253845.505       -3404.000  
     -2652.941          38.000          38.000  
 24  1 10  3 23  0.9000000  0  7G08G24G18G23G10G32G15
 128284401.512 6  99961955.894 6  24411722.075    24411742.716        2743.516  
      2137.723          37.000          37.000  
 127972361.954 4  99718816.967 6  24352330.499    24352352.027         173.465  
       134.973          28.000          39.000  
 113230355.939 6  88231510.083 7  21547022.757    21547038.096       -1892.621  
     -1474.762          41.000          43.000  
 109909093.665 7  85643506.968 7  20915006.686    20915021.295       -1872.812  
     -1459.203          45.000          45.000  
 107493174.016 8  83760982.728 7  20455271.915    20455288.500          -9.910  
        -7.699          48.000          45.000  
 114859175.411 7  89500744.020 6  21856973.484    21856992.236        2762.730  
      2152.633          47.000          41.000  
 127455043.521 6  99315692.838 6  24253893.317    24253910.287       -3404.117  
     -2652.688          37.000          38.000  
 24  1 10  3 23  1.0000000  0  7G08G24G18G23G10G32G15
 128284127.177 6  99961742.116 6  24411669.777    24411690.712        2743.449  
      2137.719          37.000          37.000  
 127972344.604 4  99718803.431 6  24352327.221    24352348.753         173.695  
       135.359          27.000          39.000  
 113230545.213 7  88231657.512 7  21547057.907    21547073.943       -1892.828  
     -1474.738          42.000          42.000  
 109909280.930 7  85643652.892 7  20915042.477    20915056.564       -1872.777  
     -1459.215          45.000          44.000  
 107493175.009 8  83760983.492 7  20455272.409    20455288.858          -9.926  
        -7.617          48.000          45.000  
 114858899.164 7  89500528.769 6  21856920.658    21856939.732        2762.621  
      2152.539          47.000          41.000  
 127455383.872 6  99315958.128 6  24253957.381    24253975.175       -3403.867  
     -2652.895          36.000          38.000  
 24  1 10  3 23  1.1000000  0  7G08G24G18G23G10G32G15
 128283852.830 6  99961528.291 6  24411617.570    24411638.494        2743.492  
      2138.148          37.000          37.000  
 127972327.196 4  99718789.935 6  24352323.909    24352345.457         173.562  
       135.004          28.000          39.000  
 113230734.528 7  88231805.039 7  21547093.933    21547109.971       -1892.879  
     -1475.051          43.000          42.000  
 109909468.196 7  85643798.814 7  20915078.113    20915092.199       -1872.688  
     -1459.301          45.000          44.000  
 107493176.017 8  83760984.277 7  20455272.601    20455289.050         -10.008  
        -7.859          48.000          45.000  
 114858622.939 7  89500313.513 6  21856868.094    21856887.165        2762.465  
      2152.590          47.000          41.000  
 127455724.280 5  99316223.343 6  24254022.158    24254039.943       -3403.922  
     -2652.281          35.000          38.000  
 24  1 10  3 23  1.2000000  0  7G08G24G18G23G10G32G15
 128283578.448 6  99961314.541 6  24411565.545    24411586.404        2743.668  
      2137.574          37.000          37.000  
 127972309.908 4  99718776.411 6  24352320.549    24352341.935         173.199  
       135.168          29.000          39.000  
 113230923.824 7  88231952.541 7  21547130.634    21547144.945       -1892.984  
     -1474.992          44.000          42.000  
 109909655.493 7  85643944.755 7  20915113.098    20915127.269       -1872.734  
     -1459.383          44.000          44.000  
 107493177.033 8  83760985.063 7  20455273.208    20455289.297         -10.105  
        -7.852          48.000          45.000  
 114858346.721 7  89500098.306 6  21856815.735    21856834.867        2762.332  
      2152.188          47.000          41.000  
 127456064.682 6  99316488.618 6  24254086.387    24254104.765       -3404.004  
     -2652.672          36.000          38.000  
 24  1 10  3 23  1.3000000  0  7G08G24G18G23G10G32G15
 128283304.107 6  99961100.754 6  24411513.339    24411534.195        2743.539  
      2137.883          37.000          37.000  
 127972292.578 5  99718762.938 6  24352317.251    24352338.645         173.289  
       134.832          31.000          39.000  
 113231113.137 7  88232100.057 7  21547166.660    21547180.970       -1893.098  
     -1475.414          44.000          43.000  
 109909842.798 7  85644090.729 7  20915148.741    20915162.918       -1873.031  
     -1459.680          44.000          44.000  
 107493178.084 8  83760985.885 7  20455273.408    20455289.498         -10.402  
        -8.293          48.000          45.000  
 114858070.537 7  89499883.094 6  21856763.179    21856782.310        2761.949  
      2152.000          47.000          41.000  
 127456405.097 6  99316753.902 6  24254151.166    24254169.550       -3404.070  
     -2652.730          37.000          38.000  
 24  1 10  3 23  1.4000000  0  7G08G24G18G23G10G32G15
 128283029.742 6  99960886.988 6  24411461.044    24411481.999        2743.461  
      2137.711          37.000          37.000  
 127972275.228 5  99718749.439 6  24352314.402    24352335.669         173.234  
       134.867          31.000          39.000  
 113231302.472 7  88232247.651 7  21547203.103    21547217.288       -1893.246  
     -1475.656          44.000          43.000  
 109910030.144 7  85644236.705 7  20915184.376    20915198.777       -1873.258  
     -1459.836          44.000          44.000  
 107493179.159 8  83760986.724 7  20455273.574    20455289.851         -10.590  
        -8.520          48.000          45.000  
 114857794.384 7  89499667.887 6  21856710.824    21856729.957        2761.758  
      2152.039          47.000          41.000  
 127456745.533 6  99317019.155 6  24254215.863    24254234.835       -3404.215  
     -2652.672          37.000          38.000  
 24  1 10  3 23  1.5000000  0  7G08G24G18G23G10G32G15
 128282755.452 6  99960673.224 6  24411408.848    24411429.795        2743.266  
      2137.574          37.000          37.000  
 127972257.933 5  99718735.928 6  24352311.111    24352332.369         173.371  
       135.176          32.000          39.000  
 113231491.888 7  88232395.197 7  21547239.148    21547253.320       -1893.656  
     -1475.391          43.000          43.000  
 109910217.499 7  85644382.699 7  20915220.028    20915234.431       -1873.398  
     -1459.879          44.000          44.000  
 107493180.242 8  83760987.569 7  20455273.780    20455290.057         -10.691  
        -8.457          48.000          44.000  
 114857518.217 7  89499452.719 6  21856658.271    21856677.411        2761.691  
      2151.680          47.000          41.000  
 127457085.922 6  99317284.418 6  24254280.637    24254299.615       -3404.051  
     -2652.559          38.000          38.000  
 24  1 10  3 23  1.6000000  0  7G08G24G18G23G10G32G15
 128282481.113 6  99960459.465 6  24411356.823    24411377.288        2743.305  
      2137.414          37.000          37.000  
 127972240.652 5  99718722.440 6  24352307.745    24352328.833         173.008  
       134.965          32.000          39.000  
 113231681.231 7  88232542.736 7  21547275.092    21547289.968       -1893.664  
     -1475.594          44.000          43.000  
 109910404.824 7  85644528.652 7  20915255.660    20915270.472       -1873.379  
     -1459.746          44.000          44.000  
 107493181.318 8  83760988.402 7  20455273.875    20455289.862         -10.754  
        -8.465          48.000          45.000  
 114857242.064 7  89499237.518 6  21856605.534    21856624.888        2761.609  
      2151.934          47.000          41.000  
 127457426.396 6  99317549.675 6  24254345.997    24254364.190       -3404.461  
     -2652.504          38.000          38.000  
 24  1 10  3 23  1.7000000  0  7G08G24G18G23G10G32G15
 128282206.751 6  99960245.688 6  24411304.613    24411325.082        2743.508  
      2137.820          37.000          37.000  
 127972223.318 5  99718708.978 6  24352304.446    24352325.546         173.277  
       134.680          32.000          39.000  
 113231870.557 7  88232690.291 7  21547311.120    21547326.002       -1893.371  
     -1475.488          44.000          43.000  
 109910592.141 7  85644674.609 7  20915291.305    20915306.116       -1873.230  
     -1459.582          44.000          44.000  
 107493182.368 8  83760989.236 7  20455274.075    20455290.066         -10.562  
        -8.133          48.000          45.000  
 114856965.863 7  89499022.315 6  21856552.974    21856572.333        2761.793  
      2152.156          47.000          41.000  
 127457766.853 6  99317814.935 6  24254410.784    24254428.970       -3404.442  
     -2652.816          38.000          37.000  
 24  1 10  3 23  1.8000000  0  7G08G24G18G23G10G32G15
 128281932.396 6  99960031.894 6  24411252.405    24411273.059        2743.543  
      2138.008          37.000          37.000  
 127972205.866 5  99718695.451 6  24352300.906    24352321.484         173.832  
       135.238          31.000          39.000  
 113232059.902 7  88232837.826 7  21547346.948    21547361.235       -1893.344  
     -1475.184          44.000          42.000  
 109910779.434 7  85644820.566 7  20915326.985    20915341.761       -1873.031  
     -1459.379          44.000          44.000  
 107493183.409 8  83760990.029 7  20455274.008    20455290.267         -10.477  
        -8.020          48.000          45.000  
 114856689.688 7  89498807.096 6  21856500.318    21856519.727        2761.859  
      2151.988          47.000          41.000  
 127458107.232 6  99318080.205 6  24254475.658    24254492.978       -3404.176  
     -2652.496          38.000          37.000  
 24  1 10  3 23  1.9000000  0  7G08G24G18G23G10G32G15
 128281658.059 6  99959818.122 6  24411200.201    24411220.853        2743.477  
      2137.711          37.000          37.000  
 127972188.657 5  99718681.969 6  24352297.632    24352318.192         172.922  
       134.586          30.000          39.000  
 113232249.239 7  88232985.313 7  21547382.978    21547397.253       -1893.254  
     -1474.879          43.000          42.000  
 109910966.721 7  85644966.506 7  20915362.624    20915377.401       -1872.883  
     -1459.266          44.000          44.000  
 107493184.429 8  83760990.834 7  20455274.202    20455290.464         -10.309  
        -7.930          48.000          44.000  
 114856413.479 7  89498591.875 6  21856447.758    21856467.168        2762.020  
      2152.289          47.000          41.000  
 127458447.667 6  99318345.420 6  24254540.440    24254557.746       -3404.230  
     -2652.473          38.000          37.000  
 24  1 10  3 23  2.0000000  0  7G08G24G18G23G10G32G15
 128281383.725 6  99959604.367 6  24411148.043    24411169.059        2743.375  
      2137.488          37.000          37.000  
 127972171.298 5  99718668.489 6  24352294.141    24352314.533         173.340  
       134.766          30.000          39.000  
 113232438.571 7  88233132.805 7  21547418.311    21547433.287       -1893.363  
     -1475.121          43.000          43.000  
 109911154.027 7  85645112.447 7  20915398.377    20915413.478       -1872.980  
     -1459.469          44.000          45.000  
 107493185.469 8  83760991.635 7  20455274.314    20455290.456         -10.297  
        -8.020          48.000          45.000  
 114856137.302 7  89498376.667 6  21856395.148    21856414.558        2761.930  
      2152.086          47.000          41.000  
 127458788.082 6  99318610.707 6  24254605.321    24254622.055       -3404.297  
     -2652.812          39.000          36.000  
 24  1 10  3 23  2.1000000  0  7G08G24G18G23G10G32G15
 128281109.360 6  99959390.601 6  24411095.834    24411116.855        2743.566  
      2137.895          37.000          37.000  
 127972154.070 5  99718655.003 6  24352290.862    24352311.239         172.750  
       134.887          30.000          39.000  
 113232627.891 7  88233280.341 7  21547454.337    21547469.317       -1893.395  
     -1475.359          43.000          43.000  
 109911341.315 7  85645258.389 7  20915434.016    20915449.119       -1872.914  
     -1459.410          44.000          45.000  
 107493186.487 8  83760992.441 7  20455274.508    20455290.653         -10.262  
        -8.062          48.000          45.000  
 114855861.082 7  89498161.465 6  21856342.585    21856362.003        2761.934  
      2152.062          47.000          41.000  
 127459128.539 6  99318875.973 6  24254670.108    24254686.836       -3404.383  
     -2652.457          39.000          36.000  
 24  1 10  3 23  2.2000000  0  7G08G24G18G23G10G32G15
 128280835.060 6  99959176.816 6  24411043.683    24411064.998        2743.262  
      2137.738          37.000          37.000  
 127972136.706 5  99718641.529 6  24352287.167    24352307.644         173.223  
       134.977          30.000          38.000  
 113232817.204 7  88233427.932 7  21547490.644    21547505.423       -1893.109  
     -1475.719          43.000          43.000  
 109911528.617 7  85645404.346 7  20915469.432    20915485.193       -1873.004  
     -1459.441          44.000          45.000  
 107493187.541 8  83760993.267 7  20455274.903    20455290.863         -10.406  
        -8.191          48.000          45.000  
 114855584.920 7  89497946.249 6  21856290.213    21856309.406        2761.746  
      2152.012          47.000          41.000  
 127459468.995 6  99319141.214 6  24254735.230    24254751.845       -3404.445  
     -2652.695          40.000          36.000  
 24  1 10  3 23  2.3000000  0  7G08G24G18G23G10G32G15
 128280560.725 6  99958963.073 6  24410991.479    24411012.800        2743.375  
      2137.547          37.000          37.000  
 127972119.562 5  99718628.054 6  24352283.905    24352304.353         172.574  
       134.652          31.000          38.000  
 113233006.540 7  88233575.473 7  21547526.673    21547541.454       -1893.340  
     -1475.289          43.000          43.000  
 109911715.923 7  85645550.298 7  20915505.075    20915520.836       -1873.066  
     -1459.695          44.000          45.000  
 107493188.590 8  83760994.073 7  20455275.103    20455291.060         -10.477  
        -8.160          48.000          45.000  
 114855308.751 7  89497731.062 6  21856237.660    21856256.855        2761.766  
      2151.820          47.000          41.000  
 127459809.422 6  99319406.495 6  24254800.011    24254816.629       -3404.422  
     -2652.887          41.000          36.000  
 24  1 10  3 23  2.4000000  0  7G08G24G18G23G10G32G15
 128280286.349 6  99958749.282 6  24410938.743    24410960.582        2743.445  
      2137.613          37.000          37.000  
 127972102.180 5  99718614.603 6  24352280.566    24352300.795         173.066  
       134.730          31.000          38.000  
 113233195.928 7  88233722.998 7  21547562.580    21547577.465       -1893.652  
     -1475.512          43.000          43.000  
 109911903.248 7  85645696.268 7  20915540.902    20915556.226       -1873.074  
     -1459.609          44.000          45.000  
 107493189.642 8  83760994.896 7  20455275.537    20455291.300         -10.516  
        -8.227          48.000          45.000  
 114855032.599 7  89497515.874 6  21856185.266    21856204.445        2761.738  
      2151.926          47.000          41.000  
 127460149.854 6  99319671.768 6  24254865.184    24254881.310       -3404.238  
     -2652.773          41.000          37.000  
 24  1 10  3 23  2.5000000  0  7G08G24G18G23G10G32G15
 128280011.996 6  99958535.516 6  24410886.536    24410908.378        2743.398  
      2137.953          37.000          37.000  
 127972084.898 5  99718601.120 6  24352277.278    24352297.503         173.004  
       134.668          31.000          38.000  
 113233385.307 7  88233870.573 7  21547598.617    21547613.504       -1893.750  
     -1475.805          43.000          43.000  
 109912090.583 7  85645842.251 7  20915576.550    20915591.876       -1873.215  
     -1459.797          44.000          45.000  
 107493190.738 8  83760995.745 7  20455275.746    20455291.507         -10.715  
        -8.406          48.000          44.000  
 114854756.459 7  89497300.696 6  21856132.718    21856151.896        2761.453  
      2151.688          47.000          40.000  
 127460490.291 6  99319937.028 6  24254929.967    24254946.089       -3404.488  
     -2652.582          41.000          37.000  
 24  1 10  3 23  2.6000000  0  7G08G24G18G23G10G32G15
 128279737.711 6  99958321.744 6  24410834.247    24410855.727        2743.242  
      2137.598          36.000          37.000  
 127972067.615 5  99718587.660 6  24352274.309    24352294.262         172.801  
       134.727          31.000          38.000  
 113233574.700 7  88234018.169 7  21547634.720    21547649.346       -1893.820  
     -1475.859          43.000          43.000  
 109912277.950 7  85645988.224 7  20915612.408    20915627.204       -1873.617  
     -1459.859          43.000          45.000  
 107493191.833 8  83760996.598 7  20455276.040    20455292.028         -10.906  
        -8.570          48.000          44.000  
 114854480.327 7  89497085.555 6  21856079.946    21856099.192        2761.406  
      2151.707          47.000          41.000  
 127460830.728 6  99320202.289 6  24254995.164    24255011.173       -3404.320  
     -2652.633          41.000          37.000  
 24  1 10  3 23  2.7000000  0  7G08G24G18G23G10G32G15
 128279463.376 6  99958107.996 6  24410782.043    24410803.528        2743.379  
      2137.586          36.000          37.000  
 127972050.435 5  99718574.213 6  24352271.040    24352290.978         172.469  
       134.418          31.000          38.000  
 113233764.073 7  88234165.714 7  21547670.756    21547685.378       -1893.859  
     -1475.590          44.000          43.000  
 109912465.292 7  85646134.199 7  20915648.058    20915662.852       -1873.527  
     -1459.918          44.000          44.000  
 107493192.941 8  83760997.467 7  20455276.251    20455292.240         -10.957  
        -8.586          48.000          44.000  
 114854204.194 7  89496870.349 6  21856027.399    21856046.637        2761.320  
      2151.680          47.000          41.000  
 127461171.174 6  99320467.555 6  24255059.949    24255075.954       -3404.414  
     -2652.664          41.000          37.000  
 24  1 10  3 23  2.8000000  0  7G08G24G18G23G10G32G15
 128279189.060 6  99957894.262 6  24410729.975    24410750.949        2743.262  
      2137.223          36.000          37.000  
 127972033.126 5  99718560.748 6  24352267.894    24352288.206         172.500  
       134.684          30.000          39.000  
 113233953.470 7  88234313.297 7  21547707.313    21547722.067       -1893.746  
     -1475.594          44.000          43.000  
 109912652.635 7  85646280.194 7  20915683.560    20915698.068       -1873.434  
     -1459.801          44.000          44.000  
 107493194.045 8  83760998.321 7  20455276.297    20455292.613         -11.047  
        -8.652          48.000          44.000  
 114853928.066 7  89496655.203 6  21855974.901    21855994.299        2761.281  
      2151.492          47.000          41.000  
 127461511.605 6  99320732.819 6  24255125.067    24255140.742       -3404.426  
     -2652.711          41.000          36.000  
 24  1 10  3 23  2.9000000  0  7G08G24G18G23G10G32G15
 128278914.759 6  99957680.502 6  24410677.777    24410698.747        2743.051  
      2137.348          36.000          37.000  
 127972015.881 5  99718547.267 6  24352264.613    24352284.913         172.652  
       134.547          30.000          38.000  
 113234142.874 7  88234460.865 7  21547743.356    21547758.105       -1894.059  
     -1475.887          44.000          43.000  
 109912839.984 7  85646426.190 7  20915719.211    20915733.722       -1873.426  
     -1460.016          44.000          44.000  
 107493195.163 8  83760999.198 7  20455276.510    20455292.827         -11.070  
        -8.754          48.000          44.000  
 114853651.939 7  89496440.029 6  21855922.356    21855941.752        2761.305  
      2151.746          47.000          41.000  
 127461852.056 6  99320998.152 6  24255189.852    24255205.539       -3404.352  
     -2653.258          41.000          36.000  
 24  1 10  3 23  3.0000000  0  7G08G24G18G23G10G32G15
 128278640.489 6  99957466.768 6  24410625.797    24410646.566        2742.895  
      2137.094          36.000          37.000  
 127971998.570 5  99718533.847 6  24352261.694    24352281.988         172.777  
       134.285          30.000          38.000  
 113234332.282 7  88234608.472 7  21547779.203    21547794.652       -1893.965  
     -1475.844          43.000          43.000  
 109913027.339 7  85646572.210 7  20915755.067    20915769.538       -1873.434  
     -1459.934          44.000          44.000  
 107493196.287 8  83761000.079 7  20455276.529    20455292.620         -11.141  
        -8.680          48.000          44.000  
 114853375.832 7  89496224.873 6  21855869.892    21855889.154        2761.281  
      2151.641          47.000          40.000  
 127462192.472 6  99321263.399 6  24255255.131    24255269.745       -3404.344  
     -2652.801          41.000          36.000  
 24  1 10  3 23  3.1000000  0  7G08G24G18G23G10G32G15
 128278366.183 6  99957253.043 6  24410573.598    24410594.372        2742.977  
      2137.469          36.000          37.000  
 127971981.439 5  99718520.425 6  24352258.434    24352278.710         172.156  
       134.348          30.000          38.000  
 113234521.658 7  88234756.051 7  21547815.240    21547830.693       -1893.844  
     -1475.867          43.000          43.000  
 109913214.711 7  85646718.206 7  20915790.723    20915805.192       -1873.559  
     -1459.922          44.000          44.000  
 107493197.414 8  83761000.937 7  20455276.743    20455292.830         -11.223  
        -8.648          48.000          44.000  
 114853099.711 7  89496009.733 6  21855817.348    21855836.614        2761.250  
      2151.504          47.000          41.000  
 127462532.929 6  99321528.764 6  24255319.918    24255334.550       -3404.375  
     -2653.418          41.000          36.000  
 24  1 10  3 23  3.2000000  0  7G08G24G18G23G10G32G15
 128278091.947 6  99957039.342 6  24410521.202    24410542.458        2742.699  
      2136.957          36.000          36.000  
 127971964.205 4  99718506.999 6  24352255.240    24352276.033         172.359  
       134.176          29.000          38.000  
 113234711.045 7  88234903.626 7  21547850.975    21547866.224       -1893.875  
     -1475.856          44.000          43.000  
 109913402.090 7  85646864.176 7  20915826.630    20915841.284       -1873.863  
     -1459.941          44.000          44.000  
 107493198.550 8  83761001.822 7  20455276.670    20455292.780         -11.301  
        -8.965          48.000          44.000  
 114852823.584 7  89495794.548 6  21855765.092    21855783.790        2761.145  
      2151.703          47.000          41.000  
 127462873.413 6  99321794.020 6  24255384.202    24255398.703       -3404.644  
     -2652.457          41.000          36.000  
 24  1 10  3 23  3.3000000  0  7G08G24G18G23G10G32G15
 128277817.674 6  99956825.625 6  24410469.009    24410490.266        2742.723  
      2137.266          36.000          37.000  
 127971946.848 4  99718493.569 6  24352251.937    24352272.753         172.789  
       134.336          29.000          38.000  
 113234900.460 7  88235051.216 7  21547887.019    21547902.267       -1894.043  
     -1475.785          44.000          43.000  
 109913589.464 7  85647010.187 7  20915862.286    20915876.942       -1873.793  
     -1460.102          45.000          44.000  
 107493199.675 8  83761002.727 7  20455276.884    20455293.001         -11.336  
        -8.898          48.000          44.000  
 114852547.469 7  89495579.421 6  21855712.549    21855731.254        2761.188  
      2151.461          47.000          40.000  
 127463213.899 6  99322059.346 6  24255448.995    24255463.498       -3404.734  
     -2652.988          40.000          36.000  
 24  1 10  3 23  3.4000000  0  7G08G24G18G23G10G32G15
 128277543.404 6  99956611.913 6  24410416.903    24410438.271        2742.727  
      2137.023          36.000          37.000  
 127971929.588 4  99718480.103 6  24352248.442    24352269.754         172.758  
       134.414          29.000          39.000  
 113235089.853 7  88235198.773 7  21547923.060    21547938.302       -1894.074  
     -1475.856          44.000          43.000  
 109913776.816 7  85647156.199 7  20915898.422    20915912.576       -1873.531  
     -1459.922          45.000          44.000  
 107493200.798 8  83761003.579 7  20455277.262    20455292.936         -11.172  
        -8.637          48.000          44.000  
 114852271.350 7  89495364.246 6  21855660.130    21855678.511        2761.281  
      2151.641          47.000          40.000  
 127463554.329 6  99322324.657 5  24255513.214    24255527.751       -3404.500  
     -2652.875          39.000          35.000  
 24  1 10  3 23  3.5000000  0  7G08G24G18G23G10G32G15
 128277269.139 6  99956398.197 6  24410364.712    24410386.079        2742.695  
      2137.246          36.000          37.000  
 127971912.400 4  99718466.705 6  24352245.171    24352266.482         172.270  
       134.051          29.000          39.000  
 113235279.255 7  88235346.385 7  21547959.102    21547974.350       -1893.977  
     -1475.953          44.000          43.000  
 109913964.189 7  85647302.189 7  20915934.078    20915948.228       -1873.605  
     -1459.828          45.000          45.000  
 107493201.925 8  83761004.454 7  20455277.476    20455293.149         -11.273  
        -8.922          48.000          44.000  
 114851995.221 7  89495149.108 6  21855607.585    21855625.972        2761.223  
      2151.652          47.000          40.000  
 127463894.811 6  99322589.935 6  24255578.005    24255592.534       -3404.660  
     -2653.016          39.000          36.000  
 24  1 10  3 23  3.6000000  0  7G08G24G18G23G10G32G15
 128276994.895 6  99956184.497 6  24410312.814    24410333.891        2742.574  
      2137.137          36.000          37.000  
 127971895.129 5  99718453.264 6  24352241.853    24352263.496         172.703  
       134.352          30.000          39.000  
 113235468.642 7  88235493.977 7  21547994.899    21548009.698       -1893.883  
     -1475.824          44.000          42.000  
 109914151.557 7  85647448.188 7  20915969.920    20915983.937       -1873.680  
     -1460.047          45.000          45.000  
 107493203.051 8  83761005.341 7  20455277.644    20455293.647         -11.270  
        -8.711          48.000          44.000  
 114851719.103 7  89494933.911 6  21855554.760    21855572.981        2761.180  
      2151.445          47.000          40.000  
 127464235.271 6  99322855.253 6  24255642.199    24255657.328       -3404.562  
     -2652.906          39.000          36.000  
 24  1 10  3 23  3.7000000  0  7G08G24G18G23G10G32G15
 128276720.621 6  99955970.785 6  24410260.622    24410281.701        2742.641  
      2136.859          36.000          37.000  
 127971877.914 5  99718439.848 6  24352238.577    24352260.220         172.238  
       134.273          31.000          39.000  
 113235658.057 7  88235641.565 7  21548030.943    21548045.741       -1894.016  
     -1475.856          44.000          42.000  
 109914338.912 7  85647594.183 7  20916005.573    20916019.591       -1873.590  
     -1459.992          44.000          45.000  
 107493204.193 8  83761006.222 7  20455277.861    20455293.862         -11.305  
        -8.855          48.000          44.000  
 114851442.997 7  89494718.795 6  21855502.219    21855520.448        2761.137  
      2151.469          47.000          40.000  
 127464575.736 6  99323120.547 6  24255706.987    24255722.115       -3404.641  
     -2653.004          39.000          37.000  
 24  1 10  3 23  3.8000000  0  7G08G24G18G23G10G32G15
 128276446.366 6  99955757.060 6  24410208.363    24410229.546        2742.562  
      2137.031          36.000          37.000  
 127971860.690 5  99718426.411 6  24352235.190    24352256.938         172.410  
       134.285          31.000          39.000  
 113235847.459 7  88235789.138 7  21548067.219    21548081.608       -1893.984  
     -1475.801          43.000          42.000  
 109914526.275 7  85647740.196 7  20916040.563    20916055.506       -1873.594  
     -1459.984          44.000          45.000  
 107493205.326 8  83761007.104 7  20455278.186    20455294.023         -11.336  
        -8.809          48.000          44.000  
 114851166.895 7  89494503.622 6  21855449.686    21855467.564        2761.098  
      2151.523          47.000          40.000  
 127464916.147 6  99323385.828 6  24255771.406    24255787.111       -3404.383  
     -2652.750          39.000          37.000  
 24  1 10  3 23  3.9000000  0  7G08G24G18G23G10G32G15
 128276172.102 6  99955543.396 6  24410156.172    24410177.367        2742.648  
      2136.785          36.000          36.000  
 127971843.406 5  99718412.990 6  24352231.901    24352253.661         172.645  
       134.098          31.000          39.000  
 113236036.862 7  88235936.735 7  21548103.262    21548117.653       -1893.988  
     -1475.930          43.000          42.000  
 109914713.638 7  85647886.166 7  20916076.217    20916091.154       -1873.664  
     -1459.844          44.000          45.000  
 107493206.464 8  83761008.009 7  20455278.403    20455294.244         -11.289  
        -8.828          48.000          44.000  
 114850890.783 7  89494288.486 6  21855397.144    21855415.026        2761.043  
      2151.484          47.000          40.000  
 127465256.644 6  99323651.126 6  24255836.200    24255851.899       -3404.692  
     -2652.879          39.000          37.000  
 24  1 10  3 23  4.0000000  0  7G08G24G18G23G10G32G15
 128275897.890 6  99955329.644 6  24410104.100    24410125.307        2742.371  
      2137.164          36.000          36.000  
 127971826.268 5  99718399.573 6  24352228.812    24352250.392         171.969  
       134.301          31.000          39.000  
 113236226.315 7  88236084.341 7  21548139.235    21548154.254       -1894.281  
     -1476.051          43.000          43.000  
 109914901.003 7  85648032.176 7  20916111.410    20916126.936       -1873.730  
     -1460.215          44.000          45.000  
 107493207.628 8  83761008.913 7  20455278.538    20455294.473         -11.535  
        -9.098          48.000          44.000  
 114850614.704 7  89494073.352 6  21855344.639    21855362.707        2760.898  
      2151.215          47.000          41.000  
 127465597.096 6  99323916.412 6  24255900.791    24255917.106       -3404.547  
     -2653.023          38.000          38.000  
 24  1 10  3 23  4.1000000  0  7G08G24G18G23G10G32G15
 128275623.650 6  99955116.022 6  24410051.914    24410073.139        2742.371  
      2136.566          36.000          36.000  
 127971809.023 5  99718386.182 6  24352225.530    24352247.122         172.145  
       134.004          31.000          39.000  
 113236415.728 7  88236231.932 7  21548175.279    21548190.297       -1894.332  
     -1476.090          42.000          43.000  
 109915088.397 7  85648178.218 7  20916147.070    20916162.601       -1873.828  
     -1460.219          44.000          45.000  
 107493208.792 8  83761009.801 7  20455278.760    20455294.690         -11.648  
        -9.160          48.000          44.000  
 114850338.649 7  89493858.244 6  21855292.107    21855310.175        2760.789  
      2151.312          47.000          41.000  
 127465937.578 6  99324181.730 6  24255965.582    24255981.900       -3404.797  
     -2653.051          38.000          38.000  
 24  1 10  3 23  4.2000000  0  7G08G24G18G23G10G32G15
 128275349.435 6  99954902.336 6  24409999.873    24410021.118        2742.355  
      2136.879          37.000          37.000  
 127971791.843 5  99718372.738 6  24352221.855    24352243.675         171.996  
       134.234          32.000          39.000  
 113236605.159 7  88236379.535 7  21548211.085    21548226.938       -1894.293  
     -1475.914          42.000          43.000  
 109915275.784 7  85648324.218 7  20916183.033    20916198.052       -1873.824  
     -1460.203          44.000          45.000  
 107493209.959 8  83761010.727 7  20455278.951    20455294.916         -11.621  
        -9.086          48.000          44.000  
 114850062.555 7  89493643.115 6  21855239.483    21855258.357        2760.820  
      2151.066          47.000          41.000  
 127466278.038 6  99324447.036 6  24256029.870    24256046.987       -3404.524  
     -2652.980          38.000          38.000  
 24  1 10  3 23  4.3000000  0  7G08G24G18G23G10G32G15
 128275075.181 6  99954688.606 6  24409947.685    24409968.923        2742.348  
      2137.121          37.000          37.000  
 127971774.671 5  99718359.349 6  24352218.587    24352240.405         171.930  
       134.004          31.000          39.000  
 113236794.615 7  88236527.147 7  21548247.137    21548262.986       -1894.344  
     -1476.215          42.000          43.000  
 109915463.179 7  85648470.222 7  20916218.694    20916233.708       -1873.926  
     -1460.043          45.000          45.000  
 107493211.117 8  83761011.619 7  20455279.171    20455295.133         -11.613  
        -9.039          48.000          44.000  
 114849786.486 7  89493427.971 6  21855186.948    21855205.817        2760.734  
      2151.438          47.000          41.000  
 127466618.510 6  99324712.328 6  24256094.659    24256111.774       -3404.680  
     -2652.820          37.000          38.000  
 24  1 10  3 23  4.4000000  0  7G08G24G18G23G10G32G15
 128274800.942 6  99954474.940 6  24409895.616    24409916.713        2742.512  
      2136.809          37.000          37.000  
 127971757.396 5  99718345.945 6  24352215.206    24352236.811         172.207  
       133.828          31.000          39.000  
 113236984.012 7  88236674.772 7  21548283.248    21548299.444       -1894.230  
     -1476.293          43.000          43.000  
 109915650.552 7  85648616.229 7  20916254.756    20916269.271       -1873.777  
     -1460.137          45.000          44.000  
 107493212.285 8  83761012.534 7  20455279.698    20455295.240         -11.641  
        -9.020          48.000          44.000  
 114849510.386 7  89493212.831 6  21855134.283    21855153.113        2760.840  
      2151.148          47.000          41.000  
 127466958.995 6  99324977.629 6  24256159.084    24256177.368       -3404.688  
     -2653.184          36.000          38.000  
 24  1 10  3 23  4.5000000  0  7G08G24G18G23G10G32G15
 128274526.659 6  99954261.186 6  24409843.422    24409864.512        2742.605  
      2137.145          36.000          37.000  
 127971740.162 5  99718332.546 6  24352211.926    24352233.539         172.352  
       134.086          31.000          39.000  
 113237173.414 7  88236822.361 7  21548319.290    21548335.486       -1894.062  
     -1475.773          43.000          43.000  
 109915837.916 7  85648762.247 7  20916290.410    20916304.930       -1873.629  
     -1459.914          45.000          44.000  
 107493213.416 8  83761013.407 7  20455279.913    20455295.453         -11.430  
        -8.805          48.000          44.000  
 114849234.298 7  89492997.716 6  21855081.745    21855100.580        2760.961  
      2151.410          47.000          41.000  
 127467299.408 6  99325242.922 6  24256223.863    24256242.155       -3404.406  
     -2652.664          36.000          38.000  
 24  1 10  3 23  4.6000000  0  7G08G24G18G23G10G32G15
 128274252.387 6  99954047.498 6  24409791.042    24409812.296        2742.684  
      2136.902          37.000          37.000  
 127971723.082 5  99718319.120 6  24352208.254    24352230.323         171.445  
       134.109          30.000          39.000  
 113237362.852 7  88236969.957 7  21548355.542    21548371.242       -1894.086  
     -1475.883          43.000          43.000  
 109916025.297 7  85648908.246 7  20916326.325    20916340.561       -1873.668  
     -1460.078          45.000          44.000  
 107493214.567 8  83761014.316 7  20455279.827    20455295.823         -11.434  
        -9.062          48.000          44.000  
 114848958.223 7  89492782.580 6  21855029.171    21855048.448        2760.816  
      2151.180          47.000          40.000  
 127467639.866 6  99325508.193 6  24256288.564    24256306.929       -3404.520  
     -2652.820          36.000          38.000  
 24  1 10  3 23  4.7000000  0  7G08G24G18G23G10G32G15
 128273978.147 6  99953833.812 6  24409738.856    24409760.111        2742.477  
      2136.789          37.000          37.000  
 127971705.837 4  99718305.718 6  24352204.973    24352227.050         172.117  
       134.285          29.000          39.000  
 113237552.314 7  88237117.599 7  21548391.596    21548407.297       -1894.387  
     -1476.324          43.000          43.000  
 109916212.662 7  85649054.250 7  20916361.980    20916376.216       -1873.703  
     -1460.070          45.000          44.000  
 107493215.716 8  83761015.215 7  20455280.046    20455296.043         -11.539  
        -8.973          48.000          44.000  
 114848682.152 7  89492567.461 6  21854976.637    21854995.914        2760.809  
      2151.270          47.000          40.000  
 127467980.322 6  99325773.518 6  24256353.351    24256371.724       -3404.535  
     -2653.152          36.000          38.000  
 24  1 10  3 23  4.8000000  0  7G08G24G18G23G10G32G15
 128273703.935 6  99953620.117 6  24409686.323    24409708.112        2742.445  
      2136.867          37.000          37.000  
 127971688.630 5  99718292.368 6  24352201.526    24352223.751         172.102  
       133.504          30.000          38.000  
 113237741.760 7  88237265.202 7  21548427.255    21548442.273       -1894.566  
     -1476.375          42.000          43.000  
 109916400.048 7  85649200.271 7  20916397.325    20916411.368       -1873.789  
     -1460.141          44.000          45.000  
 107493216.888 8  83761016.124 7  20455280.597    20455296.577         -11.574  
        -9.027          48.000          45.000  
 114848406.087 7  89492352.337 6  21854924.361    21854943.394        2760.730  
      2151.145          47.000          40.000  
 127468320.802 6  99326038.810 6  24256417.743    24256436.410       -3404.774  
     -2652.824          36.000          38.000  
 24  1 10  3 23  4.9000000  0  7G08G24G18G23G10G32G15
 128273429.698 6  99953406.409 6  24409634.138    24409655.923        2742.285  
      2136.816          37.000          37.000  
 127971671.476 5  99718278.990 6  24352198.262    24352220.484         171.855  
       133.742          30.000          38.000  
 113237931.218 7  88237412.838 7  21548463.308    21548478.327       -1894.609  
     -1476.461          42.000          43.000  
 109916587.433 7  85649346.277 7  20916432.984    20916447.025       -1873.859  
     -1460.320          44.000          44.000  
 107493218.078 8  83761017.025 7  20455280.824    20455296.797         -11.746  
        -9.172          48.000          45.000  
 114848130.042 7  89492137.271 6  21854871.831    21854890.873        2760.484  
      2150.898          47.000          40.000  
 127468661.316 6  99326304.124 6  24256482.541    24256501.202       -3404.953  
     -2653.270          36.000          38.000  
 24  1 10  3 23  5.0000000  0  7G08G24G18G23G10G32G15
 128273155.438 6  99953192.753 6  24409582.378    24409603.410        2742.453  
      2136.688          36.000          37.000  
 127971654.324 5  99718265.646 6  24352195.155    24352216.905         171.656  
       133.379          30.000          38.000  
 113238120.691 7  88237560.499 7  21548499.598    21548514.700       -1894.527  
     -1476.414          43.000          43.000  
 109916774.841 7  85649492.345 7  20916468.419    20916483.172       -1873.895  
     -1460.359          44.000          44.000  
 107493219.248 8  83761017.959 7  20455281.109    20455296.994         -11.738  
        -9.305          48.000          45.000  
 114847853.998 7  89491922.167 6  21854819.177    21854837.748        2760.500  
      2150.996          47.000          40.000  
 127469001.844 6  99326569.480 6  24256547.240    24256566.544       -3405.078  
     -2653.297          36.000          38.000  
 24  1 10  3 23  5.1000000  0  7G08G24G18G23G10G32G15
 128272881.238 6  99952979.053 6  24409530.199    24409551.222        2742.223  
      2136.883          36.000          37.000  
 127971637.175 5  99718252.287 6  24352191.891    24352213.642         171.570  
       133.500          30.000          38.000  
 113238310.164 7  88237708.150 7  21548535.654    21548550.758       -1894.801  
     -1476.551          43.000          43.000  
 109916962.265 7  85649638.358 7  20916504.085    20916518.830       -1874.184  
     -1460.211          44.000          45.000  
 107493220.436 8  83761018.888 7  20455281.335    20455297.221         -11.910  
        -9.301          48.000          45.000  
 114847577.949 7  89491707.064 6  21854766.647    21854785.218        2760.473  
      2150.945          47.000          40.000  
 127469342.340 6  99326834.816 6  24256612.034    24256631.342       -3405.031  
     -2653.242          37.000          38.000  
 24  1 10  3 23  5.2000000  0  7G08G24G18G23G10G32G15
 128272606.969 6  99952765.354 6  24409478.000    24409499.081        2742.430  
      2137.055          36.000          37.000  
 127971620.008 5  99718238.899 6  24352188.702    24352210.552         171.750  
       133.945          30.000          38.000  
 113238499.653 7  88237855.757 7  21548572.095    21548586.915       -1894.895  
     -1476.449          43.000          43.000  
 109917149.668 7  85649784.379 7  20916539.145    20916554.873       -1874.066  
     -1460.266          44.000          44.000  
 107493221.627 8  83761019.810 7  20455281.468    20455297.321         -11.840  
        -9.270          48.000          45.000  
 114847301.909 7  89491491.956 6  21854714.219    21854732.881        2760.402  
      2151.113          47.000          40.000  
 127469682.837 6  99327100.137 6  24256677.024    24256696.589       -3404.988  
     -2653.238          37.000          38.000  
 24  1 10  3 23  5.3000000  0  7G08G24G18G23G10G32G15
 128272332.794 6  99952551.690 6  24409425.826    24409446.903        2742.176  
      2136.551          36.000          37.000  
 127971602.953 5  99718225.554 6  24352185.457    24352207.293         171.129  
       133.398          30.000          38.000  
 113238689.138 7  88238003.453 7  21548608.153    21548622.984       -1894.770  
     -1476.602          43.000          43.000  
 109917337.083 7  85649930.429 7  20916574.809    20916590.540       -1874.137  
     -1460.559          44.000          44.000  
 107493222.834 8  83761020.743 7  20455281.697    20455297.549         -11.996  
        -9.344          48.000          45.000  
 114847025.890 7  89491276.887 6  21854661.695    21854680.359        2760.336  
      2150.727          47.000          40.000  
 127470023.334 6  99327365.434 6  24256741.818    24256761.377       -3404.953  
     -2652.887          37.000          37.000  
 24  1 10  3 23  5.4000000  0  7G08G24G18G23G10G32G15
 128272058.547 6  99952338.043 6  24409373.529    24409394.603        2742.340  
      2136.730          37.000          37.000  
 127971585.729 4  99718212.220 6  24352182.328    24352204.162         171.621  
       133.617          29.000          38.000  
 113238878.665 7  88238151.082 7  21548643.890    21548659.020       -1895.031  
     -1476.301          43.000          43.000  
 109917524.507 7  85650076.477 7  20916610.623    20916625.714       -1874.129  
     -1460.477          44.000          44.000  
 107493224.039 8  83761021.695 7  20455281.692    20455297.821         -11.977  
        -9.434          48.000          45.000  
 114846749.866 7  89491061.792 6  21854608.825    21854627.800        2760.250  
      2150.926          47.000          40.000  
 127470363.851 6  99327630.793 6  24256806.452    24256826.626       -3404.969  
     -2653.613          37.000          37.000  
 24  1 10  3 23  5.5000000  0  7G08G24G18G23G10G32G15
 128271784.344 6  99952124.349 6  24409321.350    24409342.416        2742.203  
      2136.680          36.000          37.000  
 127971568.697 4  99718198.876 6  24352179.087    24352200.903         171.203  
       133.410          29.000          38.000  
 113239068.146 7  88238298.710 7  21548679.947    21548695.073       -1894.957  
     -1476.543          43.000          43.000  
 109917711.923 7  85650222.516 7  20916646.287    20916661.378       -1874.164  
     -1460.281          44.000          44.000  
 107493225.247 8  83761022.641 7  20455281.922    20455298.052         -12.066  
        -9.383          48.000          45.000  
 114846473.849 7  89490846.712 6  21854556.301    21854575.275        2760.277  
      2151.047          47.000          39.000  
 127470704.312 6  99327896.104 6  24256871.240    24256891.417       -3404.922  
     -2653.156          37.000          37.000  
 24  1 10  3 23  5.6000000  0  7G08G24G18G23G10G32G15
 128271510.185 6  99951910.692 6  24409268.913    24409290.669        2741.816  
      2136.672          36.000          37.000  
 127971551.570 4  99718185.548 6  24352175.531    24352197.109         170.984  
       133.199          29.000          38.000  
 113239257.619 7  88238446.399 7  21548715.519    21548731.406       -1894.875  
     -1476.863          42.000          43.000  
 109917899.357 7  85650368.552 7  20916682.423    20916696.956       -1874.270  
     -1460.465          45.000          44.000  
 107493226.454 8  83761023.558 7  20455282.043    20455298.612         -12.094  
        -9.465          48.000          45.000  
 114846197.827 7  89490631.658 6  21854503.838    21854522.515        2760.238  
      2150.641          47.000          39.000  
 127471044.926 6  99328161.479 6  24256936.463    24256956.147       -3405.356  
     -2653.746          36.000          37.000  
 24  1 10  3 23  5.7000000  0  7G08G24G18G23G10G32G15
 128271235.956 6  99951696.992 6  24409216.729    24409238.481        2742.199  
      2136.840          36.000          37.000  
 127971534.446 4  99718172.218 6  24352172.272    24352193.854         171.219  
       133.359          29.000          38.000  
 113239447.132 7  88238594.110 7  21548751.582    21548767.478       -1894.770  
     -1476.680          42.000          43.000  
 109918086.737 7  85650514.582 7  20916718.081    20916732.618       -1874.027  
     -1460.180          45.000          45.000  
 107493227.635 8  83761024.497 7  20455282.267    20455298.841         -11.836  
        -9.242          48.000          45.000  
 114845921.789 7  89490416.547 6  21854451.310    21854469.982        2760.266  
      2150.832          47.000          39.000  
 127471385.405 6  99328426.724 6  24257001.254    24257020.922       -3405.164  
     -2652.910          36.000          37.000  
 24  1 10  3 23  5.8000000  0  7G08G24G18G23G10G32G15
 128270961.602 6  99951483.254 6  24409164.420    24409186.589        2742.848  
      2137.395          36.000          37.000  
 127971517.455 4  99718158.910 6  24352169.094    24352190.565         170.375  
       132.820          29.000          38.000  
 113239636.678 7  88238741.794 7  21548787.425    21548802.880       -1895.191  
     -1476.895          42.000          42.000  
 109918274.151 7  85650660.609 7  20916753.877    20916768.748       -1874.000  
     -1460.219          45.000          45.000  
 107493228.795 8  83761025.375 7  20455282.715    20455299.188         -11.746  
        -8.879          48.000          45.000  
 114845645.789 7  89490201.463 6  21854398.953    21854417.519        2760.207  
      2150.914          47.000          39.000  
 127471725.831 6  99328692.061 6  24257065.941    24257085.587       -3404.774  
     -2653.211          36.000          37.000  
 24  1 10  3 23  5.9000000  0  7G08G24G18G23G10G32G15
 128270687.275 6  99951269.442 6  24409112.217    24409134.374        2743.016  
      2138.168          36.000          37.000  
 127971500.325 4  99718145.611 6  24352165.834    24352187.317         170.965  
       133.000          29.000          38.000  
 113239826.187 7  88238889.436 7  21548823.487    21548838.936       -1895.359  
     -1476.812          43.000          42.000  
 109918461.516 7  85650806.608 7  20916789.531    20916804.402       -1873.891  
     -1460.125          45.000          45.000  
 107493229.917 8  83761026.258 7  20455282.928    20455299.404         -11.410  
        -8.703          48.000          45.000  
 114845369.792 7  89489986.385 6  21854346.433    21854364.995        2759.996  
      2150.695          47.000          39.000  
 127472066.351 6  99328957.373 6  24257130.740    24257150.379       -3404.953  
     -2653.191          37.000          37.000  
 24  1 10  3 23  6.0000000  0  7G08G24G18G23G10G32G15
 128270412.801 5  99951055.559 6  24409060.627    24409081.758        2743.961  
      2138.555          35.000          37.000  
 127971483.318 5  99718132.329 6  24352162.879    24352184.152         170.438  
       132.926          32.000          39.000  
 113240015.737 7  88239037.139 7  21548859.877    21548874.608       -1895.348  
     -1477.008          44.000          42.000  
 109918648.904 7  85650952.584 7  20916825.237    20916839.372       -1873.824  
     -1459.805          44.000          44.000  
 107493231.023 7  83761027.094 7  20455283.381    20455299.639         -11.160  
        -8.449          47.000          45.000  
 114845093.802 7  89489771.321 6  21854293.843    21854312.302        2760.027  
      2150.730          47.000          40.000  
 127472406.852 6  99329222.690 6  24257195.676    24257215.087       -3404.934  
     -2653.219          38.000          37.000  
 24  1 10  3 23  6.1000000  0  7G08G24G18G23G10G32G15
 128270138.416 5  99950841.738 6  24409008.414    24409029.541        2743.758  
      2138.441          34.000          37.000  
 127971466.310 5  99718119.035 6  24352159.642    24352180.905         170.262  
       132.914          33.000          39.000  
 113240205.323 7  88239184.855 7  21548895.954    21548910.682       -1895.629  
     -1477.211          44.000          42.000  
 109918836.289 7  85651098.590 7  20916860.895    20916875.028       -1873.887  
     -1460.055          44.000          44.000  
 107493232.138 7  83761027.984 7  20455283.593    20455299.857         -11.184  
        -8.773          47.000          45.000  
 114844817.850 7  89489556.315 6  21854241.331    21854259.795        2759.684  
      2150.242          47.000          41.000  
 127472747.320 6  99329487.969 6  24257260.465    24257279.870       -3404.723  
     -2652.672          38.000          37.000  
 24  1 10  3 23  6.2000000  0  7G08G24G18G23G10G32G15
 128269864.015 5  99950627.890 6  24408955.947    24408977.200        2743.953  
      2138.496          35.000          36.000  
 127971449.237 5  99718105.825 6  24352156.487    24352177.671         170.582  
       132.254          35.000          39.000  
 113240394.866 7  88239332.551 7  21548932.703    21548947.196       -1895.543  
     -1476.930          44.000          43.000  
 109919023.623 7  85651244.586 7  20916896.349    20916910.697       -1873.594  
     -1459.945          44.000          44.000  
 107493233.222 7  83761028.852 7  20455283.596    20455300.162         -11.035  
        -8.785          47.000          45.000  
 114844541.886 7  89489341.271 6  21854188.872    21854207.584        2759.625  
      2150.340          47.000          41.000  
 127473087.746 6  99329753.261 6  24257325.792    24257344.556       -3404.484  
     -2653.125          38.000          38.000  
 24  1 10  3 23  6.3000000  0  7G08G24G18G23G10G32G15
 128269589.676 6  99950414.091 6  24408903.742    24408924.988        2743.605  
      2137.852          36.000          36.000  
 127971432.177 6  99718092.593 6  24352153.241    24352174.440         170.445  
       132.855          37.000          38.000  
 113240584.469 7  88239480.272 7  21548968.783    21548983.271       -1895.777  
     -1477.250          44.000          43.000  
 109919211.006 7  85651390.628 7  20916932.006    20916946.362       -1873.539  
     -1460.172          43.000          44.000  
 107493234.372 7  83761029.778 7  20455283.815    20455300.388         -11.211  
        -9.023          46.000          45.000  
 114844265.966 7  89489126.258 7  21854136.366    21854155.076        2759.453  
      2150.016          47.000          42.000  
 127473428.167 6  99330018.538 6  24257390.572    24257409.339       -3404.406  
     -2652.836          37.000          38.000  
 24  1 10  3 23  6.4000000  0  7G08G24G18G23G10G32G15
 128269315.361 6  99950200.378 6  24408851.557    24408872.836        2743.547  
      2137.387          37.000          36.000  
 127971415.213 6  99718079.209 6  24352150.403    24352170.523         170.078  
       133.559          37.000          38.000  
 113240774.027 7  88239627.993 7  21549004.902    21549020.322       -1895.695  
     -1477.184          44.000          43.000  
 109919398.387 7  85651536.632 7  20916967.390    20916982.439       -1873.910  
     -1460.102          43.000          44.000  
 107493235.551 7  83761030.703 7  20455283.883    20455300.161         -11.648  
        -9.402          46.000          45.000  
 114843990.024 7  89488911.231 7  21854084.051    21854102.619        2759.344  
      2150.246          46.000          42.000  
 127473768.669 6  99330283.849 6  24257455.485    24257474.115       -3404.558  
     -2652.906          36.000          37.000  
 24  1 10  3 23  6.5000000  0  7G08G24G18G23G10G32G15
 128269041.076 6  99949986.614 6  24408799.362    24408820.633        2743.062  
      2137.770          37.000          37.000  
 127971398.104 6  99718065.873 6  24352147.147    24352167.266         170.691  
       133.383          37.000          38.000  
 113240963.554 7  88239775.662 7  21549040.967    21549056.384       -1895.383  
     -1476.711          44.000          43.000  
 109919585.774 7  85651682.610 7  20917003.049    20917018.089       -1873.785  
     -1459.824          43.000          45.000  
 107493236.718 7  83761031.609 7  20455284.105    20455300.382         -11.672  
        -9.098          45.000          45.000  
 114843714.075 7  89488696.190 7  21854031.540    21854050.103        2759.465  
      2150.223          46.000          42.000  
 127474109.062 6  99330549.205 6  24257520.260    24257538.918       -3404.363  
     -2653.543          36.000          37.000  
 24  1 10  3 23  6.6000000  0  7G08G24G18G23G10G32G15
 128268766.872 6  99949772.858 6  24408747.113    24408768.604        2742.520  
      2137.430          37.000          38.000  
 127971380.936 6  99718052.497 6  24352143.591    24352164.086         171.188  
       133.949          37.000          38.000  
 113241153.050 7  88239923.304 7  21549076.981    21549092.456       -1895.211  
     -1476.496          44.000          44.000  
 109919773.123 7  85651828.571 7  20917038.442    20917053.703       -1873.590  
     -1459.785          43.000          45.000  
 107493237.885 7  83761032.501 7  20455284.413    20455300.850         -11.652  
        -9.078          45.000          45.000  
 114843438.099 7  89488481.159 7  21853978.593    21853997.661        2759.695  
      2150.379          46.000          42.000  
 127474449.482 6  99330814.425 6  24257585.133    24257603.312       -3404.406  
     -2652.246          36.000          36.000  
 24  1 10  3 23  6.7000000  0  7G08G24G18G23G10G32G15
 128268492.662 6  99949559.190 6  24408694.932    24408716.424        2742.473  
      2136.676          38.000          39.000  
 127971363.719 6  99718039.111 6  24352140.315    24352160.817         171.625  
       133.781          37.000          38.000  
 113241342.472 7  88240070.926 7  21549113.026    21549128.506       -1894.625  
     -1476.332          44.000          44.000  
 109919960.468 7  85651974.551 7  20917074.093    20917089.353       -1873.535  
     -1459.566          43.000          45.000  
 107493239.036 7  83761033.431 7  20455284.632    20455301.078         -11.539  
        -9.086          45.000          45.000  
 114843162.113 7  89488266.111 7  21853926.075    21853945.144        2759.836  
      2150.801          45.000          43.000  
 127474789.911 6  99331079.574 6  24257649.915    24257668.064       -3404.246  
     -2651.758          37.000          36.000  
 24  1 10  3 23  6.8000000  0  7G08G24G18G23G10G32G15
 128268218.375 6  99949345.558 6  24408642.761    24408664.229        2742.586  
      2136.352          37.000          41.000  
 127971346.569 6  99718025.713 6  24352136.606    24352157.553         171.574  
       133.742          36.000          38.000  
 113241531.895 7  88240218.571 7  21549149.111    21549164.915       -1894.188  
     -1476.008          44.000          44.000  
 109920147.812 7  85652120.486 7  20917110.509    20917124.343       -1873.523  
     -1459.691          44.000          45.000  
 107493240.168 7  83761034.303 7  20455285.051    20455301.001         -11.367  
        -8.875          45.000          45.000  
 114842886.083 7  89488050.974 7  21853873.681    21853892.730        2760.191  
      2151.188          45.000          43.000  
 127475130.429 6  99331344.861 6  24257714.736    24257732.397       -3404.742  
     -2652.582          37.000          36.000  
 24  1 10  3 23  6.9000000  0  7G08G24G18G23G10G32G15
 128267944.248 6  99949131.949 6  24408590.596    24408612.064        2741.836  
      2136.309          36.000          41.000  
 127971329.492 5  99718012.354 6  24352133.357    24352154.290         171.105  
       133.582          34.000          38.000  
 113241721.328 7  88240366.132 7  21549185.159    21549200.950       -1894.379  
     -1475.641          43.000          44.000  
 109920335.156 7  85652266.474 7  20917146.159    20917159.995       -1873.480  
     -1459.816          44.000          44.000  
 107493241.304 7  83761035.209 7  20455285.267    20455301.223         -11.410  
        -9.004          45.000          44.000  
 114842609.992 7  89487835.847 7  21853821.143    21853840.194        2760.516  
      2151.168          45.000          42.000  
 127475470.916 6  99331610.229 6  24257779.529    24257797.202       -3404.898  
     -2653.633          37.000          36.000  
 24  1 10  3 23  7.0000000  0  7G08G24G18G23G10G32G15
 128267670.146 5  99948918.323 6  24408538.858    24408560.050        2741.453  
      2136.156          35.000          41.000  
 127971312.248 5  99717999.029 6  24352129.841    24352151.450         171.793  
       133.250          33.000          38.000  
 113241910.768 7  88240513.714 7  21549221.146    21549236.804       -1894.414  
     -1476.004          44.000          44.000  
 109920522.468 7  85652412.462 7  20917181.858    20917195.482       -1873.160  
     -1459.715          44.000          44.000  
 107493242.475 7  83761036.117 7  20455285.474    20455301.226         -11.512  
        -9.016          46.000          44.000  
 114842333.891 7  89487620.729 7  21853768.743    21853787.785        2760.895  
      2151.203          44.000          42.000  
 127475811.425 6  99331875.617 6  24257844.138    24257862.412       -3404.914  
     -2653.742          37.000          36.000  
 24  1 10  3 23  7.1000000  0  7G08G24G18G23G10G32G15
 128267396.041 5  99948704.759 6  24408486.698    24408507.896        2741.254  
      2135.875          35.000          41.000  
 127971295.111 5  99717985.770 6  24352126.580    24352148.212         171.520  
       132.773          33.000          38.000  
 113242100.190 7  88240661.283 7  21549257.192    21549272.842       -1894.453  
     -1475.906          44.000          44.000  
 109920709.848 7  85652558.479 7  20917217.516    20917231.141       -1873.520  
     -1459.992          44.000          44.000  
 107493243.640 7  83761037.015 7  20455285.696    20455301.445         -11.609  
        -9.047          46.000          43.000  
 114842057.756 7  89487405.594 7  21853716.196    21853735.247        2760.977  
      2151.328          44.000          42.000  
 127476151.909 6  99332140.865 6  24257908.930    24257927.188       -3404.965  
     -2652.641          36.000          36.000  
 24  1 10  3 23  7.2000000  0  7G08G24G18G23G10G32G15
 128267121.916 5  99948491.123 6  24408434.549    24408455.942        2741.242  
      2136.207          35.000          41.000  
 127971277.980 5  99717972.411 6  24352123.195    24352145.090         171.250  
       133.605          34.000          38.000  
 113242289.579 7  88240808.890 7  21549293.286    21549308.490       -1894.027  
     -1475.941          44.000          43.000  
 109920897.230 7  85652704.449 7  20917252.212    20917266.625       -1873.762  
     -1460.020          45.000          44.000  
 107493244.804 7  83761037.913 7  20455285.847    20455301.594         -11.668  
        -8.883          46.000          43.000  
 114841781.654 7  89487190.421 7  21853663.179    21853682.450        2761.035  
      2151.789          43.000          42.000  
 127476492.393 5  99332406.239 6  24257973.761    24257991.807       -3404.789  
     -2653.676          35.000          36.000  
 24  1 10  3 23  7.3000000  0  7G08G24G18G23G10G32G15
 128266847.813 6  99948277.550 6  24408382.389    24408403.786        2741.062  
      2135.812          36.000          40.000  
 127971260.970 6  99717958.962 6  24352119.958    24352141.806         170.746  
       134.309          36.000          38.000  
 113242478.970 7  88240956.478 7  21549329.326    21549344.533       -1893.949  
     -1475.742          44.000          43.000  
 109921084.570 7  85652850.440 7  20917287.862    20917302.277       -1873.652  
     -1460.004          45.000          44.000  
 107493245.966 7  83761038.773 7  20455286.068    20455301.804         -11.645  
        -8.645          47.000          42.000  
 114841505.497 7  89486975.228 7  21853610.629    21853629.897        2761.340  
      2151.898          44.000          42.000  
 127476832.871 5  99332671.556 6  24258038.552    24258056.600       -3404.828  
     -2653.203          34.000          37.000  
 24  1 10  3 23  7.4000000  0  7G08G24G18G23G10G32G15
 128266573.775 6  99948063.986 6  24408329.819    24408351.342        2740.738  
      2135.543          37.000          40.000  
 127971243.884 6  99717945.644 6  24352117.183    24352138.522         170.832  
       133.020          38.000          38.000  
 113242668.379 7  88241104.086 7  21549365.369    21549380.487       -1893.883  
     -1475.930          44.000          43.000  
 109921271.899 7  85652996.465 7  20917323.853    20917338.446       -1873.316  
     -1460.121          44.000          45.000  
 107493247.140 7  83761039.651 7  20455286.541    20455301.776         -11.598  
        -8.801          47.000          42.000  
 114841229.338 7  89486760.038 7  21853557.944    21853577.244        2761.594  
      2151.902          44.000          42.000  
 127477173.464 5  99332936.882 6  24258103.247    24258121.536       -3405.359  
     -2653.508          35.000          37.000  
 24  1 10  3 23  7.5000000  0  7G08G24G18G23G10G32G15
 128266299.698 6  99947850.487 6  24408277.664    24408299.204        2740.836  
      2135.098          37.000          39.000  
 127971226.772 6  99717932.412 6  24352113.927    24352135.291         171.020  
       132.582          39.000          38.000  
 113242857.753 7  88241251.651 7  21549401.406    21549416.523       -1894.023  
     -1475.856          44.000          43.000  
 109921459.293 7  85653142.503 7  20917359.513    20917374.110       -1873.648  
     -1459.973          44.000          45.000  
 107493248.323 7  83761040.578 7  20455286.767    20455302.002         -11.797  
        -9.391          47.000          42.000  
 114840953.168 7  89486544.843 7  21853505.391    21853524.691        2761.551  
      2151.984          45.000          42.000  
 127477514.052 6  99333202.279 6  24258168.059    24258186.349       -3405.629  
     -2654.000          37.000          38.000  
 24  1 10  3 23  7.6000000  0  7G08G24G18G23G10G32G15
 128266025.561 6  99947636.947 6  24408225.404    24408246.969        2741.051  
      2135.520          37.000          39.000  
 127971209.711 6  99717919.085 6  24352110.946    24352132.372         170.766  
       133.574          38.000          38.000  
 113243047.152 7  88241399.197 7  21549437.783    21549452.704       -1894.035  
     -1475.625          43.000          44.000  
 109921646.723 7  85653288.483 7  20917395.391    20917409.299       -1874.113  
     -1460.059          44.000          45.000  
 107493249.538 7  83761041.532 7  20455287.177    20455302.454         -11.953  
        -9.438          46.000          42.000  
 114840677.011 7  89486329.657 7  21853452.832    21853472.484        2761.605  
      2151.973          45.000          42.000  
 127477854.649 6  99333467.702 6  24258232.912    24258251.926       -3405.797  
     -2654.062          39.000          38.000  
 24  1 10  3 23  7.7000000  0  7G08G24G18G23G10G32G15
 128265751.515 6  99947423.421 6  24408173.255    24408194.824        2740.617  
      2135.492          37.000          38.000  
 127971192.545 6  99717905.754 6  24352107.679    24352129.117         171.492  
       133.039          37.000          38.000  
 113243236.612 7  88241546.826 7  21549473.836    21549488.757       -1894.250  
     -1476.078          43.000          44.000  
 109921834.147 7  85653434.528 7  20917431.056    20917444.964       -1874.141  
     -1460.668          44.000          45.000  
 107493250.766 7  83761042.496 7  20455287.411    20455302.690         -12.129  
        -9.766          46.000          42.000  
 114840400.850 7  89486114.475 7  21853400.281    21853419.935        2761.527  
      2151.750          45.000          42.000  
 127478195.271 6  99333733.093 6  24258297.730    24258316.737       -3406.035  
     -2654.016          39.000          39.000  
 24  1 10  3 23  7.8000000  0  7G08G24G18G23G10G32G15
 128265477.554 6  99947209.802 6  24408121.090    24408142.156        2740.227  
      2136.273          37.000          37.000  
 127971175.376 5  99717892.509 6  24352104.271    24352125.788         171.148  
       132.609          35.000          39.000  
 113243426.068 7  88241694.433 7  21549509.920    21549524.452       -1894.559  
     -1476.129          43.000          44.000  
 109922021.591 7  85653580.657 7  20917467.265    20917480.689       -1874.312  
     -1461.055          43.000          45.000  
 107493252.033 7  83761043.472 7  20455287.262    20455303.186         -12.555  
        -9.844          46.000          42.000  
 114840124.705 7  89485899.292 7  21853347.982    21853367.268        2761.551  
      2151.836          45.000          42.000  
 127478535.888 6  99333998.447 6  24258363.117    24258382.203       -3406.078  
     -2653.828          39.000          39.000  
 24  1 10  3 23  7.9000000  0  7G08G24G18G23G10G32G15
 128265203.559 6  99946996.315 6  24408068.951    24408090.020        2740.059  
      2134.816          37.000          36.000  
 127971158.519 6  99717879.125 6  24352101.064    24352122.520         169.973  
       133.711          36.000          38.000  
 113243615.568 7  88241842.064 7  21549545.980    21549560.505       -1894.832  
     -1476.656          44.000          44.000  
 109922209.105 7  85653726.762 7  20917502.947    20917516.370       -1874.828  
     -1461.195          43.000          45.000  
 107493253.352 7  83761044.497 7  20455287.513    20455303.436         -12.820  
       -10.105          46.000          43.000  
 114839848.571 7  89485684.129 7  21853295.435    21853314.723        2761.359  
      2151.641          45.000          42.000  
 127478876.579 6  99334263.872 6  24258427.949    24258447.023       -3406.547  
     -2654.238          40.000          40.000  
 24  1 10  3 23  8.0000000  0  7G08G24G18G23G10G32G15
 128264929.576 6  99946782.879 6  24408016.822    24408037.311        2739.953  
      2134.684          37.000          36.000  
 127971141.523 6  99717865.837 6  24352097.798    24352119.556         170.023  
       132.949          37.000          38.000  
 113243805.103 7  88241989.784 7  21549582.110    21549596.369       -1895.062  
     -1476.887          44.000          44.000  
 109922396.670 7  85653872.941 7  20917538.241    20917552.935       -1875.328  
     -1461.770          43.000          45.000  
 107493254.695 7  83761045.545 7  20455287.612    20455303.505         -13.168  
       -10.535          46.000          43.000  
 114839572.489 7  89485468.997 7  21853243.117    21853262.318        2761.113  
      2151.328          44.000          42.000  
 127479217.277 6  99334529.394 6  24258493.125    24258512.210       -3406.758  
     -2654.996          40.000          41.000  
 24  1 10  3 23  8.1000000  0  7G08G24G18G23G10G32G15
 128264655.661 6  99946569.383 6  24407964.697    24407985.173        2739.484  
      2134.773          37.000          37.000  
 127971124.564 6  99717852.610 6  24352094.571    24352116.326         169.699  
       132.320          39.000          38.000  
 113243994.698 7  88242137.476 7  21549618.189    21549632.437       -1895.680  
     -1477.180          45.000          44.000  
 109922584.301 7  85654019.110 7  20917573.946    20917588.631       -1875.957  
     -1461.996          43.000          44.000  
 107493256.068 7  83761046.615 7  20455287.873    20455303.766         -13.520  
       -10.766          46.000          43.000  
 114839296.410 7  89485253.853 7  21853190.581    21853209.778        2760.875  
      2151.418          44.000          42.000  
 127479558.043 6  99334794.910 7  24258557.971    24258577.051       -3407.164  
     -2655.066          41.000          42.000  
 24  1 10  3 23  8.2000000  0  7G08G24G18G23G10G32G15
 128264381.719 6  99946355.913 6  24407912.865    24407933.174        2739.531  
      2134.930          38.000          37.000  
 127971107.618 6  99717839.492 6  24352091.503    24352112.333         169.695  
       131.477          39.000          38.000  
 113244184.312 7  88242285.227 7  21549654.389    21549668.582       -1895.809  
     -1477.426          45.000          44.000  
 109922771.895 7  85654165.303 7  20917609.129    20917624.419       -1875.945  
     -1462.000          44.000          44.000  
 107493257.477 7  83761047.701 7  20455288.219    20455304.117         -13.758  
       -10.668          46.000          43.000  
 114839020.327 7  89485038.712 6  21853138.193    21853156.894        2760.879  
      2151.332          43.000          41.000  
 127479898.763 6  99335060.376 7  24258623.261    24258642.193       -3407.328  
     -2654.879          41.000          42.000  
 24  1 10  3 23  8.3000000  0  7G08G24G18G23G10G32G15
 128264107.719 6  99946142.396 6  24407860.724    24407881.031        2739.828  
      2135.098          38.000          38.000  
 127971090.619 6  99717826.298 6  24352088.268    24352109.111         169.738  
       131.984          39.000          38.000  
 113244373.920 7  88242432.989 7  21549690.470    21549704.667       -1896.039  
     -1477.727          45.000          44.000  
 109922959.532 7  85654311.500 7  20917644.835    20917660.122       -1876.000  
     -1461.676          43.000          44.000  
 107493258.846 7  83761048.744 7  20455288.480    20455304.372         -13.816  
       -10.730          45.000          43.000  
 114838744.240 7  89484823.589 6  21853085.655    21853104.359        2760.898  
      2151.359          43.000          41.000  
 127480239.510 6  99335325.887 7  24258688.103    24258707.034       -3407.394  
     -2655.023          41.000          42.000  
 24  1 10  3 23  8.4000000  0  7G08G24G18G23G10G32G15
 128263833.695 6  99945928.890 6  24407808.337    24407829.344        2740.055  
      2134.938          39.000          39.000  
 127971073.794 6  99717813.121 6  24352085.004    24352105.135         168.945  
       131.562          40.000          38.000  
 113244563.525 7  88242580.775 7  21549726.839    21549740.750       -1896.008  
     -1477.836          45.000          44.000  
 109923147.167 7  85654457.689 7  20917680.728    20917696.299       -1876.156  
     -1462.016          44.000          43.000  
 107493260.223 7  83761049.804 7  20455288.859    20455305.443         -13.695  
       -10.547          45.000          43.000  
 114838468.161 7  89484608.465 7  21853033.190    21853051.886        2760.773  
      2151.148          43.000          42.000  
 127480580.276 7  99335591.423 7  24258753.331    24258771.763       -3407.371  
     -2655.102          42.000          42.000  
 24  1 10  3 23  8.5000000  0  7G08G24G18G23G10G32G15
 128263559.657 6  99945715.350 6  24407756.189    24407777.195        2740.254  
      2135.551          39.000          40.000  
 127971056.999 6  99717800.003 6  24352081.808    24352101.932         168.309  
       131.020          41.000          39.000  
 113244753.211 7  88242728.615 7  21549762.936    21549776.854       -1896.414  
     -1478.031          46.000          44.000  
 109923334.804 7  85654603.926 7  20917716.434    20917732.012       -1876.289  
     -1462.137          44.000          43.000  
 107493261.583 7  83761050.868 7  20455289.118    20455305.703         -13.652  
       -10.625          44.000          44.000  
 114838192.141 7  89484393.368 7  21852980.665    21852999.357        2760.434  
      2150.805          43.000          42.000  
 127480921.043 7  99335856.948 6  24258818.177    24258836.607       -3407.566  
     -2655.289          42.000          41.000  
 24  1 10  3 23  8.6000000  0  7G08G24G18G23G10G32G15
 128263285.580 6  99945501.775 6  24407703.667    24407725.562        2740.574  
      2135.777          40.000          40.000  
 127971040.169 6  99717786.904 6  24352078.386    24352098.592         168.477  
       131.215          41.000          40.000  
 113244942.938 7  88242876.408 7  21549799.125    21549813.376       -1896.977  
     -1478.082          45.000          44.000  
 109923522.439 7  85654750.094 7  20917752.109    20917767.184       -1876.188  
     -1461.648          43.000          43.000  
 107493262.943 7  83761051.921 7  20455289.080    20455305.780         -13.609  
       -10.449          43.000          44.000  
 114837916.136 7  89484178.305 7  21852927.971    21852946.813        2760.215  
      2150.637          43.000          42.000  
 127481261.821 7  99336122.446 6  24258883.580    24258901.062       -3407.633  
     -2655.027          43.000          41.000  
 24  1 10  3 23  8.7000000  0  7G08G24G18G23G10G32G15
 128263011.447 6  99945288.152 6  24407651.501    24407673.393        2740.934  
      2136.070          40.000          41.000  
 127971023.390 6  99717773.833 6  24352075.193    24352095.400         168.105  
       130.941          41.000          41.000  
 113245132.669 7  88243024.255 7  21549835.230    21549849.482       -1897.305  
     -1478.891          44.000          45.000  
 109923710.082 7  85654896.253 7  20917787.816    20917802.878       -1876.488  
     -1462.020          43.000          42.000  
 107493264.263 7  83761052.950 7  20455289.331    20455306.032         -13.426  
       -10.449          43.000          44.000  
 114837640.185 7  89483963.278 7  21852875.459    21852894.302        2759.883  
      2150.445          43.000          42.000  
 127481602.564 7  99336387.946 6  24258948.421    24258965.900       -3407.609  
     -2655.160          42.000          41.000  
 24  1 10  3 23  8.8000000  0  7G08G24G18G23G10G32G15
 128262737.292 6  99945074.524 6  24407599.886    24407621.504        2741.305  
      2136.246          40.000          41.000  
 127971006.651 6  99717760.754 6  24352071.985    24352093.097         167.617  
       130.508          40.000          41.000  
 113245322.482 7  88243172.198 7  21549870.413    21549886.267       -1897.652  
     -1479.023          44.000          45.000  
 109923897.706 7  85655042.521 7  20917823.426    20917838.137       -1876.258  
     -1462.344          44.000          42.000  
 107493265.617 7  83761054.030 7  20455289.729    20455306.014         -13.301  
       -10.504          43.000          43.000  
 114837364.284 7  89483748.283 7  21852822.684    21852841.438        2759.449  
      2150.055          43.000          42.000  
 127481943.362 7  99336653.547 6  24259012.929    24259030.520       -3407.602  
     -2655.523          42.000          41.000  
 24  1 10  3 23  8.9000000  0  7G08G24G18G23G10G32G15
 128262463.146 6  99944860.905 6  24407547.718    24407569.336        2741.273  
      2136.250          40.000          41.000  
 127970989.929 6  99717747.739 7  24352068.802    24352089.919         167.547  
       130.242          40.000          42.000  
 113245512.337 7  88243320.090 7  21549906.541    21549922.384       -1898.230  
     -1479.098          43.000          45.000  
 109924085.381 7  85655188.764 7  20917859.139    20917873.851       -1876.574  
     -1462.367          44.000          42.000  
 107493266.996 7  83761055.086 7  20455289.992    20455306.272         -13.684  
       -10.594          43.000          43.000  
 114837088.384 7  89483533.281 7  21852770.182    21852788.932        2759.016  
      2149.734          43.000          42.000  
 127482284.105 7  99336919.065 6  24259077.770    24259095.362       -3407.711  
     -2655.480          42.000          40.000  
 24  1 10  3 23  9.0000000  0  7G08G24G18G23G10G32G15
 128262188.986 6  99944647.282 6  24407495.539    24407516.940        2741.500  
      2136.172          40.000          40.000  
 127970973.157 6  99717734.675 7  24352065.345    24352087.095         167.535  
       130.559          40.000          42.000  
 113245702.205 7  88243468.039 7  21549942.211    21549958.351       -1898.270  
     -1479.172          43.000          45.000  
 109924273.049 7  85655334.995 7  20917895.187    20917909.320       -1876.676  
     -1462.551          44.000          42.000  
 107493268.414 7  83761056.164 7  20455290.137    20455306.371         -14.027  
       -10.891          42.000          43.000  
 114836812.548 7  89483318.327 7  21852717.988    21852736.626        2758.699  
      2149.637          43.000          43.000  
 127482624.850 7  99337184.564 6  24259141.823    24259159.418       -3407.484  
     -2654.945          42.000          40.000  
 24  1 10  3 23  9.1000000  0  7G08G24G18G23G10G32G15
 128261914.844 6  99944433.669 6  24407443.371    24407464.774        2741.457  
      2136.117          39.000          40.000  
 127970956.344 6  99717721.576 7  24352062.146    24352083.896         167.895  
       130.789          41.000          42.000  
 113245892.024 7  88243615.913 7  21549978.332    21549994.463       -1898.398  
     -1479.074          42.000          45.000  
 109924460.715 7  85655481.203 7  20917930.899    20917945.025       -1876.688  
     -1462.047          44.000          42.000  
 107493269.804 7  83761057.234 7  20455290.401    20455306.633         -14.043  
       -11.070          42.000          43.000  
 114836536.707 7  89483103.399 7  21852665.498    21852684.138        2758.598  
      2149.441          44.000          43.000  
 127482965.560 7  99337450.044 6  24259206.658    24259224.251       -3407.254  
     -2654.859          42.000          41.000  
 24  1 10  3 23  9.2000000  0  7G08G24G18G23G10G32G15
 128261640.686 6  99944220.035 6  24407391.287    24407412.704        2741.637  
      2136.383          39.000          40.000  
 127970939.547 6  99717708.514 7  24352059.395    24352081.105         168.012  
       130.812          41.000          42.000  
 113246081.800 7  88243763.806 7  21550014.336    21550030.760       -1897.879  
     -1478.805          43.000          45.000  
 109924648.332 7  85655627.380 7  20917966.554    20917980.629       -1876.277  
     -1461.836          44.000          42.000  
 107493271.165 7  83761058.317 7  20455290.527    20455306.960         -13.793  
       -10.758          43.000          43.000  
 114836260.865 7  89482888.455 7  21852613.186    21852631.959        2758.473  
      2149.332          43.000          42.000  
 127483306.260 7  99337715.512 6  24259271.186    24259289.847       -3407.144  
     -2654.652          42.000          41.000  
 24  1 10  3 23  9.3000000  0  7G08G24G18G23G10G32G15
 128261366.479 6  99944006.395 6  24407339.107    24407360.531        2741.746  
      2136.309          39.000          40.000  
 127970922.756 6  99717695.418 7  24352056.200    24352077.907         167.891  
       131.023          41.000          42.000  
 113246271.568 7  88243911.706 7  21550050.447    21550066.878       -1897.617  
     -1478.887          44.000          45.000  
 109924835.931 7  85655773.557 7  20918002.253    20918016.327       -1876.105  
     -1461.801          44.000          42.000  
 107493272.517 7  83761059.375 7  20455290.785    20455307.218         -13.391  
       -10.418          43.000          43.000  
 114835985.040 7  89482673.522 7  21852560.699    21852579.470        2758.383  
      2149.316          44.000          42.000  
 127483646.930 7  99337980.988 6  24259336.013    24259354.679       -3406.824  
     -2654.590          42.000          41.000  
 24  1 10  3 23  9.4000000  0  7G08G24G18G23G10G32G15
 128261092.333 6  99943792.757 6  24407286.556    24407308.389        2741.641  
      2136.199          38.000          40.000  
 127970905.971 6  99717682.344 7  24352052.998    24352074.909         168.020  
       130.867          41.000          43.000  
 113246461.332 7  88244059.619 7  21550087.777    21550102.946       -1897.699  
     -1479.098          44.000          45.000  
 109925023.536 7  85655919.764 7  20918038.203    20918052.423       -1876.102  
     -1462.000          44.000          42.000  
 107493273.868 7  83761060.442 7  20455291.135    20455307.221         -13.586  
       -10.574          43.000          43.000  
 114835709.229 7  89482458.620 7  21852507.815    21852526.857        2758.184  
      2149.004          44.000          42.000  
 127483987.604 7  99338246.430 6  24259400.873    24259419.112       -3406.785  
     -2654.395          42.000          41.000  
 24  1 10  3 23  9.5000000  0  7G08G24G18G23G10G32G15
 128260818.187 6  99943579.133 6  24407234.388    24407256.220        2741.520  
      2136.129          39.000          40.000  
 127970889.145 6  99717669.217 7  24352049.796    24352071.703         167.996  
       130.910          41.000          42.000  
 113246651.101 7  88244207.522 7  21550123.889    21550139.065       -1897.637  
     -1478.977          44.000          45.000  
 109925211.088 7  85656065.935 7  20918073.893    20918088.120       -1875.750  
     -1461.672          44.000          42.000  
 107493275.238 7  83761061.489 7  20455291.396    20455307.476         -13.676  
       -10.520          43.000          43.000  
 114835433.433 7  89482243.702 7  21852455.333    21852474.371        2758.098  
      2148.961          44.000          42.000  
 127484328.260 7  99338511.882 6  24259465.697    24259483.938       -3406.699  
     -2654.582          42.000          40.000  
 24  1 10  3 23  9.6000000  0  7G08G24G18G23G10G32G15
 128260544.040 6  99943365.517 6  24407182.094    24407203.693        2741.523  
      2136.219          38.000          40.000  
 127970872.297 6  99717656.125 7  24352046.472    24352068.686         168.344  
       131.020          41.000          43.000  
 113246840.909 7  88244355.399 7  21550159.969    21550174.186       -1897.887  
     -1478.547          44.000          45.000  
 109925398.680 7  85656212.091 7  20918109.763    20918123.578       -1875.770  
     -1461.336          44.000          42.000  
 107493276.594 7  83761062.548 7  20455291.248    20455307.891         -13.574  
       -10.672          43.000          43.000  
 114835157.642 7  89482028.812 7  21852403.094    21852422.018        2757.977  
      2149.062          44.000          42.000  
 127484668.894 7  99338777.310 6  24259530.213    24259548.415       -3406.516  
     -2654.430          42.000          40.000  
 24  1 10  3 23  9.7000000  0  7G08G24G18G23G10G32G15
 128260269.865 6  99943151.876 6  24407129.921    24407151.520        2741.684  
      2136.246          38.000          40.000  
 127970855.455 6  99717642.973 7  24352043.268    24352065.474         168.309  
       131.480          41.000          42.000  
 113247030.665 7  88244503.219 7  21550196.078    21550210.285       -1897.699  
     -1478.422          43.000          45.000  
 109925586.215 7  85656358.201 7  20918145.450    20918159.260       -1875.645  
     -1461.305          44.000          42.000  
 107493277.955 7  83761063.596 7  20455291.507    20455308.147         -13.566  
       -10.484          42.000          43.000  
 114834881.845 7  89481813.893 7  21852350.611    21852369.532        2757.895  
      2149.035          44.000          42.000  
 127485009.524 7  99339042.744 6  24259595.033    24259613.236       -3406.336  
     -2654.297          42.000          40.000  
 24  1 10  3 23  9.8000000  0  7G08G24G18G23G10G32G15
 128259995.728 6  99942938.274 6  24407077.527    24407099.607        2741.512  
      2135.992          38.000          39.000  
 127970838.608 6  99717629.859 7  24352039.991    24352062.311         168.516  
       131.453          41.000          42.000  
 113247220.378 7  88244651.037 7  21550231.062    21550247.524       -1897.539  
     -1478.430          42.000          45.000  
 109925773.738 7  85656504.333 7  20918180.876    20918195.001       -1875.340  
     -1461.312          44.000          42.000  
 107493279.282 7  83761064.630 7  20455291.908    20455308.736         -13.406  
       -10.508          42.000          43.000  
 114834606.075 7  89481599.004 7  21852297.751    21852317.281        2757.867  
      2149.000          44.000          42.000  
 127485350.103 7  99339308.125 6  24259659.765    24259677.772       -3406.113  
     -2654.191          42.000          40.000  
 24  1 10  3 23  9.9000000  0  7G08G24G18G23G10G32G15
 128259721.600 6  99942724.650 6  24407025.362    24407047.437        2741.371  
      2136.250          38.000          39.000  
 127970821.767 6  99717616.680 7  24352036.787    24352059.092         168.250  
       131.418          41.000          42.000  
 113247410.121 6  88244798.882 7  21550267.169    21550283.629       -1897.410  
     -1478.324          41.000          45.000  
 109925961.281 7  85656650.470 7  20918216.564    20918230.689       -1875.320  
     -1461.133          44.000          42.000  
 107493280.641 7  83761065.689 7  20455292.167    20455308.994         -13.488  
       -10.434          43.000          43.000  
 114834330.300 7  89481384.120 7  21852245.273    21852264.804        2757.797  
      2148.828          44.000          42.000  
 127485690.699 7  99339573.545 6  24259724.578    24259742.590       -3406.043  
     -2654.062          42.000          40.000  
 24  1 10  3 23 10.0000000  0  7G08G24G18G23G10G32G15
 128259447.472 6  99942511.011 6  24406973.315    24406995.053        2741.352  
      2136.312          38.000          39.000  
 127970804.916 6  99717603.570 7  24352033.408    24352056.187         168.520  
       131.242          41.000          42.000  
 113247599.859 6  88244946.710 7  21550302.213    21550319.824       -1897.340  
     -1478.152          40.000          45.000  
 109926148.786 7  85656796.548 7  20918252.058    20918266.277       -1875.297  
     -1461.004          44.000          42.000  
 107493281.972 7  83761066.736 7  20455292.607    20455308.992         -13.344  
       -10.379          43.000          43.000  
 114834054.534 7  89481169.260 7  21852192.976    21852212.036        2757.805  
      2148.832          44.000          42.000  
 127486031.277 7  99339838.935 6  24259789.403    24259807.463       -3405.867  
     -2653.762          42.000          40.000  
 24  1 10  3 23 10.1000000  0  7G08G24G18G23G10G32G15
 128259173.359 6  99942297.444 6  24406921.153    24406942.898        2741.242  
      2135.859          38.000          39.000  
 127970788.055 6  99717590.434 7  24352030.200    24352052.979         168.574  
       131.465          40.000          42.000  
 113247789.590 6  88245094.508 7  21550338.317    21550355.918       -1897.379  
     -1478.297          40.000          45.000  
 109926336.310 7  85656942.674 7  20918287.742    20918301.963       -1875.227  
     -1461.293          44.000          42.000  
 107493283.361 7  83761067.822 7  20455292.872    20455309.257         -13.637  
       -10.746          43.000          43.000  
 114833778.782 7  89480954.386 7  21852140.502    21852159.562        2757.609  
      2148.613          44.000          42.000  
 127486371.837 7  99340104.294 6  24259854.210    24259872.266       -3405.738  
     -2653.672          43.000          40.000  
 24  1 10  3 23 10.2000000  0  7G08G24G18G23G10G32G15
 128258899.284 6  99942083.871 6  24406869.248    24406891.124        2740.926  
      2135.656          38.000          40.000  
 127970771.106 6  99717577.248 7  24352026.826    24352049.658         169.004  
       131.699          40.000          42.000  
 113247979.333 6  88245242.377 7  21550374.432    21550392.131       -1897.273  
     -1478.312          41.000          45.000  
 109926523.833 7  85657088.839 7  20918323.591    20918338.087       -1875.223  
     -1461.512          44.000          42.000  
 107493284.771 7  83761068.912 7  20455293.413    20455309.430         -13.992  
       -11.039          43.000          43.000  
 114833503.062 7  89480739.548 7  21852088.660    21852106.901        2757.398  
      2148.402          44.000          42.000  
 127486712.401 7  99340369.688 6  24259919.345    24259936.875       -3405.660  
     -2653.785          43.000          40.000  
 24  1 10  3 23 10.3000000  0  7G08G24G18G23G10G32G15
 128258625.218 6  99941870.307 6  24406817.095    24406838.970        2740.816  
      2135.750          38.000          40.000  
 127970754.232 6  99717564.075 7  24352023.615    24352046.441         168.898  
       131.730          39.000          42.000  
 113248169.016 7  88245390.179 7  21550410.528    21550428.226       -1897.059  
     -1478.262          42.000          45.000  
 109926711.351 7  85657234.953 7  20918359.274    20918373.770       -1875.258  
     -1461.391          44.000          42.000  
 107493286.175 7  83761070.007 7  20455293.681    20455309.697         -13.984  
       -10.914          43.000          43.000  
 114833227.331 7  89480524.663 7  21852036.190    21852054.424        2757.281  
      2148.617          44.000          42.000  
 127487052.927 7  99340635.015 6  24259984.145    24260001.671       -3405.484  
     -2653.406          43.000          40.000  
 24  1 10  3 23 10.4000000  0  7G08G24G18G23G10G32G15
 128258351.164 6  99941656.763 6  24406764.882    24406787.266        2740.699  
      2135.496          38.000          40.000  
 127970737.314 6  99717550.893 7  24352020.153    24352043.089         169.102  
       131.750          39.000          43.000  
 113248358.694 7  88245538.020 7  21550447.747    21550463.713       -1896.934  
     -1478.059          43.000          45.000  
 109926898.867 7  85657381.108 7  20918395.247    20918408.830       -1875.121  
     -1461.356          44.000          42.000  
 107493287.590 7  83761071.116 7  20455294.067    20455310.031         -14.180  
       -11.102          43.000          43.000  
 114832951.623 7  89480309.823 7  21851983.482    21852002.044        2757.160  
      2148.449          44.000          42.000  
 127487393.481 7  99340900.381 6  24260049.208    24260066.804       -3405.422  
     -2653.531          43.000          41.000  
 24  1 10  3 23 10.5000000  0  7G08G24G18G23G10G32G15
 128258077.084 6  99941443.206 6  24406712.726    24406735.113        2740.754  
      2135.570          38.000          40.000  
 127970720.380 6  99717537.713 7  24352016.931    24352039.870         169.340  
       132.016          39.000          43.000  
 113248548.341 7  88245685.773 7  21550483.836    21550499.795       -1896.715  
     -1477.840          43.000          46.000  
 109927086.338 7  85657527.176 7  20918430.921    20918444.501       -1874.984  
     -1460.762          44.000          42.000  
 107493288.963 7  83761072.181 7  20455294.328    20455310.291         -13.887  
       -10.617          43.000          43.000  
 114832675.865 7  89480094.960 7  21851931.007    21851949.572        2757.367  
      2148.547          44.000          42.000  
 127487733.989 7  99341165.682 6  24260114.005    24260131.593       -3405.336  
     -2653.305          43.000          41.000  
 24  1 10  3 23 10.6000000  0  7G08G24G18G23G10G32G15
 128257802.998 6  99941229.626 6  24406660.280    24406682.751        2740.848  
      2135.684          39.000          40.000  
 127970703.354 6  99717524.448 7  24352013.402    24352036.865         169.715  
       132.418          38.000          42.000  
 113248737.944 7  88245833.530 7  21550521.111    21550536.145       -1896.234  
     -1477.531          44.000          46.000  
 109927273.773 7  85657673.232 7  20918466.643    20918479.451       -1874.484  
     -1460.336          44.000          42.000  
 107493290.334 7  83761073.253 7  20455294.589    20455310.115         -13.602  
       -10.445          43.000          43.000  
 114832400.114 7  89479880.099 7  21851878.330    21851897.351        2757.516  
      2148.836          44.000          42.000  
 127488074.467 7  99341431.003 6  24260178.671    24260197.005       -3404.969  
     -2653.051          42.000          41.000  
 24  1 10  3 23 10.7000000  0  7G08G24G18G23G10G32G15
 128257528.950 6  99941016.077 6  24406608.131    24406630.600        2740.566  
      2135.391          39.000          40.000  
 127970686.420 6  99717511.231 7  24352010.179    24352033.637         169.406  
       132.043          38.000          43.000  
 113248927.594 7  88245981.324 7  21550557.200    21550572.238       -1896.363  
     -1477.680          44.000          46.000  
 109927461.229 7  85657819.249 7  20918502.315    20918515.109       -1874.566  
     -1460.082          44.000          42.000  
 107493291.690 7  83761074.302 7  20455294.847    20455310.371         -13.598  
       -10.703          42.000          43.000  
 114832124.398 7  89479665.250 7  21851825.863    21851844.882        2757.379  
      2148.395          44.000          42.000  
 127488414.988 7  99341696.351 7  24260243.469    24260261.805       -3405.078  
     -2653.340          42.000          42.000  
 24  1 10  3 23 10.8000000  0  7G08G24G18G23G10G32G15
 128257254.896 6  99940802.530 6  24406555.925    24406577.895        2740.652  
      2135.680          39.000          40.000  
 127970669.435 6  99717498.051 7  24352006.885    24352030.294         169.750  
       131.980          38.000          43.000  
 113249117.134 7  88246129.024 7  21550592.941    21550608.011       -1895.887  
     -1477.359          43.000          45.000  
 109927648.628 7  85657965.264 7  20918537.531    20918550.979       -1874.293  
     -1460.527          44.000          42.000  
 107493293.014 7  83761075.357 7  20455294.818    20455310.652         -13.465  
       -10.527          42.000          43.000  
 114831848.628 7  89479450.368 7  21851773.378    21851792.132        2757.484  
      2148.637          44.000          42.000  
 127488755.430 7  99341961.616 7  24260307.964    24260327.055       -3404.828  
     -2652.934          42.000          42.000  
 24  1 10  3 23 10.9000000  0  7G08G24G18G23G10G32G15
 128256980.804 6  99940588.941 6  24406503.767    24406525.735        2740.727  
      2135.766          39.000          40.000  
 127970652.395 6  99717484.791 7  24352003.642    24352027.055         169.965  
       132.418          38.000          43.000  
 113249306.729 7  88246276.793 7  21550629.019    21550644.097       -1895.758  
     -1477.332          43.000          45.000  
 109927836.017 7  85658111.312 7  20918573.190    20918586.645       -1873.984  
     -1460.422          44.000          42.000  
 107493294.310 7  83761076.388 7  20455295.065    20455310.904         -13.148  
       -10.223          42.000          43.000  
 114831572.861 7  89479235.500 7  21851720.901    21851739.660        2757.602  
      2148.777          44.000          42.000  
 127489095.923 7  99342226.963 7  24260372.758    24260391.855       -3404.672  
     -2653.184          43.000          42.000  
 24  1 10  3 23 11.0000000  0  7G08G24G18G23G10G32G15
 128256706.735 6  99940375.385 6  24406451.887    24406473.402        2740.727  
      2135.641          39.000          40.000  
 127970635.531 6  99717471.591 7  24352000.714    24352024.441         169.359  
       132.117          39.000          43.000  
 113249496.322 7  88246424.513 7  21550664.316    21550679.914       -1896.125  
     -1477.426          43.000          45.000  
 109928023.427 7  85658257.358 7  20918608.376    20918623.217       -1874.070  
     -1460.367          44.000          42.000  
 107493295.661 7  83761077.413 7  20455295.447    20455311.748         -13.359  
       -10.344          42.000          43.000  
 114831297.137 7  89479020.635 7  21851668.659    21851687.211        2757.523  
      2148.742          44.000          42.000  
 127489436.372 7  99342492.255 7  24260437.293    24260456.611       -3404.742  
     -2653.098          43.000          42.000  
 24  1 10  3 23 11.1000000  0  7G08G24G18G23G10G32G15
 128256432.715 6  99940161.849 6  24406399.743    24406421.255        2740.445  
      2135.363          39.000          41.000  
 127970618.533 6  99717458.340 7  24351997.480    24352021.205         169.770  
       132.457          39.000          43.000  
 113249685.929 7  88246572.232 7  21550700.398    21550715.989       -1896.012  
     -1477.188          44.000          45.000  
 109928210.828 7  85658403.403 7  20918644.037    20918658.883       -1874.055  
     -1460.340          44.000          42.000  
 107493297.006 7  83761078.472 7  20455295.702    20455312.007         -13.500  
       -10.680          42.000          43.000  
 114831021.378 7  89478805.770 7  21851616.184    21851634.738        2757.414  
      2148.559          44.000          42.000  
 127489776.861 7  99342757.552 6  24260502.086    24260521.399       -3404.808  
     -2652.891          43.000          41.000  
 24  1 10  3 23 11.2000000  0  7G08G24G18G23G10G32G15
 128256158.709 6  99939948.345 6  24406347.453    24406369.498        2740.250  
      2135.062          39.000          41.000  
 127970601.480 6  99717445.064 7  24351994.539    24352018.112         170.113  
       132.719          40.000          43.000  
 113249875.537 7  88246719.963 7  21550737.283    21550752.418       -1896.020  
     -1477.156          45.000          45.000  
 109928398.256 7  85658549.435 7  20918679.633    20918695.147       -1874.219  
     -1460.473          44.000          42.000  
 107493298.403 7  83761079.573 7  20455296.156    20455312.400         -13.691  
       -10.871          42.000          43.000  
 114830745.650 7  89478590.917 7  21851563.582    21851582.121        2757.383  
      2148.488          44.000          42.000  
 127490117.332 7  99343022.852 6  24260567.259    24260586.071       -3404.742  
     -2653.109          43.000          41.000  
 24  1 10  3 23 11.3000000  0  7G08G24G18G23G10G32G15
 128255884.718 6  99939734.876 6  24406295.314    24406317.366        2740.031  
      2134.566          39.000          41.000  
 127970584.474 6  99717431.833 7  24351991.303    24352014.880         170.012  
       132.297          39.000          43.000  
 113250065.153 7  88246867.697 7  21550773.366    21550788.496       -1896.211  
     -1477.625          44.000          45.000  
 109928585.688 7  85658695.510 7  20918715.301    20918730.820       -1874.293  
     -1460.770          44.000          42.000  
 107493299.835 7  83761080.667 7  20455296.428    20455312.668         -14.047  
       -11.152          42.000          43.000  
 114830469.952 7  89478376.083 7  21851511.118    21851529.656        2757.168  
      2148.270          44.000          42.000  
 127490457.824 7  99343288.193 6  24260632.052    24260650.870       -3404.824  
     -2653.371          42.000          41.000  
 24  1 10  3 23 11.4000000  0  7G08G24G18G23G10G32G15
 128255610.771 6  99939521.385 6  24406243.098    24406265.003        2739.836  
      2135.102          39.000          41.000  
 127970567.529 6  99717418.600 7  24351988.118    24352011.211         169.793  
       132.434          39.000          43.000  
 113250254.668 7  88247015.420 7  21550809.672    21550824.282       -1895.570  
     -1477.242          43.000          45.000  
 109928773.124 7  85658841.564 7  20918751.148    20918765.949       -1874.371  
     -1460.516          44.000          42.000  
 107493301.245 7  83761081.767 7  20455296.767    20455312.671         -14.074  
       -10.953          42.000          43.000  
 114830194.203 7  89478161.215 7  21851458.872    21851477.246        2757.242  
      2148.586          44.000          42.000  
 127490798.250 7  99343553.466 6  24260696.731    24260715.519       -3404.644  
     -2653.039          42.000          41.000  
 24  1 10  3 23 11.5000000  0  7G08G24G18G23G10G32G15
 128255336.765 6  99939307.889 6  24406190.956    24406212.865        2739.895  
      2134.863          40.000          41.000  
 127970550.540 6  99717405.376 7  24351984.885    24352007.982         169.840  
       132.121          39.000          43.000  
 113250444.261 7  88247163.194 7  21550845.750    21550860.370       -1895.637  
     -1477.441          43.000          45.000  
 109928960.576 7  85658987.613 7  20918786.819    20918801.616       -1874.469  
     -1460.539          44.000          42.000  
 107493302.669 7  83761082.872 7  20455297.038    20455312.940         -14.137  
       -11.199          43.000          43.000  
 114829918.523 7  89477946.405 7  21851406.412    21851424.787        2757.098  
      2148.242          44.000          43.000  
 127491138.711 6  99343818.790 6  24260761.519    24260780.314       -3404.453  
     -2652.750          41.000          41.000  
 24  1 10  3 23 11.6000000  0  7G08G24G18G23G10G32G15
 128255062.808 6  99939094.415 6  24406139.339    24406161.287        2739.750  
      2134.707          40.000          41.000  
 127970533.557 6  99717392.147 7  24351981.372    24352004.736         169.852  
       132.355          39.000          43.000  
 113250633.896 7  88247310.945 7  21550881.540    21550896.343       -1896.141  
     -1477.621          43.000          45.000  
 109929148.049 7  85659133.717 7  20918822.447    20918837.256       -1874.547  
     -1460.957          44.000          42.000  
 107493304.134 7  83761084.021 7  20455297.512    20455313.268         -14.477  
       -11.270          43.000          43.000  
 114829642.828 7  89477731.560 7  21851353.824    21851372.421        2756.953  
      2148.211          44.000          43.000  
 127491479.181 6  99344084.047 6  24260825.988    24260844.366       -3404.703  
     -2652.844          41.000          40.000  
 24  1 10  3 23 11.7000000  0  7G08G24G18G23G10G32G15
 128254788.850 6  99938880.934 6  24406087.207    24406109.153        2739.605  
      2134.859          40.000          41.000  
 127970516.601 6  99717378.925 7  24351978.145    24352001.507         169.688  
       132.309          39.000          42.000  
 113250823.538 7  88247458.694 7  21550917.627    21550932.425       -1896.309  
     -1477.441          44.000          45.000  
 109929335.530 7  85659279.789 7  20918858.123    20918872.929       -1874.750  
     -1460.625          43.000          42.000  
 107493305.589 7  83761085.137 7  20455297.789    20455313.541         -14.406  
       -11.293          43.000          43.000  
 114829367.153 7  89477516.759 7  21851301.364    21851319.965        2757.035  
      2148.371          44.000          43.000  
 127491819.686 7  99344349.379 6  24260890.784    24260909.163       -3404.816  
     -2653.156          42.000          40.000  
 24  1 10  3 23 11.8000000  0  7G08G24G18G23G10G32G15
 128254514.892 6  99938667.454 6  24406034.825    24406056.988        2739.668  
      2134.711          40.000          41.000  
 127970499.624 6  99717365.680 7  24351974.688    24351998.186         169.777  
       132.383          39.000          42.000  
 113251013.185 7  88247606.412 7  21550954.419    21550968.663       -1896.492  
     -1477.438          45.000          45.000  
 109929522.981 7  85659425.813 6  20918893.716    20918908.511       -1874.637  
     -1460.762          44.000          41.000  
 107493307.046 7  83761086.293 7  20455297.910    20455313.737         -14.539  
       -11.387          42.000          43.000  
 114829091.468 7  89477301.931 7  21851248.310    21851267.611        2756.824  
      2148.051          44.000          43.000  
 127492160.163 7  99344614.666 6  24260955.840    24260973.417       -3404.887  
     -2653.172          42.000          40.000  
 24  1 10  3 23 11.9000000  0  7G08G24G18G23G10G32G15
 128254240.916 6  99938453.981 6  24405982.689    24406004.856        2739.680  
      2134.773          40.000          41.000  
 127970482.577 6  99717352.480 7  24351971.444    24351994.963         170.098  
       131.895          39.000          42.000  
 113251202.812 7  88247754.154 7  21550990.504    21551004.743       -1896.352  
     -1477.621          45.000          45.000  
 109929710.453 7  85659571.951 6  20918929.391    20918944.200       -1874.539  
     -1460.938          44.000          41.000  
 107493308.485 7  83761087.410 7  20455298.184    20455314.010         -14.492  
       -11.367          42.000          43.000  
 114828815.784 7  89477087.123 7  21851195.849    21851215.152        2756.938  
      2148.094          44.000          43.000  
 127492500.624 7  99344880.008 6  24261020.628    24261038.217       -3404.641  
     -2653.047          42.000          40.000  
 24  1 10  3 23 12.0000000  0  7G08G24G18G23G10G32G15
 128253966.973 6  99938240.532 6  24405930.536    24405952.495        2739.488  
      2134.531          40.000          41.000  
 127970465.642 6  99717339.274 6  24351968.471    24351990.605         169.633  
       132.090          39.000          41.000  
 113251392.396 7  88247901.932 7  21551026.291    21551041.184       -1895.949  
     -1477.512          44.000          45.000  
 109929897.917 7  85659718.008 6  20918965.525    20918979.431       -1874.703  
     -1460.734          44.000          41.000  
 107493309.911 7  83761088.540 7  20455298.252    20455314.239         -14.352  
       -11.293          42.000          43.000  
 114828540.025 7  89476872.247 7  21851143.576    21851162.888        2757.160  
      2148.668          44.000          43.000  
 127492841.123 6  99345145.293 6  24261085.172    24261102.619       -3404.867  
     -2653.160          41.000          40.000  
 24  1 10  3 23 12.1000000  0  7G08G24G18G23G10G32G15
 128253693.132 6  99938027.081 6  24405878.425    24405900.368        2738.855  
      2134.355          39.000          41.000  
 127970448.711 6  99717326.001 6  24351965.250    24351987.363         169.629  
       132.586          40.000          40.000  
 113251581.972 7  88248049.664 7  21551062.366    21551077.261       -1895.844  
     -1477.106          44.000          45.000  
 109930085.399 7  85659864.066 6  20919001.202    20919015.099       -1874.715  
     -1460.582          44.000          41.000  
 107493311.337 7  83761089.618 7  20455298.523    20455314.502         -14.246  
       -10.645          43.000          43.000  
 114828264.178 7  89476657.288 7  21851091.085    21851110.393        2757.895  
      2149.469          45.000          43.000  
 127493181.677 6  99345410.684 6  24261149.978    24261167.430       -3405.180  
     -2653.605          41.000          39.000  
 24  1 10  3 23 12.2000000  0  7G08G24G18G23G10G32G15
 128253419.409 6  99937813.751 6  24405826.299    24405847.739        2737.043  
      2133.375          38.000          41.000  
 127970431.665 6  99717312.764 6  24351962.553    24351983.396         170.477  
       132.441          40.000          40.000  
 113251771.451 7  88248197.317 7  21551097.814    21551113.289       -1894.219  
     -1476.934          43.000          45.000  
 109930272.975 7  85660010.228 6  20919037.232    20919050.973       -1876.410  
     -1461.473          44.000          41.000  
 107493312.833 7  83761090.763 7  20455298.933    20455314.633         -15.352  
       -11.609          44.000          43.000  
 114827988.328 7  89476442.338 7  21851038.530    21851058.306        2758.852  
      2149.742          45.000          44.000  
 127493522.283 6  99345676.085 6  24261214.918    24261232.064       -3406.274  
     -2654.348          41.000          39.000  
 24  1 10  3 23 12.3000000  0  7G08G24G18G23G10G32G15
 128253145.748 6  99937600.524 6  24405774.223    24405795.667        2735.578  
      2132.145          37.000          40.000  
 127970414.686 6  99717299.536 6  24351959.322    24351980.166         169.234  
       132.266          39.000          40.000  
 113251960.986 7  88248345.094 7  21551133.881    21551149.377       -1895.387  
     -1477.168          43.000          45.000  
 109930460.620 7  85660156.409 6  20919072.940    20919086.672       -1876.754  
     -1461.973          44.000          41.000  
 107493314.457 7  83761092.090 7  20455299.242    20455314.957         -16.723  
       -12.945          45.000          43.000  
 114827712.434 7  89476227.341 7  21850986.029    21851005.802        2759.367  
      2150.035          46.000          44.000  
 127493862.948 6  99345941.599 6  24261279.744    24261296.905       -3406.726  
     -2654.973          41.000          39.000  
 24  1 10  3 23 12.4000000  0  7G08G24G18G23G10G32G15
 128252872.291 6  99937387.416 6  24405722.084    24405743.858        2733.879  
      2131.223          36.000          39.000  
 127970397.793 6  99717286.311 6  24351956.099    24351976.920         169.738  
       132.352          40.000          40.000  
 113252150.581 7  88248492.794 7  21551169.804    21551185.572       -1896.430  
     -1477.090          43.000          45.000  
 109930648.364 7  85660302.679 6  20919108.752    20919123.002       -1877.578  
     -1462.574          45.000          41.000  
 107493316.173 7  83761093.423 7  20455299.756    20455315.236         -17.629  
       -13.574          45.000          42.000  
 114827436.429 7  89476012.268 7  21850933.835    21850953.349        2759.898  
      2150.586          47.000          44.000  
 127494203.678 6  99346207.129 6  24261344.427    24261361.883       -3407.609  
     -2655.543          39.000          39.000  
 24  1 10  3 23 12.5000000  0  7G08G24G18G23G10G32G15
 128252599.017 5  99937174.493 6  24405670.082    24405691.860        2732.422  
      2129.266          35.000          39.000  
 127970380.796 6  99717273.116 6  24351952.865    24351973.698         170.086  
       132.035          40.000          41.000  
 113252340.108 7  88248640.453 7  21551205.869    21551221.632       -1895.113  
     -1477.031          43.000          45.000  
 109930836.236 7  85660449.042 6  20919144.503    20919158.746       -1879.367  
     -1463.930          44.000          40.000  
 107493317.987 7  83761094.829 7  20455300.101    20455315.579         -18.793  
       -14.359          45.000          42.000  
 114827160.314 7  89475797.117 7  21850881.292    21850900.807        2761.973  
      2151.531          47.000          45.000  
 127494544.509 6  99346472.748 6  24261409.285    24261426.750       -3409.148  
     -2656.305          38.000          39.000  
 24  1 10  3 23 12.6000000  0  7G08G24G18G23G10G32G15
 128252325.901 5  99936961.703 6  24405618.164    24405640.028        2730.309  
      2128.293          35.000          38.000  
 127970363.863 6  99717259.875 6  24351950.057    24351971.113         169.191  
       132.371          40.000          41.000  
 113252529.621 7  88248788.191 7  21551241.620    21551257.391       -1894.820  
     -1476.734          43.000          44.000  
 109931024.182 7  85660595.580 6  20919179.760    20919194.891       -1879.879  
     -1464.660          44.000          40.000  
 107493319.880 7  83761096.275 7  20455300.758    20455315.862         -19.230  
       -14.492          45.000          42.000  
 114826884.067 7  89475581.870 7  21850829.122    21850847.765        2763.066  
      2152.621          47.000          45.000  
 127494885.598 6  99346738.462 6  24261473.481    24261491.375       -3411.465  
     -2656.844          36.000          38.000  
 24  1 10  3 23 12.7000000  0  7G08G24G18G23G10G32G15
 128252053.044 5  99936749.049 6  24405566.241    24405588.095        2728.594  
      2126.570          34.000          38.000  
 127970346.917 6  99717246.674 7  24351946.832    24351967.889         169.832  
       131.969          40.000          42.000  
 113252719.093 7  88248935.757 7  21551277.675    21551293.428       -1894.496  
     -1475.898          43.000          45.000  
 109931212.239 7  85660742.072 6  20919215.546    20919230.666       -1881.242  
     -1465.457          43.000          40.000  
 107493321.853 7  83761097.831 7  20455301.134    20455316.242         -19.906  
       -15.445          45.000          42.000  
 114826607.693 7  89475366.506 7  21850776.530    21850795.171        2764.340  
      2153.723          47.000          45.000  
 127495226.706 6  99347004.274 6  24261538.392    24261556.289       -3411.383  
     -2658.180          37.000          38.000  
 24  1 10  3 23 12.8000000  0  7G08G24G18G23G10G32G15
 128251780.318 5  99936536.534 6  24405514.132    24405536.096        2726.887  
      2125.156          34.000          38.000  
 127970329.954 6  99717233.488 7  24351943.409    24351965.607         169.371  
       131.840          39.000          42.000  
 113252908.536 7  88249083.346 7  21551313.889    21551329.986       -1894.102  
     -1476.254          44.000          45.000  
 109931400.411 7  85660888.735 6  20919250.799    20919266.154       -1881.934  
     -1466.352          43.000          39.000  
 107493323.932 7  83761099.448 7  20455301.381    20455316.574         -21.301  
       -16.172          45.000          42.000  
 114826331.183 7  89475151.044 7  21850723.701    21850742.772        2765.781  
      2154.609          47.000          45.000  
 127495567.944 6  99347270.183 6  24261603.608    24261621.742       -3412.976  
     -2658.934          38.000          38.000  
 24  1 10  3 23 12.9000000  0  7G08G24G18G23G10G32G15
 128251507.738 5  99936324.195 6  24405462.262    24405484.240        2724.914  
      2123.641          34.000          38.000  
 127970313.072 6  99717220.331 7  24351940.196    24351962.394         168.965  
       131.441          39.000          42.000  
 113253098.004 7  88249231.030 7  21551349.944    21551366.052       -1895.098  
     -1476.270          44.000          44.000  
 109931588.638 7  85661035.401 6  20919286.618    20919301.972       -1882.812  
     -1466.637          44.000          39.000  
 107493326.070 7  83761101.116 7  20455301.788    20455316.982         -21.672  
       -16.863          45.000          42.000  
 114826054.563 7  89474935.504 7  21850671.062    21850690.135        2766.688  
      2155.449          47.000          45.000  
 127495909.357 6  99347536.202 6  24261668.577    24261686.707       -3414.558  
     -2660.008          39.000          38.000  
 24  1 10  3 23 13.0000000  0  7G08G24G18G23G10G32G15
 128251235.389 5  99936111.923 6  24405410.701    24405431.901        2723.172  
      2122.910          34.000          38.000  
 127970296.207 6  99717207.194 7  24351936.885    24351959.146         168.406  
       131.434          39.000          42.000  
 113253287.415 7  88249378.624 7  21551386.495    21551402.049       -1894.039  
     -1476.125          44.000          44.000  
 109931777.064 7  85661182.158 6  20919322.669    20919337.679       -1884.867  
     -1467.492          43.000          39.000  
 107493328.314 7  83761102.874 7  20455301.746    20455317.872         -22.543  
       -17.418          45.000          42.000  
 114825777.850 7  89474719.877 7  21850618.187    21850637.851        2767.652  
      2156.285          47.000          45.000  
 127496250.884 6  99347802.294 6  24261734.083    24261752.126       -3415.996  
     -2660.668          38.000          38.000  
 24  1 10  3 23 13.1000000  0  7G08G24G18G23G10G32G15
 128250963.193 5  99935899.779 6  24405358.904    24405380.094        2722.152  
      2121.441          34.000          38.000  
 127970279.374 6  99717194.094 6  24351933.682    24351955.947         168.426  
       131.070          39.000          41.000  
 113253476.876 7  88249526.228 7  21551422.549    21551438.096       -1894.434  
     -1476.027          44.000          44.000  
 109931965.487 7  85661328.975 6  20919358.525    20919373.533       -1884.551  
     -1468.594          44.000          39.000  
 107493330.622 7  83761104.656 7  20455302.185    20455318.307         -23.500  
       -18.066          45.000          42.000  
 114825501.025 7  89474504.182 7  21850565.508    21850585.176        2768.691  
      2157.043          47.000          45.000  
 127496592.466 6  99348068.446 6  24261799.084    24261817.124       -3415.606  
     -2661.605          39.000          39.000  
 24  1 10  3 23 13.2000000  0  7G08G24G18G23G10G32G15
 128250691.088 5  99935687.807 6  24405307.398    24405328.273        2719.852  
      2119.977          34.000          38.000  
 127970262.551 6  99717180.968 7  24351930.653    24351951.890         167.617  
       131.176          38.000          42.000  
 113253666.203 7  88249673.772 7  21551458.920    21551473.065       -1893.035  
     -1475.758          44.000          44.000  
 109932153.999 7  85661475.971 6  20919394.656    20919409.751       -1885.078  
     -1469.520          44.000          39.000  
 107493333.018 7  83761106.541 7  20455302.805    20455319.119         -24.094  
       -18.703          45.000          42.000  
 114825224.104 7  89474288.393 7  21850512.484    21850532.283        2769.672  
      2158.043          47.000          45.000  
 127496934.124 6  99348334.708 6  24261864.795    24261882.601       -3417.340  
     -2662.453          40.000          39.000  
 24  1 10  3 23 13.3000000  0  7G08G24G18G23G10G32G15
 128250419.150 5  99935475.901 6  24405255.650    24405276.524        2719.160  
      2118.824          34.000          38.000  
 127970245.635 6  99717167.864 6  24351927.434    24351948.690         169.289  
       131.082          38.000          41.000  
 113253855.575 7  88249821.351 7  21551494.956    21551509.105       -1893.422  
     -1475.137          44.000          44.000  
 109932342.599 7  85661622.897 6  20919430.545    20919445.632       -1886.551  
     -1469.461          45.000          39.000  
 107493335.461 7  83761108.446 7  20455303.270    20455319.584         -24.422  
       -18.863          45.000          42.000  
 114824947.027 7  89474072.500 7  21850459.758    21850479.560        2771.234  
      2158.816          47.000          45.000  
 127497275.966 6  99348601.045 6  24261929.845    24261947.643       -3418.973  
     -2663.230          40.000          39.000  
 24  1 10  3 23 13.4000000  0  7G08G24G18G23G10G32G15
 128250147.400 5  99935264.142 6  24405203.844    24405225.052        2717.695  
      2118.023          34.000          38.000  
 127970228.769 6  99717154.754 7  24351923.912    24351945.582         168.559  
       131.133          39.000          42.000  
 113254044.908 7  88249968.873 7  21551530.977    21551545.725       -1893.367  
     -1475.348          44.000          44.000  
 109932531.298 7  85661769.970 6  20919466.977    20919481.361       -1887.293  
     -1470.758          45.000          39.000  
 107493337.985 7  83761110.406 7  20455303.844    20455320.016         -25.656  
       -19.676          45.000          42.000  
 114824669.894 7  89473856.537 7  21850407.506    21850426.562        2771.730  
      2159.660          47.000          45.000  
 127497617.830 6  99348867.409 6  24261995.697    24262012.559       -3418.938  
     -2663.812          40.000          39.000  
 24  1 10  3 23 13.5000000  0  7G08G24G18G23G10G32G15
 128249875.763 5  99935052.476 6  24405152.153    24405173.361        2716.000  
      2116.410          34.000          38.000  
 127970211.936 6  99717141.640 7  24351920.708    24351942.379         167.801  
       131.191          39.000          42.000  
 113254234.169 7  88250116.357 7  21551566.993    21551581.742       -1892.461  
     -1474.977          43.000          45.000  
 109932720.063 7  85661916.974 6  20919502.897    20919517.261       -1887.816  
     -1470.391          45.000          39.000  
 107493340.573 7  83761112.423 7  20455304.337    20455320.509         -26.223  
       -20.168          45.000          42.000  
 114824392.633 7  89473640.491 7  21850354.745    21850373.801        2772.973  
      2160.430          47.000          45.000  
 127497959.803 6  99349133.882 6  24262060.772    24262077.634       -3419.848  
     -2664.520          40.000          39.000  
 24  1 10  3 23 13.6000000  0  7G08G24G18G23G10G32G15
 128249604.291 5  99934840.936 6  24405100.165    24405122.107        2714.289  
      2115.801          34.000          38.000  
 127970195.127 6  99717128.461 7  24351917.393    24351939.778         168.559  
       131.863          39.000          42.000  
 113254423.448 7  88250263.839 7  21551602.550    21551618.111       -1892.535  
     -1474.781          43.000          45.000  
 109932908.896 7  85662064.167 6  20919538.839    20919552.668       -1888.395  
     -1471.773          44.000          39.000  
 107493343.198 7  83761114.461 7  20455304.805    20455320.967         -26.559  
       -20.621          45.000          42.000  
 114824115.247 7  89473424.363 7  21850302.015    21850320.778        2774.559  
      2161.289          47.000          45.000  
 127498301.815 6  99349400.416 6  24262125.948    24262142.967       -3420.090  
     -2665.430          41.000          39.000  
 24  1 10  3 23 13.7000000  0  7G08G24G18G23G10G32G15
 128249332.927 5  99934629.464 6  24405048.526    24405070.463        2712.867  
      2114.773          34.000          38.000  
 127970178.205 6  99717115.273 7  24351914.172    24351936.558         169.172  
       131.727          38.000          43.000  
 113254612.594 7  88250411.208 7  21551638.543    21551654.100       -1891.266  
     -1474.000          43.000          45.000  
 109933097.730 7  85662211.278 6  20919574.773    20919588.594       -1888.367  
     -1471.383          45.000          39.000  
 107493345.884 7  83761116.550 7  20455305.316    20455321.478         -27.078  
       -20.855          45.000          42.000  
 114823837.762 7  89473208.132 7  21850249.211    21850267.973        2775.219  
      2162.250          47.000          44.000  
 127498643.934 6  99349666.979 6  24262191.051    24262208.064       -3421.793  
     -2665.734          40.000          39.000  
 24  1 10  3 23 13.8000000  0  7G08G24G18G23G10G32G15
 128249061.684 5  99934418.113 6  24404996.442    24405018.545        2711.895  
      2113.695          34.000          37.000  
 127970161.286 6  99717102.085 7  24351911.148    24351933.688         170.340  
       131.969          38.000          43.000  
 113254801.708 7  88250558.593 7  21551674.617    21551689.757       -1890.617  
     -1473.957          43.000          45.000  
 109933286.672 7  85662358.560 6  20919610.696    20919624.116       -1890.164  
     -1471.957          44.000          39.000  
 107493348.623 7  83761118.710 7  20455305.767    20455322.044         -27.355  
       -21.320          45.000          42.000  
 114823560.173 7  89472991.839 7  21850196.481    21850215.347        2776.207  
      2163.199          47.000          44.000  
 127498986.068 6  99349933.640 6  24262255.665    24262272.763       -3421.867  
     -2666.109          39.000          38.000  
 24  1 10  3 23 13.9000000  0  7G08G24G18G23G10G32G15
 128248790.609 5  99934206.901 6  24404944.858    24404966.965        2709.738  
      2112.191          34.000          38.000  
 127970144.294 6  99717088.902 7  24351907.915    24351930.469         168.746  
       131.812          38.000          44.000  
 113254990.848 7  88250705.990 7  21551710.609    21551725.752       -1890.883  
     -1473.473          43.000          44.000  
 109933475.624 7  85662505.748 6  20919646.653    20919660.061       -1889.848  
     -1472.691          44.000          39.000  
 107493351.386 7  83761120.865 7  20455306.293    20455322.570         -27.895  
       -21.672          45.000          42.000  
 114823282.477 7  89472775.436 7  21850143.638    21850162.499        2777.543  
      2163.934          47.000          44.000  
 127499328.300 6  99350200.303 6  24262320.790    24262337.885       -3422.629  
     -2666.746          38.000          39.000  
 24  1 10  3 23 14.0000000  0  7G08G24G18G23G10G32G15
 128248519.664 5  99933995.802 6  24404893.057    24404914.646        2709.039  
      2111.223          34.000          38.000  
 127970127.488 6  99717075.719 7  24351904.662    24351928.039         168.480  
       131.980          38.000          44.000  
 113255179.911 7  88250853.299 7  21551746.547    21551761.118       -1890.703  
     -1473.242          43.000          45.000  
 109933664.681 7  85662653.090 6  20919682.629    20919696.434       -1890.875  
     -1473.000          44.000          39.000  
 107493354.236 7  83761123.068 7  20455306.624    20455323.030         -28.734  
       -22.016          45.000          42.000  
 114823004.648 7  89472558.951 7  21850090.675    21850110.155        2778.480  
      2164.750          47.000          44.000  
 127499670.753 6  99350467.057 6  24262385.613    24262402.576       -3424.590  
     -2667.531          38.000          39.000  
 24  1 10  3 23 14.1000000  0  7G08G24G18G23G10G32G15
 128248248.884 5  99933784.800 6  24404841.529    24404863.117        2706.730  
      2109.977          34.000          38.000  
 127970110.549 6  99717062.507 7  24351901.438    24351924.812         169.602  
       132.000          39.000          44.000  
 113255368.962 7  88251000.617 7  21551782.522    21551797.094       -1890.211  
     -1472.887          43.000          45.000  
 109933853.778 7  85662800.468 6  20919718.613    20919732.425       -1891.371  
     -1473.691          44.000          39.000  
 107493357.129 7  83761125.314 7  20455307.175    20455323.579         -29.254  
       -22.582          45.000          42.000  
 114822726.763 7  89472342.433 7  21850037.795    21850057.279        2779.340  
      2165.387          47.000          44.000  
 127500013.129 6  99350733.856 6  24262450.765    24262467.731       -3423.387  
     -2668.004          38.000          39.000  
 24  1 10  3 23 14.2000000  0  7G08G24G18G23G10G32G15
 128247978.255 5  99933573.882 6  24404789.920    24404811.500        2706.547  
      2109.316          33.000          38.000  
 127970093.600 6  99717049.294 7  24351898.244    24351921.843         169.492  
       131.918          40.000          44.000  
 113255557.990 7  88251147.893 7  21551818.368    21551833.787       -1890.496  
     -1472.703          43.000          45.000  
 109934042.949 7  85662947.807 6  20919754.728    20919768.509       -1891.656  
     -1473.801          44.000          40.000  
 107493360.076 7  83761127.629 7  20455307.470    20455324.128         -29.777  
       -23.105          45.000          42.000  
 114822448.768 7  89472125.801 7  21849984.488    21850004.242        2780.270  
      2166.254          47.000          44.000  
 127500355.651 6  99351000.736 6  24262515.562    24262533.266       -3425.703  
     -2668.766          38.000          39.000  
 24  1 10  3 23 14.3000000  0  7G08G24G18G23G10G32G15
 128247707.705 5  99933363.101 6  24404738.437    24404760.025        2704.785  
      2108.059          33.000          38.000  
 127970076.657 6  99717036.136 7  24351895.020    24351918.630         169.754  
       132.078          41.000          44.000  
 113255746.901 7  88251295.090 7  21551854.317    21551869.734       -1888.934  
     -1472.297          42.000          45.000  
 109934232.151 7  85663095.307 6  20919790.732    20919804.530       -1892.094  
     -1474.441          44.000          39.000  
 107493363.075 7  83761129.959 7  20455308.041    20455324.698         -29.844  
       -23.289          45.000          42.000  
 114822170.672 7  89471909.097 7  21849931.568    21849951.321        2781.785  
      2167.121          47.000          44.000  
 127500698.202 6  99351267.666 6  24262580.747    24262598.453       -3425.152  
     -2669.188          37.000          39.000  
 24  1 10  3 23 14.4000000  0  7G08G24G18G23G10G32G15
 128247437.350 5  99933152.416 6  24404686.927    24404708.784        2703.633  
      2107.047          34.000          38.000  
 127970059.743 6  99717022.947 7  24351892.356    24351915.698         169.031  
       132.027          41.000          44.000  
 113255935.798 7  88251442.297 7  21551889.974    21551905.636       -1888.598  
     -1471.898          43.000          45.000  
 109934421.416 7  85663242.731 6  20919826.506    20919840.462       -1892.898  
     -1474.492          45.000          39.000  
 107493366.131 7  83761132.341 7  20455308.794    20455325.381         -30.852  
       -23.637          45.000          42.000  
 114821892.444 7  89471692.324 7  21849878.592    21849897.875        2782.578  
      2167.902          47.000          44.000  
 127501040.688 5  99351534.636 6  24262645.349    24262663.751       -3425.199  
     -2669.719          35.000          38.000  
 24  1 10  3 23 14.5000000  0  7G08G24G18G23G10G32G15
 128247167.129 5  99932941.819 6  24404635.506    24404657.355        2701.250  
      2105.891          33.000          38.000  
 127970042.799 6  99717009.707 7  24351889.132    24351912.465         169.227  
       132.352          40.000          44.000  
 113256124.637 7  88251589.483 7  21551925.908    21551941.581       -1888.320  
     -1471.672          43.000          44.000  
 109934610.732 7  85663390.263 6  20919862.531    20919876.491       -1893.344  
     -1475.281          45.000          39.000  
 107493369.217 7  83761134.757 7  20455309.381    20455325.971         -31.168  
       -24.328          45.000          42.000  
 114821614.156 7  89471475.456 7  21849825.635    21849844.913        2783.500  
      2168.699          47.000          44.000  
 127501383.373 5  99351801.665 6  24262710.560    24262728.962       -3426.449  
     -2670.312          34.000          38.000  
 24  1 10  3 23 14.6000000  0  7G08G24G18G23G10G32G15
 128246896.980 5  99932731.372 6  24404584.442    24404606.117        2701.266  
      2104.789          33.000          38.000  
 127970025.796 6  99716996.497 7  24351886.459    24351909.184         170.180  
       132.129          40.000          44.000  
 113256313.446 7  88251736.539 7  21551962.189    21551977.079       -1888.141  
     -1470.945          43.000          44.000  
 109934800.071 7  85663537.814 6  20919898.679    20919912.610       -1893.215  
     -1475.492          45.000          39.000  
 107493372.363 7  83761137.197 7  20455309.996    20455326.652         -31.434  
       -24.180          45.000          42.000  
 114821335.738 7  89471258.510 7  21849772.865    21849791.792        2784.637  
      2169.387          47.000          44.000  
 127501726.142 5  99352068.708 6  24262775.060    24262794.161       -3429.520  
     -2670.492          34.000          38.000  
 24  1 10  3 23 14.7000000  0  7G08G24G18G23G10G32G15
 128246626.998 5  99932520.980 6  24404533.066    24404554.738        2699.340  
      2103.883          33.000          38.000  
 127970008.819 6  99716983.246 7  24351883.228    24351905.948         169.383  
       132.484          40.000          44.000  
 113256502.265 7  88251883.692 7  21551998.120    21552013.016       -1887.961  
     -1471.066          43.000          45.000  
 109934989.556 7  85663685.441 6  20919934.736    20919948.662       -1895.133  
     -1476.129          45.000          39.000  
 107493375.596 7  83761139.705 7  20455310.611    20455327.265         -32.891  
       -25.195          45.000          42.000  
 114821057.264 7  89471041.506 7  21849719.873    21849738.798        2785.199  
      2170.008          47.000          44.000  
 127502069.044 5  99352335.847 6  24262840.312    24262859.399       -3427.832  
     -2671.234          35.000          38.000  
 24  1 10  3 23 14.8000000  0  7G08G24G18G23G10G32G15
 128246357.184 5  99932310.764 6  24404482.144    24404503.658        2697.680  
      2102.285          34.000          37.000  
 127969991.896 6  99716970.050 7  24351879.688    24351902.694         169.074  
       131.879          40.000          43.000  
 113256691.070 7  88252030.826 7  21552034.252    21552049.439       -1888.441  
     -1471.781          43.000          44.000  
 109935179.063 7  85663833.119 6  20919970.478    20919984.812       -1895.426  
     -1477.379          45.000          39.000  
 107493378.929 7  83761142.325 7  20455311.253    20455327.405         -33.824  
       -26.035          45.000          42.000  
 114820778.766 7  89470824.504 7  21849667.111    21849685.921        2785.059  
      2170.012          47.000          44.000  
 127502411.880 5  99352603.062 6  24262905.372    24262924.625       -3429.758  
     -2672.402          35.000          38.000  
 24  1 10  3 23 14.9000000  0  7G08G24G18G23G10G32G15
 128246087.482 5  99932100.553 6  24404430.822    24404452.323        2696.469  
      2102.113          34.000          37.000  
 127969974.919 6  99716956.833 7  24351876.457    24351899.466         170.223  
       132.027          40.000          43.000  
 113256879.847 7  88252177.956 7  21552070.175    21552085.370       -1887.777  
     -1470.984          43.000          44.000  
 109935368.676 7  85663980.916 6  20920006.560    20920020.906       -1896.387  
     -1477.617          44.000          39.000  
 107493382.319 7  83761144.956 7  20455311.898    20455328.047         -34.312  
       -26.566          45.000          42.000  
 114820500.186 7  89470607.417 7  21849614.099    21849632.906        2786.105  
      2170.660          47.000          44.000  
 127502754.950 6  99352870.369 6  24262970.656    24262989.904       -3430.730  
     -2673.059          37.000          38.000  
 24  1 10  3 23 15.0000000  0  7G08G24G18G23G10G32G15
 128245817.890 5  99931890.495 6  24404379.824    24404401.384        2696.262  
      2100.617          33.000          37.000  
 127969957.971 6  99716943.686 7  24351873.263    24351895.568         168.945  
       131.844          40.000          43.000  
 113257068.647 7  88252325.035 7  21552106.352    21552121.015       -1887.594  
     -1471.055          44.000          44.000  
 109935558.365 7  85664128.679 6  20920042.672    20920056.530       -1897.285  
     -1477.734          44.000          39.000  
 107493385.790 7  83761147.670 7  20455312.598    20455328.952         -34.914  
       -26.992          45.000          42.000  
 114820221.554 7  89470390.313 7  21849560.999    21849580.114        2786.770  
      2171.305          47.000          44.000  
 127503098.015 6  99353137.694 6  24263036.346    24263055.414       -3430.340  
     -2673.141          38.000          38.000  
 24  1 10  3 23 15.1000000  0  7G08G24G18G23G10G32G15
 128245548.419 5  99931680.528 6  24404328.546    24404350.108        2693.461  
      2099.828          33.000          37.000  
 127969941.057 6  99716930.486 7  24351870.045    24351892.345         169.000  
       131.758          39.000          43.000  
 113257257.425 7  88252472.172 7  21552142.276    21552156.947       -1888.098  
     -1470.957          44.000          44.000  
 109935748.101 7  85664276.532 6  20920078.778    20920092.637       -1897.527  
     -1478.688          44.000          39.000  
 107493389.308 7  83761150.391 7  20455313.267    20455329.617         -35.555  
       -27.520          45.000          42.000  
 114819942.816 7  89470173.119 7  21849507.957    21849527.072        2787.766  
      2171.898          47.000          44.000  
 127503441.166 6  99353405.034 6  24263101.645    24263120.701       -3432.246  
     -2673.453          37.000          38.000  
 24  1 10  3 23 15.2000000  0  7G08G24G18G23G10G32G15
 128245279.075 5  99931470.677 6  24404277.659    24404298.915        2692.660  
      2098.898          33.000          37.000  
 127969924.013 6  99716917.263 7  24351866.817    24351888.725         170.297  
       132.242          39.000          43.000  
 113257446.166 7  88252619.191 7  21552178.364    21552192.718       -1886.918  
     -1470.356          44.000          44.000  
 109935937.891 7  85664424.454 6  20920115.230    20920128.394       -1898.008  
     -1478.766          44.000          39.000  
 107493392.889 7  83761153.196 7  20455314.089    20455330.497         -35.699  
       -27.824          45.000          42.000  
 114819663.986 7  89469955.855 7  21849454.929    21849474.014        2788.676  
      2172.750          47.000          44.000  
 127503784.254 6  99353672.474 6  24263167.065    24263186.028       -3430.348  
     -2674.184          37.000          38.000  
 24  1 10  3 23 15.3000000  0  7G08G24G18G23G10G32G15
 128245009.873 5  99931260.840 6  24404226.431    24404247.670        2691.871  
      2098.109          33.000          37.000  
 127969907.091 6  99716903.998 7  24351863.597    24351885.486         169.629  
       132.418          39.000          42.000  
 113257634.819 7  88252766.192 7  21552214.263    21552228.617       -1886.570  
     -1470.043          44.000          44.000  
 109936127.729 7  85664572.378 6  20920151.355    20920164.519       -1898.715  
     -1479.195          44.000          38.000  
 107493396.497 7  83761155.999 7  20455314.776    20455331.182         -36.148  
       -28.191          45.000          42.000  
 114819385.078 7  89469738.515 7  21849401.854    21849420.938        2789.496  
      2173.410          47.000          44.000  
 127504127.448 6  99353939.962 6  24263232.373    24263251.351       -3433.000  
     -2674.773          39.000          38.000  
 24  1 10  3 23 15.4000000  0  7G08G18G23G24G10G15G32
 128244740.709 5  99931051.180 6  24404175.227    24404196.750        2691.762  
      2097.227          32.000          37.000  
 113257823.468 7  88252913.245 7  21552249.638    21552264.435       -1886.336  
     -1470.410          43.000          44.000  
 109936317.647 7  85664720.348 6  20920186.987    20920200.225       -1899.371  
     -1479.664          44.000          38.000  
 127969890.107 6  99716890.795 7  24351860.068    24351881.855         169.559  
       132.160          38.000          42.000  
 107493400.174 7  83761158.862 7  20455315.718    20455331.912         -36.988  
       -28.672          45.000          42.000  
 127504470.911 6  99354207.478 6  24263298.193    24263315.994       -3434.812  
     -2675.488          40.000          38.000  
 114819106.112 7  89469521.140 7  21849348.448    21849368.298        2790.164  
      2173.777          47.000          44.000  
 24  1 10  3 23 15.5000000  0  7G08G18G23G24G10G15G32
 128244471.763 5  99930841.524 6  24404124.048    24404145.550        2688.191  
      2096.211          33.000          37.000  
 113258012.141 7  88253060.235 7  21552285.542    21552300.332       -1886.711  
     -1469.969          43.000          44.000  
 109936507.606 7  85664868.336 6  20920223.135    20920236.365       -1899.664  
     -1480.172          44.000          39.000  
 127969873.160 6  99716877.558 7  24351856.843    24351878.622         168.922  
       132.336          38.000          42.000  
 107493403.918 7  83761161.788 7  20455316.430    20455332.627         -37.750  
       -29.219          44.000          42.000  
 127504814.238 6  99354475.023 6  24263363.526    24263381.331       -3433.047  
     -2675.285          40.000          38.000  
 114818827.068 7  89469303.679 7  21849295.348    21849315.192        2790.602  
      2174.441          47.000          44.000  
 24  1 10  3 23 15.6000000  0  7G08G18G23G24G10G15G32
 128244202.803 5  99930632.040 6  24404073.070    24404093.931        2688.766  
      2095.031          33.000          37.000  
 113258200.750 7  88253207.202 7  21552321.386    21552336.246       -1886.117  
     -1469.766          43.000          44.000  
 109936697.626 7  85665016.426 6  20920259.373    20920272.874       -1900.016  
     -1481.055          44.000          39.000  
 127969856.195 6  99716864.345 7  24351853.435    24351875.333         170.793  
       132.145          38.000          42.000  
 107493407.695 7  83761164.730 7  20455316.743    20455333.126         -38.027  
       -29.492          45.000          42.000  
 127505157.663 6  99354742.633 6  24263429.135    24263446.731       -3434.445  
     -2676.207          40.000          38.000  
 114818547.937 7  89469086.204 7  21849242.263    21849262.035        2791.641  
      2175.051          47.000          44.000  
 24  1 10  3 23 15.7000000  0  7G08G18G23G24G10G15G32
 128243934.119 5  99930422.633 6  24404021.941    24404042.792        2687.281  
      2093.988          33.000          38.000  
 113258389.348 7  88253354.166 7  21552357.275    21552372.136       -1885.863  
     -1469.711          43.000          44.000  
 109936887.716 7  85665164.545 6  20920295.546    20920309.046       -1901.148  
     -1480.668          44.000          39.000  
 127969839.195 6  99716851.149 6  24351850.200    24351872.111         169.086  
       132.109          39.000          41.000  
 107493411.555 7  83761167.726 7  20455317.477    20455333.858         -38.848  
       -29.859          45.000          42.000  
 127505501.262 6  99355010.337 6  24263494.520    24263512.107       -3435.926  
     -2676.945          39.000          38.000  
 114818268.727 7  89468868.616 7  21849189.131    21849208.898        2792.309  
      2175.742          47.000          44.000  
 24  1 10  3 23 15.8000000  0  7G08G18G23G24G10G15G32
 128243665.466 5  99930213.303 6  24403970.747    24403991.585        2686.512  
      2093.406          33.000          38.000  
 113258577.945 7  88253501.126 7  21552393.297    21552408.361       -1885.828  
     -1469.453          43.000          44.000  
 109937077.869 7  85665312.674 6  20920332.332    20920345.455       -1902.094  
     -1481.648          45.000          39.000  
 127969822.256 6  99716837.907 6  24351847.039    24351868.260         169.535  
       132.215          39.000          41.000  
 107493415.428 7  83761170.747 7  20455318.323    20455334.588         -38.992  
       -30.402          45.000          42.000  
 127505844.896 6  99355278.103 6  24263560.013    24263577.905       -3435.906  
     -2677.434          40.000          38.000  
 114817989.441 7  89468651.001 7  21849135.898    21849155.481        2792.957  
      2176.008          47.000          44.000  
 24  1 10  3 23 15.9000000  0  7G08G18G23G24G10G15G32
 128243396.891 5  99930004.021 6  24403919.639    24403940.477        2685.137  
      2092.848          33.000          37.000  
 113258766.508 7  88253648.036 7  21552429.179    21552444.238       -1885.465  
     -1469.391          43.000          44.000  
 109937268.016 7  85665460.806 6  20920368.516    20920381.631       -1901.434  
     -1481.727          45.000          39.000  
 127969805.289 6  99716824.696 6  24351843.810    24351865.033         169.973  
       132.195          39.000          41.000  
 107493419.343 7  83761173.799 7  20455319.068    20455335.333         -39.543  
       -30.508          45.000          42.000  
 127506188.489 6  99355545.879 6  24263625.396    24263643.298       -3436.734  
     -2677.750          40.000          38.000  
 114817710.095 7  89468433.345 7  21849082.741    21849102.327        2793.883  
      2176.805          47.000          44.000  
 24  1 10  3 23 16.0000000  0  7G08G18G23G24G10G15G32
 128243128.508 5  99929794.847 6  24403868.779    24403889.082        2684.047  
      2091.887          33.000          38.000  
 113258955.047 7  88253794.998 7  21552464.768    21552479.753       -1884.594  
     -1468.902          43.000          44.000  
 109937458.258 7  85665609.094 6  20920405.046    20920418.352       -1902.629  
     -1482.356          45.000          39.000  
 127969788.293 6  99716811.443 6  24351840.443    24351861.172         169.879  
       132.453          39.000          41.000  
 107493423.339 7  83761176.916 7  20455319.891    20455335.884         -39.777  
       -30.871          45.000          42.000  
 127506532.198 6  99355813.629 6  24263691.185    24263708.365       -3437.410  
     -2677.996          40.000          37.000  
 114817430.658 7  89468215.598 7  21849029.487    21849048.581        2794.844  
      2177.395          47.000          44.000  
 24  1 10  3 23 16.1000000  0  7G08G18G23G24G10G15G32
 128242860.113 5  99929585.769 6  24403817.705    24403838.023        2683.082  
      2090.973          33.000          38.000  
 113259143.532 7  88253941.812 7  21552500.635    21552515.606       -1885.078  
     -1468.676          43.000          44.000  
 109937648.523 7  85665757.385 6  20920441.252    20920454.566       -1902.730  
     -1482.617          45.000          39.000  
 127969771.319 6  99716798.259 6  24351837.213    24351857.952         170.066  
       131.980          39.000          41.000  
 107493427.336 7  83761180.028 7  20455320.652    20455336.643         -40.359  
       -31.273          45.000          42.000  
 127506875.881 6  99356081.621 6  24263756.586    24263773.812       -3436.242  
     -2678.789          40.000          37.000  
 114817151.168 7  89467997.809 7  21848976.302    21848995.394        2795.312  
      2178.062          47.000          44.000  
 24  1 10  3 23 16.2000000  0  7G08G18G23G24G10G15G32
 128242591.863 5  99929376.708 6  24403766.588    24403787.374        2682.449  
      2090.562          33.000          38.000  
 113259332.045 7  88254088.711 7  21552536.227    21552551.941       -1884.793  
     -1468.844          43.000          44.000  
 109937838.839 7  85665905.661 6  20920477.288    20920490.855       -1903.191  
     -1483.090          45.000          39.000  
 127969754.311 6  99716784.995 6  24351834.000    24351854.650         170.152  
       132.586          39.000          41.000  
 107493431.409 7  83761183.206 7  20455321.536    20455337.451         -40.480  
       -31.660          45.000          42.000  
 127507219.673 6  99356349.464 6  24263822.476    24263838.565       -3438.258  
     -2678.680          40.000          37.000  
 114816871.600 7  89467779.967 7  21848923.040    21848942.297        2795.758  
      2178.324          47.000          44.000  
 24  1 10  3 23 16.3000000  0  7G08G18G23G24G10G15G32
 128242323.752 5  99929167.757 6  24403715.568    24403736.346        2681.031  
      2089.531          34.000          38.000  
 113259520.463 7  88254235.593 7  21552572.081    21552587.811       -1883.832  
     -1468.629          43.000          44.000  
 109938029.186 7  85666053.991 6  20920513.510    20920527.078       -1903.625  
     -1483.539          45.000          39.000  
 127969737.311 6  99716771.736 6  24351830.765    24351851.412         169.586  
       132.328          39.000          41.000  
 107493435.518 7  83761186.423 7  20455322.318    20455338.236         -41.348  
       -32.082          45.000          42.000  
 127507563.529 6  99356617.358 6  24263887.909    24263903.988       -3438.730  
     -2679.031          39.000          36.000  
 114816591.973 7  89467562.087 7  21848869.828    21848889.088        2796.723  
      2179.117          47.000          44.000  
 24  1 10  3 23 16.4000000  0  7G08G18G23G24G10G15G32
 128242055.629 5  99928958.886 6  24403664.359    24403685.306        2680.312  
      2088.586          34.000          38.000  
 113259708.878 7  88254382.366 7  21552607.834    21552623.803       -1884.531  
     -1468.062          43.000          44.000  
 109938219.585 7  85666202.378 6  20920549.312    20920563.043       -1904.480  
     -1483.352          44.000          39.000  
 127969720.416 6  99716758.504 6  24351827.074    24351848.525         169.660  
       132.758          39.000          41.000  
 107493439.651 7  83761189.594 7  20455323.066    20455339.237         -41.641  
       -32.062          45.000          42.000  
 127507907.401 6  99356885.301 6  24263953.354    24263969.696       -3439.422  
     -2679.414          39.000          36.000  
 114816312.271 7  89467344.120 7  21848816.790    21848835.999        2797.184  
      2179.484          47.000          44.000  
 24  1 10  3 23 16.5000000  0  7G08G18G23G24G10G15G32
 128241787.688 5  99928750.105 6  24403613.371    24403634.320        2678.996  
      2087.977          34.000          38.000  
 113259897.295 7  88254529.161 7  21552643.689    21552659.652       -1883.543  
     -1468.125          43.000          44.000  
 109938410.012 7  85666350.740 6  20920585.549    20920599.274       -1904.379  
     -1483.938          44.000          39.000  
 127969703.344 6  99716745.279 6  24351823.825    24351845.295         171.211  
       132.020          38.000          40.000  
 107493443.849 7  83761192.909 7  20455323.865    20455340.047         -42.199  
       -32.734          45.000          42.000  
 127508251.346 6  99357153.393 6  24264018.804    24264035.167       -3440.398  
     -2680.414          39.000          36.000  
 114816032.542 7  89467126.168 7  21848763.560    21848782.773        2797.695  
      2179.750          47.000          44.000  
 24  1 10  3 23 16.6000000  0  7G08G18G23G24G10G15G32
 128241519.751 5  99928541.328 6  24403562.392    24403583.163        2677.594  
      2087.520          33.000          37.000  
 113260085.722 7  88254676.001 7  21552680.068    21552695.184       -1884.074  
     -1467.742          43.000          44.000  
 109938600.503 7  85666499.172 6  20920622.103    20920635.468       -1904.902  
     -1484.301          45.000          39.000  
 127969686.332 6  99716731.979 6  24351820.291    24351841.953         169.910  
       132.992          38.000          40.000  
 107493448.075 7  83761196.198 6  20455324.372    20455340.577         -42.598  
       -32.871          45.000          41.000  
 127508595.316 6  99357421.418 6  24264084.236    24264100.348       -3439.281  
     -2680.332          39.000          36.000  
 114815752.722 7  89466908.115 7  21848710.390    21848729.592        2798.523  
      2180.402          47.000          44.000  
 24  1 10  3 23 16.7000000  0  7G08G18G23G24G10G15G32
 128241252.010 5  99928332.657 6  24403511.443    24403532.203        2677.969  
      2086.766          33.000          37.000  
 113260274.061 7  88254822.749 7  21552715.908    21552731.021       -1883.703  
     -1467.887          43.000          44.000  
 109938790.997 7  85666647.572 6  20920658.353    20920671.709       -1904.902  
     -1484.121          44.000          40.000  
 127969669.306 6  99716718.736 6  24351817.051    24351838.719         170.430  
       132.531          39.000          41.000  
 107493452.354 7  83761199.516 6  20455325.186    20455341.387         -42.809  
       -33.188          45.000          41.000  
 127508939.463 6  99357689.471 6  24264149.725    24264165.809       -3440.652  
     -2680.656          38.000          36.000  
 114815472.845 7  89466690.020 7  21848657.131    21848676.331        2798.984  
      2180.930          47.000          43.000  
 24  1 10  3 23 16.8000000  0  7G08G18G23G24G10G15G32
 128240984.298 5  99928124.055 6  24403460.562    24403481.432        2676.895  
      2085.918          32.000          37.000  
 113260462.411 7  88254969.530 7  21552751.734    21552766.820       -1883.777  
     -1467.867          43.000          44.000  
 109938981.600 7  85666796.116 6  20920694.702    20920708.469       -1906.914  
     -1485.320          44.000          40.000  
 127969652.259 6  99716705.453 6  24351814.346    24351835.538         169.898  
       132.676          40.000          41.000  
 107493456.702 7  83761202.935 7  20455326.029    20455342.183         -43.664  
       -33.906          45.000          42.000  
 127509283.458 6  99357957.582 6  24264214.326    24264231.355       -3440.820  
     -2681.121          36.000          37.000  
 114815192.935 7  89466471.913 7  21848603.679    21848622.958        2799.363  
      2181.098          47.000          43.000  
 24  1 10  3 23 16.9000000  0  7G08G18G23G24G10G15G32
 128240716.683 5  99927915.586 6  24403409.636    24403430.522        2675.906  
      2085.145          33.000          37.000  
 113260650.749 7  88255116.253 7  21552787.574    21552802.651       -1882.980  
     -1467.516          43.000          44.000  
 109939172.265 7  85666944.673 6  20920730.984    20920744.748       -1906.762  
     -1485.410          44.000          40.000  
 127969635.254 6  99716692.224 6  24351811.110    24351832.307         170.660  
       132.422          40.000          41.000  
 107493461.063 7  83761206.314 7  20455326.859    20455343.008         -44.125  
       -34.160          45.000          42.000  
 127509627.782 6  99358225.728 6  24264279.849    24264296.839       -3443.121  
     -2681.359          36.000          37.000  
 114814912.965 7  89466253.755 7  21848550.402    21848569.682        2799.855  
      2181.676          47.000          43.000  
 24  1 10  3 23 17.0000000  0  7G08G18G23G24G10G15G32
 128240449.273 5  99927707.109 6  24403358.594    24403379.204        2674.551  
      2084.805          33.000          37.000  
 113260839.099 7  88255263.072 7  21552823.603    21552838.834       -1883.301  
     -1467.926          43.000          44.000  
 109939362.915 7  85667093.234 6  20920767.100    20920781.317       -1906.559  
     -1486.164          44.000          40.000  
 127969618.253 6  99716678.962 6  24351809.047    24351829.248         169.848  
       132.824          41.000          41.000  
 107493465.497 7  83761209.761 7  20455327.968    20455343.998         -44.184  
       -34.543          45.000          42.000  
 127509972.061 6  99358493.955 6  24264344.886    24264362.741       -3442.609  
     -2682.254          37.000          37.000  
 114814632.940 7  89466035.543 7  21848497.131    21848516.478        2800.332  
      2181.875          47.000          43.000  
 24  1 10  3 23 17.1000000  0  7G08G18G23G24G10G15G32
 128240181.817 5  99927498.766 6  24403307.698    24403328.324        2673.957  
      2083.441          33.000          38.000  
 113261027.367 7  88255409.740 7  21552859.429    21552874.652       -1882.973  
     -1466.812          43.000          44.000  
 109939553.633 7  85667241.909 6  20920803.392    20920817.625       -1906.637  
     -1486.004          45.000          39.000  
 127969601.250 6  99716665.679 6  24351805.811    24351826.004         169.566  
       132.383          40.000          41.000  
 107493469.965 7  83761213.247 7  20455328.819    20455344.850         -44.980  
       -34.629          45.000          42.000  
 127510316.226 6  99358762.250 6  24264410.379    24264428.261       -3441.566  
     -2682.672          36.000          37.000  
 114814352.857 7  89465817.314 7  21848443.833    21848463.184        2801.105  
      2182.516          47.000          43.000  
 24  1 10  3 23 17.2000000  0  7G08G18G23G24G10G15G32
 128239914.473 5  99927290.456 6  24403256.496    24403277.820        2673.465  
      2083.207          33.000          38.000  
 113261215.646 7  88255556.465 7  21552895.305    21552910.366       -1882.617  
     -1467.035          43.000          44.000  
 109939744.382 7  85667390.510 6  20920839.534    20920853.493       -1907.582  
     -1486.000          44.000          39.000  
 127969584.213 6  99716652.396 6  24351802.608    24351822.612         171.727  
       132.957          40.000          41.000  
 107493474.464 7  83761216.752 7  20455329.566    20455345.799         -45.117  
       -35.066          45.000          42.000  
 127510660.357 6  99359030.479 6  24264476.123    24264493.554       -3442.516  
     -2682.617          36.000          37.000  
 114814072.719 7  89465599.023 7  21848390.844    21848409.836        2801.523  
      2182.824          47.000          43.000  
 24  1 10  3 23 17.3000000  0  7G08G18G23G24G10G15G32
 128239647.226 5  99927082.206 6  24403205.641    24403226.963        2672.055  
      2082.516          33.000          38.000  
 113261403.896 7  88255703.167 7  21552931.127    21552946.192       -1882.340  
     -1466.938          43.000          44.000  
 109939935.142 7  85667539.192 6  20920875.834    20920889.803       -1907.844  
     -1486.914          45.000          39.000  
 127969567.095 6  99716639.113 6  24351799.351    24351819.368         170.422  
       132.863          39.000          41.000  
 107493478.987 7  83761220.297 7  20455330.426    20455346.665         -45.363  
       -35.410          45.000          42.000  
 127511004.700 6  99359298.771 6  24264541.649    24264559.074       -3442.906  
     -2682.551          37.000          37.000  
 114813792.520 7  89465380.694 7  21848337.524    21848356.518        2802.254  
      2183.414          47.000          43.000  
 24  1 10  3 23 17.4000000  0  7G08G18G23G24G10G15G32
 128239380.099 5  99926874.023 6  24403154.980    24403176.076        2671.113  
      2081.957          33.000          38.000  
 113261592.128 7  88255849.819 7  21552967.072    21552981.725       -1881.680  
     -1466.402          43.000          44.000  
 109940125.941 7  85667687.825 6  20920912.048    20920926.179       -1908.301  
     -1486.316          44.000          40.000  
 127969550.113 6  99716625.866 6  24351795.471    24351816.047         170.039  
       132.750          39.000          41.000  
 107493483.533 7  83761223.837 7  20455331.307    20455347.389         -45.727  
       -35.422          45.000          42.000  
 127511349.124 6  99359567.117 6  24264607.034    24264624.756       -3444.035  
     -2683.457          37.000          37.000  
 114813512.258 7  89465162.307 7  21848284.067    21848303.037        2803.016  
      2183.887          47.000          43.000  
 24  1 10  3 23 17.5000000  0  7G08G18G23G24G10G15G32
 128239112.960 5  99926665.886 6  24403104.145    24403125.247        2670.902  
      2081.531          33.000          38.000  
 113261780.304 7  88255996.442 7  21553002.880    21553017.532       -1881.711  
     -1466.367          43.000          44.000  
 109940316.770 7  85667836.527 6  20920948.362    20920962.493       -1908.273  
     -1486.805          44.000          40.000  
 127969533.080 6  99716612.548 6  24351792.230    24351812.795         170.676  
       133.285          39.000          41.000  
 107493488.136 7  83761227.392 7  20455332.183    20455348.257         -45.957  
       -35.723          45.000          42.000  
 127511693.381 6  99359835.477 6  24264672.544    24264690.292       -3443.688  
     -2683.293          37.000          38.000  
 114813231.966 7  89464943.892 7  21848230.730    21848249.698        2803.359  
      2184.191          47.000          43.000  
 24  1 10  3 23 17.6000000  0  7G08G18G23G24G10G15G32
 128238845.960 5  99926457.825 6  24403053.485    24403074.436        2670.035  
      2080.520          33.000          38.000  
 113261968.446 7  88256143.100 7  21553038.667    21553053.699       -1881.582  
     -1466.555          43.000          44.000  
 109940507.629 7  85667985.210 6  20920984.978    20920998.999       -1908.672  
     -1487.062          45.000          40.000  
 127969515.970 6  99716599.234 6  24351788.747    24351809.465         170.820  
       132.941          39.000          41.000  
 107493492.756 7  83761231.022 6  20455333.156    20455349.464         -46.266  
       -36.078          45.000          41.000  
 127512037.957 6  99360103.816 6  24264737.935    24264756.096       -3445.359  
     -2683.504          37.000          38.000  
 114812951.607 7  89464725.434 7  21848177.012    21848196.833        2803.500  
      2184.648          47.000          43.000  
 24  1 10  3 23 17.7000000  0  7G08G18G23G24G10G15G32
 128238579.061 5  99926249.852 6  24403002.696    24403023.647        2668.660  
      2079.895          32.000          38.000  
 113262156.651 7  88256289.682 7  21553074.481    21553089.496       -1881.621  
     -1466.020          43.000          44.000  
 109940698.518 7  85668133.998 6  20921021.303    20921035.334       -1909.355  
     -1487.820          44.000          40.000  
 127969498.897 6  99716585.965 6  24351785.498    24351806.225         170.355  
       132.652          39.000          41.000  
 107493497.424 7  83761234.641 6  20455334.044    20455350.348         -46.914  
       -36.352          45.000          41.000  
 127512382.477 6  99360372.214 6  24264803.495    24264821.642       -3444.324  
     -2683.930          39.000          38.000  
 114812671.229 7  89464506.953 7  21848123.658    21848143.478        2804.062  
      2184.809          47.000          43.000  
 24  1 10  3 23 17.8000000  0  7G08G18G23G24G10G15G32
 128238312.166 5  99926041.911 6  24402951.955    24402973.241        2669.422  
      2079.438          33.000          38.000  
 113262344.780 7  88256436.298 7  21553110.414    21553125.480       -1881.137  
     -1466.106          43.000          44.000  
 109940889.461 7  85668282.778 6  20921057.693    20921071.980       -1909.336  
     -1488.129          44.000          40.000  
 127969481.879 6  99716572.702 6  24351782.111    24351803.220         170.445  
       132.660          39.000          41.000  
 107493502.105 7  83761238.304 7  20455334.966    20455350.938         -46.969  
       -36.512          45.000          42.000  
 127512726.842 6  99360640.695 6  24264869.580    24264887.622       -3444.008  
     -2684.812          39.000          39.000  
 114812390.773 7  89464288.417 7  21848070.593    21848090.265        2804.703  
      2185.121          47.000          43.000  
 24  1 10  3 23 17.9000000  0  7G08G18G23G24G10G15G32
 128238045.349 5  99925833.996 6  24402901.181    24402922.466        2666.754  
      2079.020          34.000          38.000  
 113262532.891 7  88256582.877 7  21553146.210    21553161.277       -1881.324  
     -1465.906          43.000          44.000  
 109941080.384 7  85668431.564 6  20921094.024    20921108.315       -1909.457  
     -1487.574          44.000          39.000  
 127969464.811 6  99716559.362 6  24351778.863    24351799.963         170.547  
       133.273          39.000          40.000  
 107493506.811 7  83761241.985 7  20455335.861    20455351.837         -47.070  
       -36.668          45.000          42.000  
 127513071.440 6  99360909.154 6  24264935.155    24264953.182       -3446.008  
     -2684.676          40.000          39.000  
 114812110.284 7  89464069.862 7  21848017.218    21848036.892        2805.246  
      2185.715          47.000          43.000  
 24  1 10  3 23 18.0000000  0  7G08G18G23G24G10G15G32
 128237778.565 5  99925626.106 6  24402849.898    24402872.033        2667.406  
      2079.098          34.000          38.000  
 113262720.976 7  88256729.469 7  21553182.041    21553196.763       -1880.434  
     -1465.668          43.000          44.000  
 109941271.359 7  85668580.350 6  20921129.936    20921143.697       -1909.594  
     -1487.793          44.000          39.000  
 127969447.743 6  99716546.048 6  24351775.303    24351796.539         170.617  
       133.109          39.000          40.000  
 107493511.510 7  83761245.610 7  20455336.967    20455352.628         -47.211  
       -36.473          45.000          42.000  
 127513415.950 6  99361177.644 6  24265001.166    24265018.734       -3444.086  
     -2684.961          40.000          38.000  
 114811829.716 7  89463851.241 7  21847964.101    21847983.549        2805.910  
      2186.254          47.000          43.000  
 24  1 10  3 23 18.1000000  0  7G08G18G23G24G10G15G32
 128237511.948 5  99925418.301 6  24402799.163    24402821.284        2666.469  
      2078.047          34.000          38.000  
 113262909.097 7  88256876.010 7  21553217.839    21553232.550       -1881.195  
     -1465.672          43.000          45.000  
 109941462.363 7  85668729.160 6  20921166.283    20921180.038       -1910.141  
     -1488.332          44.000          39.000  
 127969430.655 6  99716532.782 6  24351772.051    24351793.300         170.586  
       132.895          39.000          40.000  
 107493516.266 7  83761249.340 7  20455337.872    20455353.539         -47.648  
       -37.109          45.000          42.000  
 127513760.587 6  99361446.191 6  24265066.748    24265084.317       -3447.789  
     -2685.258          40.000          38.000  
 114811549.142 7  89463632.610 7  21847910.710    21847930.157        2805.762  
      2186.320          47.000          43.000  
 24  1 10  3 23 18.2000000  0  7G08G18G23G24G10G15G32
 128237245.330 5  99925210.556 6  24402747.982    24402770.231        2666.625  
      2077.504          33.000          37.000  
 113263097.180 7  88257022.612 7  21553253.599    21553268.414       -1881.457  
     -1465.820          43.000          44.000  
 109941653.429 7  85668878.100 6  20921202.571    20921216.309       -1910.844  
     -1489.383          44.000          39.000  
 127969413.691 6  99716519.517 6  24351768.659    24351789.826         169.871  
       132.500          39.000          40.000  
 107493521.077 7  83761253.075 7  20455338.639    20455354.381         -48.418  
       -37.430          45.000          42.000  
 127514105.256 6  99361714.700 6  24265132.196    24265150.116       -3446.652  
     -2685.754          41.000          38.000  
 114811268.550 7  89463413.973 7  21847857.244    21847876.561        2806.035  
      2186.289          47.000          43.000  
 24  1 10  3 23 18.3000000  0  7G08G18G23G24G10G15G32
 128236978.678 5  99925002.850 6  24402697.239    24402719.507        2665.637  
      2076.953          33.000          37.000  
 113263285.318 7  88257169.175 7  21553289.400    21553304.206       -1881.582  
     -1465.922          43.000          44.000  
 109941844.520 7  85669026.982 6  20921238.935    20921252.668       -1911.238  
     -1488.961          44.000          39.000  
 127969396.655 6  99716506.255 6  24351765.417    24351786.587         170.582  
       132.426          40.000          40.000  
 107493525.905 7  83761256.823 7  20455339.557    20455355.296         -48.402  
       -37.594          44.000          42.000  
 127514449.969 7  99361983.398 6  24265197.793    24265215.734       -3447.082  
     -2685.895          42.000          39.000  
 114810987.928 7  89463195.299 7  21847803.844    21847823.158        2806.398  
      2186.676          47.000          43.000  
 24  1 10  3 23 18.4000000  0  7G08G18G23G24G10G15G32
 128236712.209 5  99924795.146 6  24402646.087    24402668.690        2664.953  
      2077.156          33.000          37.000  
 113263473.460 7  88257315.807 7  21553324.577    21553340.016       -1881.246  
     -1465.996          43.000          44.000  
 109942035.650 7  85669175.923 6  20921274.923    20921288.939       -1911.266  
     -1488.848          44.000          39.000  
 127969379.623 6  99716492.989 6  24351762.512    24351783.441         170.215  
       132.668          40.000          40.000  
 107493530.800 7  83761260.663 7  20455340.309    20455355.953         -48.910  
       -38.242          44.000          42.000  
 127514794.728 7  99362251.999 6  24265264.578    24265281.736       -3447.434  
     -2685.977          43.000          39.000  
 114810707.304 7  89462976.623 7  21847750.162    21847769.826        2806.219  
      2186.797          47.000          43.000  
 24  1 10  3 23 18.5000000  0  7G08G18G23G24G10G15G32
 128236445.782 5  99924587.555 6  24402595.387    24402617.994        2664.586  
      2075.828          34.000          37.000  
 113263661.543 7  88257462.361 7  21553360.368    21553375.805       -1881.078  
     -1465.992          43.000          44.000  
 109942226.854 7  85669324.890 6  20921311.308    20921325.318       -1911.918  
     -1489.777          45.000          39.000  
 127969362.607 6  99716479.750 6  24351759.274    24351780.208         170.227  
       132.270          40.000          40.000  
 107493535.730 7  83761264.483 7  20455341.247    20455356.886         -49.379  
       -38.430          44.000          42.000  
 127515139.472 7  99362520.568 6  24265330.181    24265347.323       -3447.676  
     -2686.301          43.000          39.000  
 114810426.629 7  89462757.926 7  21847696.751    21847716.418        2806.609  
      2186.895          47.000          43.000  
 24  1 10  3 23 18.6000000  0  7G08G18G23G24G10G15G32
 128236179.357 5  99924379.949 6  24402544.790    24402567.005        2664.062  
      2076.184          34.000          37.000  
 113263849.653 7  88257608.918 7  21553396.157    21553411.456       -1880.852  
     -1465.516          43.000          44.000  
 109942418.024 7  85669473.876 6  20921348.350    20921361.749       -1911.684  
     -1490.055          44.000          39.000  
 127969345.607 6  99716466.531 6  24351756.461    24351777.003         169.691  
       132.148          40.000          40.000  
 107493540.671 7  83761268.340 7  20455342.563    20455358.374         -49.281  
       -38.383          45.000          42.000  
 127515484.222 7  99362789.299 6  24265396.480    24265412.700       -3447.476  
     -2687.047          43.000          39.000  
 114810145.942 7  89462539.198 7  21847643.283    21847663.049        2807.188  
      2187.402          47.000          43.000  
 24  1 10  3 23 18.7000000  0  7G08G18G23G24G10G15G32
 128235913.043 5  99924172.446 6  24402494.112    24402516.331        2663.355  
      2075.250          33.000          37.000  
 113264037.746 7  88257755.539 7  21553431.950    21553447.262       -1880.953  
     -1465.766          43.000          44.000  
 109942609.271 7  85669622.951 6  20921384.743    20921398.155       -1912.352  
     -1490.262          44.000          39.000  
 127969328.586 6  99716453.248 6  24351753.222    24351773.759         170.672  
       132.477          39.000          40.000  
 107493545.656 7  83761272.245 7  20455343.511    20455359.328         -49.758  
       -38.879          44.000          42.000  
 127515829.026 7  99363057.995 6  24265462.094    24265478.318       -3447.766  
     -2687.043          42.000          39.000  
 114809865.208 7  89462320.463 7  21847589.861    21847609.632        2807.242  
      2187.430          47.000          43.000  
 24  1 10  3 23 18.8000000  0  7G08G18G23G24G10G15G32
 128235646.736 5  99923964.950 6  24402443.545    24402465.471        2662.977  
      2074.949          33.000          37.000  
 113264225.830 7  88257902.042 7  21553468.186    21553482.985       -1880.574  
     -1465.445          43.000          44.000  
 109942800.511 7  85669771.858 6  20921421.096    20921434.863       -1912.500  
     -1489.945          44.000          39.000  
 127969311.594 6  99716439.971 6  24351749.965    24351770.736         170.055  
       133.027          39.000          40.000  
 107493550.595 7  83761276.090 7  20455344.311    20455360.056         -49.688  
       -38.805          44.000          42.000  
 127516173.941 6  99363326.765 6  24265527.627    24265544.205       -3448.906  
     -2687.035          41.000          39.000  
 114809584.414 7  89462101.661 7  21847536.295    21847555.971        2807.871  
      2188.012          47.000          43.000  
 24  1 10  3 23 18.9000000  0  7G08G18G23G24G10G15G32
 128235380.522 5  99923757.459 6  24402392.886    24402414.799        2662.617  
      2074.852          33.000          37.000  
 113264413.909 7  88258048.633 7  21553503.976    21553518.784       -1880.965  
     -1465.527          43.000          44.000  
 109942991.784 7  85669920.926 6  20921457.494    20921471.267       -1912.602  
     -1490.352          44.000          39.000  
 127969294.507 6  99716426.716 6  24351746.713    24351767.499         170.609  
       132.645          39.000          40.000  
 107493555.634 7  83761280.012 7  20455345.269    20455361.014         -50.336  
       -39.242          45.000          42.000  
 127516519.018 6  99363595.375 6  24265593.293    24265609.802       -3451.226  
     -2686.922          38.000          39.000  
 114809303.625 7  89461882.853 7  21847482.863    21847502.536        2807.832  
      2187.914          47.000          43.000  
 24  1 10  3 23 19.0000000  0  7G08G18G23G24G10G15G32
 128235114.257 5  99923550.050 6  24402342.483    24402364.234        2662.188  
      2074.094          33.000          37.000  
 113264601.990 7  88258195.142 7  21553539.970    21553554.993       -1880.934  
     -1465.410          43.000          44.000  
 109943183.088 7  85670070.030 6  20921493.914    20921507.375       -1913.148  
     -1490.805          44.000          39.000  
 127969277.492 6  99716413.456 6  24351743.444    24351764.135         170.051  
       132.695          39.000          40.000  
 107493560.719 7  83761283.965 7  20455346.284    20455361.792         -50.625  
       -39.422          44.000          42.000  
 127516863.790 6  99363864.193 6  24265657.526    24265675.583       -3447.555  
     -2687.707          38.000          38.000  
 114809022.804 7  89461664.028 7  21847429.542    21847449.159        2808.277  
      2188.293          47.000          43.000  
 24  1 10  3 23 19.1000000  0  7G08G18G23G24G10G15G32
 128234848.148 5  99923342.650 6  24402291.844    24402313.585        2661.387  
      2073.883          33.000          37.000  
 113264790.008 7  88258341.684 7  21553575.749    21553590.780       -1880.492  
     -1465.481          43.000          44.000  
 109943374.453 7  85670219.137 6  20921530.329    20921543.789       -1913.285  
     -1490.930          45.000          39.000  
 127969260.491 6  99716400.204 6  24351740.209    24351760.899         170.250  
       132.453          39.000          40.000  
 107493565.812 7  83761287.951 7  20455347.253    20455362.765         -51.031  
       -39.758          45.000          42.000  
 127517208.482 6  99364132.949 6  24265723.119    24265741.216       -3448.527  
     -2687.809          38.000          38.000  
 114808741.945 7  89461445.188 7  21847376.096    21847395.716        2808.641  
      2188.422          47.000          43.000  
 24  1 10  3 23 19.2000000  0  7G08G18G23G24G10G15G32
 128234582.060 5  99923135.322 6  24402241.295    24402262.969        2661.121  
      2073.547          33.000          37.000  
 113264978.053 7  88258488.206 7  21553611.431    21553626.280       -1880.164  
     -1464.938          43.000          44.000  
 109943565.784 7  85670368.197 6  20921566.816    20921580.011       -1913.535  
     -1491.016          44.000          39.000  
 127969243.400 6  99716386.875 6  24351736.816    24351757.832         170.953  
       133.234          39.000          40.000  
 107493570.911 7  83761291.924 7  20455348.442    20455363.931         -51.020  
       -39.699          44.000          42.000  
 127517553.630 6  99364401.789 6  24265788.634    24265807.010       -3449.746  
     -2688.355          39.000          38.000  
 114808461.034 7  89461226.301 7  21847322.859    21847341.754        2809.195  
      2188.938          47.000          43.000  
 24  1 10  3 23 19.3000000  0  7G08G18G23G24G10G15G32
 128234316.015 5  99922928.004 6  24402190.669    24402212.339        2660.242  
      2072.887          33.000          37.000  
 113265166.047 7  88258634.707 7  21553647.205    21553662.057       -1880.016  
     -1465.199          43.000          44.000  
 109943757.156 7  85670517.418 6  20921603.233    20921616.452       -1913.574  
     -1491.719          44.000          39.000  
 127969226.276 6  99716373.582 6  24351733.558    24351754.585         170.914  
       132.793          40.000          40.000  
 107493576.029 7  83761295.888 7  20455349.416    20455364.899         -51.164  
       -39.785          44.000          42.000  
 127517898.499 6  99364670.562 6  24265854.261    24265872.647       -3449.414  
     -2687.598          40.000          38.000  
 114808180.095 7  89461007.379 7  21847269.398    21847288.291        2809.410  
      2189.215          47.000          43.000  
 24  1 10  3 23 19.4000000  0  7G08G18G23G24G10G15G32
 128234050.075 5  99922720.795 6  24402140.062    24402162.284        2659.531  
      2072.230          32.000          37.000  
 113265354.096 7  88258781.235 7  21553682.622    21553697.122       -1880.230  
     -1464.945          43.000          44.000  
 109943948.570 7  85670666.503 6  20921639.361    20921653.048       -1914.348  
     -1491.137          44.000          39.000  
 127969209.318 6  99716360.303 6  24351730.541    24351751.803         169.867  
       133.059          40.000          41.000  
 107493581.216 7  83761299.943 7  20455350.169    20455366.201         -51.855  
       -40.434          44.000          42.000  
 127518243.591 6  99364939.449 6  24265920.508    24265938.023       -3450.430  
     -2688.234          41.000          37.000  
 114807899.151 7  89460788.473 7  21847215.765    21847234.949        2809.383  
      2189.156          47.000          43.000  
 24  1 10  3 23 19.5000000  0  7G08G18G23G24G10G15G32
 128233784.172 5  99922513.575 6  24402089.462    24402111.679        2658.645  
      2072.094          33.000          37.000  
 113265542.030 7  88258927.680 7  21553718.385    21553732.886       -1879.352  
     -1464.738          43.000          44.000  
 109944139.943 7  85670815.590 6  20921675.778    20921689.456       -1913.617  
     -1491.223          44.000          40.000  
 127969192.197 6  99716346.939 6  24351727.284    24351748.540         171.059  
       133.516          40.000          41.000  
 107493586.362 7  83761303.967 7  20455351.148    20455367.184         -51.516  
       -40.316          44.000          42.000  
 127518588.565 6  99365208.164 6  24265986.154    24266003.646       -3450.012  
     -2688.328          41.000          38.000  
 114807618.117 7  89460569.486 7  21847162.286    21847181.470        2810.340  
      2189.816          47.000          43.000  
 24  1 10  3 23 19.6000000  0  7G08G18G23G24G10G15G32
 128233518.303 5  99922306.437 6  24402038.838    24402061.085        2658.848  
      2071.547          32.000          37.000  
 113265729.998 7  88259074.159 7  21553753.873    21553768.978       -1879.062  
     -1464.215          42.000          44.000  
 109944331.335 7  85670964.762 6  20921712.183    20921726.315       -1913.730  
     -1491.344          45.000          40.000  
 127969175.104 6  99716333.653 7  24351723.929    24351746.014         171.094  
       132.789          39.000          42.000  
 107493591.548 7  83761307.976 7  20455352.065    20455367.905         -51.656  
       -40.066          44.000          42.000  
 127518933.522 6  99365477.059 6  24266052.242    24266068.820       -3449.359  
     -2688.750          41.000          38.000  
 114807337.054 7  89460350.471 7  21847109.020    21847128.235        2810.832  
      2190.273          47.000          43.000  
 24  1 10  3 23 19.7000000  0  7G08G18G23G24G10G15G32
 128233252.558 5  99922099.342 6  24401988.268    24402010.511        2657.254  
      2071.145          33.000          37.000  
 113265917.863 7  88259220.523 7  21553789.622    21553804.721       -1878.812  
     -1463.863          42.000          44.000  
 109944522.740 7  85671113.936 6  20921748.606    20921762.745       -1913.953  
     -1491.602          44.000          40.000  
 127969157.984 6  99716320.333 7  24351720.672    24351742.761         171.105  
       133.262          39.000          42.000  
 107493596.749 7  83761312.043 7  20455353.054    20455368.898         -52.035  
       -40.469          44.000          42.000  
 127519278.640 6  99365746.001 6  24266117.916    24266134.499       -3450.703  
     -2688.598          41.000          38.000  
 114807055.931 7  89460131.415 7  21847055.524    21847074.739        2810.961  
      2190.281          47.000          43.000  
 24  1 10  3 23 19.8000000  0  7G08G18G23G24G10G15G32
 128232986.791 5  99921892.251 6  24401937.358    24401960.101        2657.832  
      2070.988          33.000          37.000  
 113266105.692 7  88259366.869 7  21553825.349    21553841.125       -1878.473  
     -1463.684          42.000          44.000  
 109944714.141 7  85671263.040 6  20921785.482    20921799.252       -1914.352  
     -1491.059          45.000          40.000  
 127969140.931 6  99716306.978 7  24351717.043    24351739.835         170.734  
       133.656          39.000          42.000  
 107493601.924 7  83761316.068 7  20455354.305    20455369.999         -51.723  
       -40.375          44.000          42.000  
 127519623.631 6  99366014.771 6  24266183.511    24266200.284       -3450.274  
     -2688.711          41.000          38.000  
 114806774.813 7  89459912.356 7  21847002.052    21847021.133        2811.566  
      2190.852          47.000          43.000  
 24  1 10  3 23 19.9000000  0  7G08G18G23G24G10G15G32
 128232721.002 5  99921685.152 6  24401886.781    24401909.526        2657.820  
      2070.668          33.000          37.000  
 113266293.538 7  88259513.268 7  21553861.095    21553876.877       -1878.039  
     -1463.430          42.000          44.000  
 109944905.512 7  85671412.188 6  20921821.899    20921835.675       -1913.699  
     -1491.652          45.000          40.000  
 127969123.708 6  99716293.607 7  24351713.766    24351736.570         171.957  
       133.523          40.000          42.000  
 107493607.119 7  83761320.137 7  20455355.293    20455370.992         -51.832  
       -40.582          44.000          42.000  
 127519968.662 6  99366283.651 6  24266249.168    24266265.947       -3450.613  
     -2688.680          41.000          38.000  
 114806493.608 7  89459693.241 7  21846948.541    21846967.623        2811.789  
      2190.984          47.000          43.000  
 24  1 10  3 23 20.0000000  0  7G08G18G23G24G10G15G32
 128232455.393 5  99921478.167 6  24401836.120    24401858.931        2656.699  
      2070.070          33.000          37.000  
 113266481.329 7  88259659.580 7  21553896.862    21553912.631       -1877.812  
     -1463.305          43.000          44.000  
 109945096.919 7  85671561.364 6  20921858.518    20921871.785       -1913.664  
     -1491.504          45.000          40.000  
 127969106.521 6  99716280.182 7  24351710.081    24351733.049         171.941  
       134.176          39.000          42.000  
 107493612.317 7  83761324.182 7  20455356.446    20455371.449         -52.043  
       -40.434          44.000          42.000  
 127520313.729 6  99366552.510 6  24266314.442    24266332.082       -3450.371  
     -2688.664          40.000          38.000  
 114806212.364 7  89459474.107 7  21846894.889    21846914.319        2812.668  
      2191.465          47.000          43.000  
 24  1 10  3 23 20.1000000  0  7G08G18G23G24G10G15G32
 128232189.774 5  99921271.216 6  24401785.574    24401808.391        2656.102  
      2069.445          33.000          37.000  
 113266669.002 7  88259805.864 7  21553932.575    21553948.355       -1876.965  
     -1462.844          42.000          44.000  
 109945288.302 7  85671710.486 6  20921894.937    20921908.202       -1913.957  
     -1491.145          44.000          40.000  
 127969089.346 6  99716266.764 7  24351706.813    24351729.773         171.848  
       134.109          39.000          42.000  
 107493617.507 7  83761328.229 7  20455357.434    20455372.437         -51.855  
       -40.445          44.000          42.000  
 127520658.777 6  99366821.403 6  24266380.102    24266397.748       -3450.621  
     -2688.840          39.000          38.000  
 114805931.074 7  89459254.908 7  21846841.361    21846860.789        2812.840  
      2191.988          47.000          43.000  
 24  1 10  3 23 20.2000000  0  7G08G18G23G24G10G15G32
 128231924.237 5  99921064.305 6  24401735.255    24401757.682        2655.598  
      2069.262          33.000          37.000  
 113266856.678 7  88259952.044 7  21553968.429    21553983.983       -1876.914  
     -1462.441          42.000          44.000  
 109945479.675 7  85671859.526 6  20921930.994    20921944.513       -1913.887  
     -1491.055          44.000          40.000  
 127969072.104 6  99716253.390 7  24351703.110    24351726.796         172.363  
       133.871          39.000          42.000  
 107493622.700 7  83761332.250 7  20455357.555    20455373.357         -51.918  
       -40.594          44.000          42.000  
 127521003.840 6  99367090.312 6  24266445.258    24266463.129       -3450.766  
     -2689.281          39.000          38.000  
 114805649.735 7  89459035.683 7  21846787.816    21846807.025        2813.223  
      2192.191          47.000          43.000  
 24  1 10  3 23 20.3000000  0  7G08G18G23G24G10G15G32
 128231658.740 5  99920857.373 6  24401684.733    24401707.147        2654.836  
      2069.160          33.000          37.000  
 113267044.370 7  88260098.324 7  21554004.146    21554019.706       -1876.617  
     -1462.234          42.000          44.000  
 109945671.044 7  85672008.689 6  20921967.411    20921980.941       -1913.785  
     -1491.449          44.000          40.000  
 127969054.898 6  99716239.970 7  24351699.836    24351723.518         171.867  
       134.184          39.000          42.000  
 107493627.896 7  83761336.340 7  20455358.544    20455374.355         -51.965  
       -40.633          44.000          42.000  
 127521348.946 6  99367359.244 6  24266510.929    24266528.805       -3451.226  
     -2689.426          39.000          38.000  
 114805368.352 7  89458816.419 7  21846734.271    21846753.478        2813.746  
      2192.508          47.000          43.000  
 24  1 10  3 23 20.4000000  0  7G08G18G23G24G10G15G32
 128231393.259 5  99920650.542 6  24401634.260    24401656.715        2655.027  
      2068.434          33.000          37.000  
 113267232.058 7  88260244.598 7  21554039.393    21554055.154       -1876.629  
     -1462.305          42.000          44.000  
 109945862.429 7  85672157.856 6  20922003.463    20922017.908       -1913.809  
     -1491.606          44.000          41.000  
 127969037.694 6  99716226.555 7  24351696.711    24351720.602         172.215  
       133.844          40.000          42.000  
 107493633.115 7  83761340.377 7  20455359.701    20455376.232         -52.168  
       -40.676          44.000          42.000  
 127521694.107 6  99367628.130 6  24266576.291    24266594.243       -3451.543  
     -2688.727          39.000          38.000  
 114805086.986 7  89458597.173 7  21846680.698    21846699.968        2813.910  
      2192.637          47.000          43.000  
 24  1 10  3 23 20.5000000  0  7G08G18G23G24G10G15G32
 128231127.752 5  99920443.710 6  24401583.736    24401606.204        2654.375  
      2068.520          33.000          37.000  
 113267419.678 7  88260390.775 7  21554075.096    21554090.853       -1876.711  
     -1462.356          43.000          44.000  
 109946053.828 7  85672306.994 6  20922039.885    20922054.329       -1914.031  
     -1491.496          44.000          40.000  
 127969020.487 6  99716213.188 7  24351693.436    24351717.337         172.293  
       133.773          40.000          42.000  
 107493638.335 7  83761344.458 7  20455360.694    20455377.229         -52.145  
       -40.738          44.000          42.000  
 127522039.205 6  99367897.059 6  24266641.961    24266659.919       -3450.738  
     -2689.293          40.000          38.000  
 114804805.558 7  89458377.879 7  21846627.144    21846646.414        2814.207  
      2192.875          47.000          43.000  
 24  1 10  3 23 20.6000000  0  7G08G18G23G24G10G15G32
 128230862.434 5  99920236.844 6  24401533.435    24401555.638        2654.145  
      2068.293          33.000          37.000  
 113267607.357 7  88260537.010 7  21554110.810    21554126.861       -1876.746  
     -1461.934          43.000          45.000  
 109946245.274 7  85672456.097 6  20922076.214    20922090.843       -1914.246  
     -1491.020          44.000          40.000  
 127969003.297 6  99716199.798 7  24351690.212    24351713.989         171.973  
       133.941          39.000          42.000  
 107493643.596 7  83761348.532 7  20455361.430    20455378.099         -52.371  
       -40.742          45.000          42.000  
 127522384.352 6  99368166.064 6  24266707.664    24266725.714       -3451.496  
     -2690.098          39.000          37.000  
 114804524.129 7  89458158.568 7  21846573.652    21846592.934        2814.105  
      2192.953          47.000          43.000  
 24  1 10  3 23 20.7000000  0  7G08G18G23G24G10G15G32
 128230597.029 5  99920030.107 6  24401482.930    24401505.151        2653.996  
      2067.617          33.000          37.000  
 113267794.993 7  88260683.212 7  21554146.516    21554162.565       -1876.707  
     -1462.773          43.000          44.000  
 109946436.746 7  85672605.333 6  20922112.650    20922127.288       -1914.441  
     -1492.273          44.000          40.000  
 127968986.206 6  99716186.390 7  24351686.960    24351710.715         171.438  
       133.969          39.000          42.000  
 107493648.861 7  83761352.642 7  20455362.432    20455379.102         -52.484  
       -41.070          45.000          42.000  
 127522729.621 6  99368435.047 6  24266773.366    24266791.402       -3451.828  
     -2689.953          39.000          37.000  
 114804242.684 7  89457939.292 7  21846520.095    21846539.385        2814.367  
      2192.988          47.000          43.000  
 24  1 10  3 23 20.8000000  0  7G08G18G23G24G10G15G32
 128230331.683 5  99919823.363 6  24401432.257    24401454.420        2653.766  
      2067.504          33.000          37.000  
 113267982.668 7  88260829.489 7  21554182.276    21554198.116       -1876.500  
     -1462.281          43.000          45.000  
 109946628.225 7  85672754.531 6  20922149.291    20922163.520       -1914.707  
     -1492.016          44.000          40.000  
 127968968.946 6  99716173.049 7  24351683.605    24351706.965         172.070  
       133.348          39.000          42.000  
 107493654.130 7  83761356.772 7  20455363.598    20455379.900         -52.719  
       -41.273          45.000          42.000  
 127523074.894 6  99368704.081 6  24266838.827    24266856.650       -3452.488  
     -2689.988          38.000          37.000  
 114803961.179 7  89457719.911 7  21846466.503    21846485.520        2814.539  
      2193.457          47.000          43.000  
 24  1 10  3 23 20.9000000  0  7G08G18G23G24G10G15G32
 128230066.331 5  99919616.601 6  24401381.762    24401403.927        2653.672  
      2067.613          33.000          38.000  
 113268170.312 7  88260975.690 7  21554217.984    21554233.820       -1876.441  
     -1461.992          43.000          45.000  
 109946819.668 7  85672903.753 6  20922185.721    20922199.962       -1914.434  
     -1491.969          44.000          40.000  
 127968951.805 6  99716159.650 7  24351680.343    24351703.693         171.648  
       134.109          39.000          42.000  
 107493659.363 7  83761360.862 7  20455364.594    20455380.899         -52.430  
       -40.781          45.000          42.000  
 127523420.125 6  99368973.010 6  24266904.522    24266922.325       -3452.207  
     -2689.691          37.000          36.000  
 114803679.645 7  89457500.562 7  21846412.928    21846431.953        2815.191  
      2193.824          47.000          43.000  
 24  1 10  3 23 21.0000000  0  7G08G18G23G24G10G15G32
 128229801.019 5  99919409.859 6  24401331.118    24401353.813        2653.348  
      2067.465          33.000          38.000  
 113268357.941 7  88261121.873 7  21554253.618    21554269.730       -1876.441  
     -1462.141          43.000          44.000  
 109947011.174 7  85673052.936 6  20922221.827    20922236.628       -1914.727  
     -1492.301          45.000          40.000  
 127968934.639 6  99716146.271 7  24351677.475    24351700.668         171.723  
       133.859          38.000          42.000  
 107493664.659 7  83761364.964 7  20455365.735    20455381.971         -52.738  
       -41.188          45.000          42.000  
 127523765.323 6  99369242.133 6  24266969.860    24266987.853       -3452.078  
     -2690.949          38.000          36.000  
 114803398.089 7  89457281.161 7  21846359.295    21846378.381        2815.285  
      2193.887          47.000          43.000  
 24  1 10  3 23 21.1000000  0  7G08G18G23G24G10G15G32
 128229535.797 5  99919203.169 6  24401280.648    24401303.337        2652.758  
      2066.801          33.000          38.000  
 113268545.602 7  88261268.118 7  21554289.329    21554305.445       -1876.512  
     -1462.270          43.000          44.000  
 109947202.719 7  85673202.260 6  20922258.277    20922273.095       -1915.289  
     -1492.691          45.000          40.000  
 127968917.493 6  99716132.883 6  24351674.212    24351697.398         171.480  
       133.656          38.000          41.000  
 107493669.979 7  83761369.108 7  20455366.747    20455382.983         -53.023  
       -41.547          44.000          42.000  
 127524110.613 6  99369511.142 6  24267035.566    24267053.547       -3452.871  
     -2690.020          38.000          36.000  
 114803116.561 7  89457061.782 7  21846305.722    21846324.806        2815.281  
      2193.809          47.000          43.000  
 24  1 10  3 23 21.2000000  0  7G08G18G23G24G10G15G32
 128229270.577 5  99918996.489 6  24401230.538    24401252.895        2652.566  
      2066.918          33.000          38.000  
 113268733.236 7  88261414.297 7  21554325.089    21554340.393       -1876.539  
     -1462.328          42.000          45.000  
 109947394.226 7  85673351.441 6  20922295.142    20922309.987       -1915.199  
     -1492.336          44.000          40.000  
 127968900.350 6  99716119.530 6  24351670.669    24351693.692         171.539  
       133.629          39.000          41.000  
 107493675.328 7  83761373.246 7  20455367.664    20455384.087         -53.309  
       -41.445          44.000          42.000  
 127524455.921 6  99369780.151 6  24267101.323    24267118.922       -3452.785  
     -2690.348          41.000          37.000  
 114802835.039 7  89456842.414 7  21846252.127    21846271.422        2815.293  
      2193.699          47.000          43.000  
 24  1 10  3 23 21.3000000  0  7G08G18G23G24G10G15G32
 128229005.410 5  99918789.870 6  24401180.078    24401202.437        2652.113  
      2066.188          33.000          37.000  
 113268920.915 7  88261560.593 7  21554360.803    21554376.120       -1876.371  
     -1462.305          42.000          45.000  
 109947585.786 7  85673500.711 6  20922331.594    20922346.440       -1915.438  
     -1492.418          44.000          40.000  
 127968883.110 6  99716106.147 6  24351667.388    24351690.424         171.922  
       134.059          39.000          41.000  
 107493680.723 7  83761377.466 7  20455368.690    20455385.118         -53.758  
       -42.074          44.000          42.000  
 127524801.235 6  99370049.260 6  24267167.034    24267184.641       -3452.774  
     -2690.262          41.000          37.000  
 114802553.543 7  89456623.085 7  21846198.560    21846217.860        2815.078  
      2193.402          46.000          43.000  
 24  1 10  3 23 21.4000000  0  7G08G18G23G24G10G15G32
 128228740.205 5  99918583.263 6  24401129.838    24401152.051        2651.918  
      2065.977          33.000          37.000  
 113269108.549 7  88261706.781 7  21554396.868    21554412.258       -1876.551  
     -1462.277          42.000          45.000  
 109947777.347 7  85673649.993 6  20922367.547    20922382.295       -1915.359  
     -1492.871          44.000          40.000  
 127968865.880 6  99716092.673 6  24351664.578    24351686.938         172.109  
       134.438          40.000          41.000  
 107493686.153 7  83761381.711 7  20455369.731    20455386.061         -54.008  
       -42.531          44.000          42.000  
 127525146.386 6  99370318.140 6  24267232.714    24267250.499       -3452.617  
     -2690.242          41.000          37.000  
 114802272.086 7  89456403.780 7  21846145.352    21846164.162        2814.746  
      2192.980          46.000          43.000  
 24  1 10  3 23 21.5000000  0  7G08G18G23G24G10G15G32
 128228475.123 5  99918376.652 6  24401079.395    24401101.595        2651.566  
      2066.000          32.000          37.000  
 113269296.155 6  88261852.948 7  21554432.568    21554447.954       -1876.324  
     -1462.023          41.000          45.000  
 109947968.883 7  85673799.246 6  20922403.995    20922418.744       -1915.371  
     -1492.555          44.000          40.000  
 127968848.658 6  99716079.211 6  24351661.301    24351683.650         172.207  
       134.371          41.000          41.000  
 107493691.677 7  83761385.997 7  20455370.782    20455387.107         -54.727  
       -42.875          44.000          42.000  
 127525491.644 7  99370587.249 6  24267298.415    24267316.219       -3452.141  
     -2689.902          42.000          38.000  
 114801990.714 7  89456184.507 7  21846091.809    21846110.614        2813.988  
      2192.535          45.000          42.000  
 24  1 10  3 23 21.6000000  0  7G08G18G23G24G10G15G32
 128228210.037 5  99918170.107 6  24401029.247    24401051.061        2650.695  
      2065.699          32.000          37.000  
 113269483.826 6  88261999.187 7  21554468.507    21554483.612       -1876.082  
     -1461.387          41.000          45.000  
 109948160.398 7  85673948.439 6  20922440.877    20922454.764       -1915.070  
     -1492.371          44.000          41.000  
 127968831.240 7  99716065.695 6  24351658.439    24351680.107         174.137  
       135.473          42.000          41.000  
 107493697.178 7  83761390.279 7  20455372.431    20455387.817         -54.977  
       -43.191          44.000          42.000  
 127525836.705 7  99370856.076 6  24267363.828    24267382.103       -3450.723  
     -2688.820          42.000          38.000  
 114801709.386 7  89455965.300 7  21846038.165    21846056.987        2813.477  
      2191.953          45.000          42.000  
 24  1 10  3 23 21.7000000  0  7G08G18G23G24G10G15G32
 128227945.030 5  99917963.620 6  24400978.818    24401000.635        2649.840  
      2064.777          32.000          37.000  
 113269671.344 6  88262145.294 7  21554504.191    21554519.293       -1875.504  
     -1461.445          41.000          45.000  
 109948351.966 7  85674097.740 6  20922477.331    20922491.225       -1915.559  
     -1492.250          44.000          41.000  
 127968813.833 7  99716052.084 6  24351655.127    24351676.783         174.078  
       135.695          42.000          41.000  
 107493702.773 7  83761394.653 7  20455373.496    20455388.885         -56.109  
       -43.551          45.000          42.000  
 127526181.768 7  99371124.944 6  24267429.491    24267447.764       -3450.808  
     -2688.754          42.000          38.000  
 114801428.139 7  89455746.164 7  21845984.645    21846003.472        2812.387  
      2191.523          44.000          42.000  
 24  1 10  3 23 21.8000000  0  7G08G18G23G24G10G15G32
 128227679.988 5  99917757.114 6  24400928.422    24400949.993        2650.375  
      2064.895          32.000          37.000  
 113269858.828 6  88262291.403 7  21554539.969    21554555.068       -1874.516  
     -1460.676          41.000          45.000  
 109948543.344 7  85674246.806 6  20922513.788    20922527.504       -1914.203  
     -1491.711          43.000          41.000  
 127968796.243 7  99716038.447 6  24351651.592    24351672.718         175.715  
       136.438          43.000          40.000  
 107493708.388 7  83761399.033 7  20455374.681    20455390.174         -56.039  
       -43.867          44.000          42.000  
 127526526.639 7  99371393.739 6  24267495.602    24267513.414       -3448.703  
     -2687.438          43.000          38.000  
 114801146.956 7  89455527.043 6  21845930.935    21845949.812        2811.836  
      2191.098          44.000          41.000  
 24  1 10  3 23 21.9000000  0  7G08G18G23G24G10G15G32
 128227414.992 5  99917550.644 6  24400877.994    24400899.571        2649.840  
      2064.773          32.000          38.000  
 113270046.202 6  88262437.371 7  21554575.625    21554590.715       -1873.711  
     -1460.285          41.000          45.000  
 109948734.708 7  85674396.032 6  20922550.203    20922563.946       -1913.430  
     -1491.309          43.000          41.000  
 127968778.584 7  99716024.737 6  24351648.232    24351669.370         176.738  
       137.406          43.000          40.000  
 107493714.017 7  83761403.416 6  20455375.752    20455391.244         -56.172  
       -43.945          44.000          41.000  
 127526871.415 7  99371662.360 6  24267561.211    24267579.014       -3447.750  
     -2686.734          43.000          38.000  
 114800865.806 7  89455307.976 6  21845877.434    21845896.314        2811.227  
      2190.512          44.000          41.000  
 24  1 10  3 23 22.0000000  0  7G08G18G23G24G10G15G32
 128227150.085 5  99917344.178 6  24400827.780    24400848.986        2648.223  
      2064.520          33.000          38.000  
 113270233.506 6  88262583.339 7  21554611.026    21554626.674       -1872.766  
     -1459.648          41.000          45.000  
 109948926.000 7  85674545.025 7  20922586.058    20922600.480       -1912.969  
     -1490.441          43.000          42.000  
 127968760.768 7  99716010.865 6  24351644.568    24351665.319         178.559  
       138.480          42.000          40.000  
 107493719.666 7  83761407.814 6  20455376.593    20455392.107         -56.531  
       -43.809          44.000          41.000  
 127527216.088 7  99371930.959 6  24267626.933    24267644.397       -3446.230  
     -2685.746          43.000          39.000  
 114800584.715 7  89455088.939 6  21845824.006    21845843.331        2810.562  
      2190.207          43.000          41.000  
 24  1 10  3 23 22.1000000  0  7G08G18G23G24G10G15G32
 128226885.111 5  99917137.757 6  24400777.357    24400798.575        2649.355  
      2064.172          33.000          37.000  
 113270420.795 6  88262729.265 7  21554646.666    21554662.311       -1872.953  
     -1459.234          41.000          45.000  
 109949117.255 7  85674694.086 7  20922622.453    20922636.882       -1912.305  
     -1490.102          43.000          42.000  
 127968742.876 7  99715996.916 6  24351641.163    24351661.912         179.387  
       139.531          42.000          41.000  
 107493725.347 7  83761412.252 6  20455377.674    20455393.191         -57.418  
       -44.391          44.000          41.000  
 127527560.665 7  99372199.447 6  24267692.504    24267709.965       -3445.524  
     -2685.047          43.000          39.000  
 114800303.767 7  89454870.013 6  21845770.544    21845789.866        2809.461  
      2189.605          43.000          41.000  
 24  1 10  3 23 22.2000000  0  7G08G18G23G24G10G15G32
 128226620.230 5  99916931.323 6  24400727.038    24400747.889        2649.156  
      2064.359          33.000          37.000  
 113270607.973 7  88262875.146 7  21554682.691    21554697.553       -1871.449  
     -1459.078          42.000          45.000  
 109949308.496 7  85674843.084 7  20922658.915    20922673.379       -1912.105  
     -1490.379          43.000          42.000  
 127968724.970 7  99715982.856 6  24351637.537    24351658.807         178.984  
       140.156          42.000          41.000  
 107493731.086 7  83761416.720 6  20455378.329    20455394.212         -57.309  
       -44.727          44.000          41.000  
 127527905.169 7  99372467.929 6  24267758.240    24267776.172       -3444.816  
     -2684.359          44.000          39.000  
 114800022.823 7  89454651.111 6  21845716.855    21845736.385        2809.016  
      2188.848          44.000          41.000  
 24  1 10  3 23 22.3000000  0  7G08G18G23G24G10G15G32
 128226355.280 5  99916724.883 6  24400676.619    24400697.474        2648.988  
      2064.148          33.000          37.000  
 113270795.195 6  88263021.052 7  21554718.318    21554733.185       -1872.023  
     -1458.527          41.000          45.000  
 109949499.678 7  85674992.083 7  20922695.296    20922709.766       -1911.312  
     -1489.473          43.000          42.000  
 127968706.840 7  99715968.757 6  24351634.087    24351655.364         181.754  
       141.145          42.000          41.000  
 107493736.832 7  83761421.194 6  20455379.422    20455395.304         -57.609  
       -44.895          44.000          41.000  
 127528249.508 7  99372736.226 6  24267823.766    24267841.693       -3443.086  
     -2683.344          43.000          40.000  
 114799741.980 7  89454432.266 6  21845663.413    21845682.941        2808.113  
      2188.562          44.000          41.000  
 24  1 10  3 23 22.4000000  0  7G08G24G18G23G10G32G15
 128226090.432 5  99916518.474 6  24400626.205    24400647.176        2648.609  
      2064.102          32.000          38.000  
 127968688.688 7  99715954.613 7  24351630.828    24351652.402         181.605  
       141.527          42.000          42.000  
 113270982.342 6  88263166.849 7  21554753.790    21554769.345       -1871.355  
     -1458.406          41.000          45.000  
 109949690.905 7  85675141.036 7  20922731.615    20922745.899       -1912.602  
     -1489.637          43.000          42.000  
 107493742.661 7  83761425.734 6  20455380.641    20455396.179         -58.625  
       -45.305          44.000          41.000  
 114799461.216 7  89454213.481 6  21845610.141    21845629.167        2807.035  
      2187.668          44.000          41.000  
 127528593.836 7  99373004.578 6  24267888.930    24267907.625       -3443.043  
     -2683.238          43.000          40.000  
 24  1 10  3 23 22.5000000  0  7G08G24G18G23G10G32G15
 128225825.607 5  99916312.132 6  24400575.810    24400596.785        2647.996  
      2063.566          32.000          37.000  
 127968670.495 7  99715940.472 6  24351627.366    24351648.948         181.984  
       141.262          42.000          41.000  
 113271169.460 6  88263312.663 7  21554789.398    21554804.954       -1871.582  
     -1458.141          41.000          45.000  
 109949881.998 7  85675289.981 7  20922767.979    20922782.273       -1910.727  
     -1489.766          44.000          42.000  
 107493748.518 7  83761430.299 6  20455381.755    20455397.294         -58.754  
       -45.723          44.000          41.000  
 114799180.513 7  89453994.757 6  21845556.725    21845575.753        2806.793  
      2187.203          44.000          41.000  
 127528938.034 7  99373272.765 6  24267954.428    24267973.119       -3441.930  
     -2682.117          43.000          40.000  
 24  1 10  3 23 22.6000000  0  7G08G24G18G23G10G32G15
 128225560.790 5  99916105.758 6  24400525.222    24400546.816        2647.852  
      2063.867          33.000          37.000  
 127968652.194 7  99715926.210 6  24351623.782    24351646.192         183.312  
       142.473          42.000          41.000  
 113271356.564 6  88263458.456 7  21554824.682    21554840.402       -1870.562  
     -1457.758          41.000          45.000  
 109950073.106 7  85675438.896 7  20922804.869    20922818.562       -1910.793  
     -1488.910          44.000          42.000  
 107493754.383 7  83761434.868 6  20455382.942    20455398.613         -58.805  
       -45.812          44.000          41.000  
 114798899.853 7  89453776.063 6  21845503.591    21845522.658        2806.281  
      2186.887          44.000          41.000  
 127529282.178 7  99373540.850 6  24268019.378    24268038.456       -3441.223  
     -2681.312          43.000          40.000  
 24  1 10  3 23 22.7000000  0  7G08G24G18G23G10G32G15
 128225295.996 5  99915899.486 6  24400474.833    24400496.443        2647.684  
      2062.809          33.000          38.000  
 127968633.813 7  99715911.913 6  24351620.284    24351642.700         184.270  
       142.898          42.000          41.000  
 113271543.614 6  88263604.224 7  21554860.277    21554876.000       -1870.520  
     -1457.461          41.000          45.000  
 109950264.173 7  85675587.765 7  20922841.228    20922854.917       -1910.602  
     -1489.016          44.000          42.000  
 107493760.290 7  83761439.480 6  20455384.066    20455399.739         -59.109  
       -46.133          44.000          41.000  
 114798619.226 7  89453557.372 6  21845450.189    21845469.251        2806.258  
      2186.652          44.000          41.000  
 127529626.312 7  99373809.073 6  24268084.864    24268103.958       -3440.785  
     -2681.293          43.000          40.000  
 24  1 10  3 23 22.8000000  0  7G08G24G18G23G10G32G15
 128225031.274 5  99915693.146 6  24400424.646    24400446.326        2646.309  
      2063.301          33.000          37.000  
 127968615.489 7  99715897.593 6  24351616.547    24351638.438         183.047  
       143.566          42.000          41.000  
 113271730.637 6  88263749.963 7  21554895.710    21554911.404       -1870.543  
     -1457.559          41.000          45.000  
 109950455.257 7  85675736.695 7  20922877.949    20922891.951       -1910.414  
     -1488.934          44.000          42.000  
 107493766.237 7  83761444.090 6  20455385.440    20455401.138         -59.777  
       -46.152          44.000          41.000  
 114798338.663 7  89453338.754 6  21845396.394    21845415.972        2805.352  
      2186.250          44.000          41.000  
 127529970.344 7  99374077.091 6  24268150.644    24268169.645       -3440.555  
     -2681.051          43.000          40.000  
 24  1 10  3 23 22.9000000  0  7G08G24G18G23G10G32G15
 128224766.509 5  99915486.876 6  24400374.263    24400395.953        2648.281  
      2062.559          33.000          37.000  
 127968597.076 6  99715883.261 6  24351613.044    24351634.938         184.520  
       143.059          41.000          41.000  
 113271917.675 6  88263895.718 7  21554931.302    21554946.998       -1870.398  
     -1457.367          41.000          45.000  
 109950646.359 7  85675885.555 7  20922914.314    20922928.305       -1911.004  
     -1488.606          45.000          42.000  
 107493772.207 7  83761448.754 6  20455386.576    20455402.277         -59.453  
       -46.398          44.000          41.000  
 114798058.104 7  89453120.139 7  21845343.005    21845362.584        2805.645  
      2186.109          45.000          42.000  
 127530314.399 7  99374345.213 6  24268216.115    24268235.124       -3440.766  
     -2680.930          43.000          40.000  
 24  1 10  3 23 23.0000000  0  7G08G24G18G23G10G32G15
 128224501.854 5  99915280.629 6  24400323.822    24400345.257        2645.672  
      2062.949          33.000          37.000  
 127968578.663 6  99715868.880 6  24351609.524    24351630.902         184.281  
       143.758          41.000          41.000  
 113272104.628 7  88264041.358 7  21554966.932    21554982.354       -1869.289  
     -1456.641          42.000          45.000  
 109950837.339 7  85676034.399 6  20922950.813    20922965.138       -1909.793  
     -1488.500          45.000          41.000  
 107493778.119 7  83761453.359 7  20455387.740    20455403.089         -59.184  
       -46.230          44.000          42.000  
 114797777.518 7  89452901.512 7  21845290.010    21845309.482        2806.215  
      2186.410          45.000          42.000  
 127530658.360 7  99374613.229 6  24268282.366    24268300.545       -3439.590  
     -2680.531          43.000          40.000  
 24  1 10  3 23 23.1000000  0  7G08G24G18G23G10G32G15
 128224237.119 5  99915074.322 6  24400273.445    24400294.875        2647.797  
      2062.523          33.000          37.000  
 127968560.115 6  99715854.406 6  24351605.995    24351627.368         185.453  
       144.000          41.000          41.000  
 113272291.512 7  88264187.002 7  21555002.495    21555017.922       -1868.777  
     -1456.559          42.000          45.000  
 109951028.357 7  85676183.256 6  20922987.162    20923001.491       -1909.715  
     -1487.914          45.000          41.000  
 107493784.011 7  83761457.967 7  20455388.861    20455404.214         -58.910  
       -45.867          44.000          42.000  
 114797496.887 7  89452682.805 7  21845236.608    21845256.072        2806.406  
      2186.812          46.000          42.000  
 127531002.289 7  99374881.252 6  24268347.813    24268365.999       -3438.785  
     -2680.160          42.000          40.000  
 24  1 10  3 23 23.2000000  0  7G08G24G18G23G10G32G15
 128223972.404 5  99914868.099 6  24400223.040    24400243.950        2647.133  
      2062.422          33.000          37.000  
 127968541.697 6  99715840.139 7  24351602.997    24351624.251         184.711  
       143.730          41.000          42.000  
 113272478.505 7  88264332.703 7  21555038.423    21555053.215       -1869.598  
     -1456.633          42.000          45.000  
 109951219.391 7  85676332.055 6  20923023.617    20923037.391       -1910.188  
     -1488.445          44.000          40.000  
 107493789.946 7  83761462.581 7  20455390.209    20455405.544         -59.379  
       -46.156          45.000          42.000  
 114797216.290 7  89452464.186 7  21845183.141    21845202.581        2806.047  
      2186.543          46.000          42.000  
 127531346.394 7  99375149.403 6  24268412.998    24268431.632       -3440.656  
     -2680.949          42.000          40.000  
 24  1 10  3 23 23.3000000  0  7G08G24G18G23G10G32G15
 128223707.691 5  99914661.814 6  24400172.667    24400193.573        2646.836  
      2062.543          33.000          37.000  
 127968523.271 6  99715825.714 6  24351599.491    24351620.728         183.910  
       143.480          41.000          41.000  
 113272665.420 7  88264478.307 7  21555073.991    21555088.773       -1869.457  
     -1456.750          43.000          45.000  
 109951410.401 7  85676480.942 6  20923059.965    20923073.751       -1910.258  
     -1488.973          44.000          40.000  
 107493795.857 7  83761467.201 7  20455391.334    20455406.673         -59.102  
       -46.211          45.000          42.000  
 114796935.658 7  89452245.505 7  21845129.739    21845149.177        2806.363  
      2186.656          46.000          43.000  
 127531690.487 6  99375417.469 6  24268478.476    24268497.097       -3441.121  
     -2681.078          41.000          39.000  
 24  1 10  3 23 23.4000000  0  7G08G24G18G23G10G32G15
 128223443.083 5  99914455.605 6  24400122.329    24400143.067        2646.586  
      2062.441          33.000          37.000  
 127968504.876 6  99715811.361 6  24351595.873    24351617.473         183.992  
       143.469          40.000          41.000  
 113272852.402 7  88264624.069 7  21555109.503    21555124.791       -1869.785  
     -1457.078          43.000          45.000  
 109951601.456 7  85676629.790 6  20923095.907    20923109.703       -1910.430  
     -1488.113          44.000          40.000  
 107493801.827 7  83761471.839 7  20455392.532    20455407.868         -59.531  
       -46.176          45.000          42.000  
 114796655.020 7  89452026.839 7  21845076.492    21845095.612        2806.375  
      2186.738          47.000          43.000  
 127532034.559 6  99375685.565 6  24268543.927    24268562.459       -3440.856  
     -2681.078          40.000          39.000  
 24  1 10  3 23 23.5000000  0  7G08G24G18G23G10G32G15
 128223178.408 5  99914249.379 6  24400071.963    24400092.704        2646.398  
      2062.297          33.000          37.000  
 127968486.510 6  99715797.064 6  24351592.379    24351613.981         183.570  
       143.246          39.000          41.000  
 113273039.423 7  88264769.788 7  21555145.091    21555160.377       -1870.195  
     -1457.348          42.000          45.000  
 109951792.558 7  85676778.696 6  20923132.273    20923146.067       -1911.016  
     -1489.262          44.000          40.000  
 107493807.770 7  83761476.471 7  20455393.663    20455408.999         -59.703  
       -46.582          45.000          42.000  
 114796374.394 7  89451808.139 7  21845023.090    21845042.204        2806.312  
      2186.742          47.000          43.000  
 127532378.504 6  99375953.713 6  24268609.378    24268627.944       -3440.398  
     -2681.422          40.000          39.000  
 24  1 10  3 23 23.6000000  0  7G08G24G18G23G10G32G15
 128222913.756 5  99914043.140 6  24400022.180    24400042.448        2646.281  
      2062.250          33.000          38.000  
 127968468.168 6  99715782.788 6  24351588.904    24351610.386         183.441  
       142.598          39.000          41.000  
 113273226.438 7  88264915.480 7  21555180.750    21555196.050       -1870.434  
     -1457.387          43.000          45.000  
 109951983.666 7  85676927.600 6  20923168.342    20923182.697       -1911.266  
     -1489.137          44.000          40.000  
 107493813.705 7  83761481.097 7  20455394.504    20455409.941         -59.324  
       -46.254          45.000          42.000  
 114796093.715 7  89451589.455 7  21844969.655    21844988.822        2806.777  
      2186.887          47.000          43.000  
 127532722.844 6  99376221.876 6  24268674.724    24268693.260       -3441.692  
     -2681.602          39.000          38.000  
 24  1 10  3 23 23.7000000  0  7G08G24G18G23G10G32G15
 128222649.029 5  99913836.911 6  24399971.804    24399992.085        2647.016  
      2062.449          33.000          38.000  
 127968449.854 6  99715768.520 6  24351585.419    24351606.901         182.957  
       142.754          38.000          41.000  
 113273413.468 7  88265061.243 7  21555216.340    21555231.647       -1870.324  
     -1457.457          43.000          45.000  
 109952174.773 7  85677076.541 6  20923204.709    20923219.070       -1910.969  
     -1489.645          44.000          39.000  
 107493819.635 7  83761485.729 7  20455395.632    20455411.072         -59.191  
       -46.059          45.000          42.000  
 114795813.012 7  89451370.721 7  21844916.239    21844935.405        2807.098  
      2187.461          47.000          44.000  
 127533066.858 6  99376490.099 6  24268740.188    24268758.763       -3441.277  
     -2682.008          38.000          38.000  
 24  1 10  3 23 23.8000000  0  7G08G24G18G23G10G32G15
 128222384.402 5  99913630.722 6  24399921.338    24399941.559        2646.688  
      2061.953          33.000          38.000  
 127968431.645 6  99715754.297 6  24351581.727    24351603.123         182.633  
       142.121          38.000          41.000  
 113273600.542 7  88265207.003 7  21555251.494    21555266.837       -1870.547  
     -1457.867          43.000          45.000  
 109952365.939 7  85677225.516 6  20923241.251    20923255.021       -1911.340  
     -1489.375          44.000          39.000  
 107493825.603 7  83761490.349 7  20455396.901    20455412.497         -59.488  
       -46.414          45.000          42.000  
 114795532.318 7  89451151.995 7  21844862.731    21844882.201        2806.863  
      2187.160          47.000          44.000  
 127533411.104 6  99376758.298 6  24268805.500    24268824.306       -3441.734  
     -2682.117          38.000          38.000  
 24  1 10  3 23 23.9000000  0  7G08G24G18G23G10G32G15
 128222119.767 5  99913424.456 6  24399870.979    24399891.187        2646.520  
      2062.590          34.000          38.000  
 127968413.394 6  99715740.133 6  24351578.254    24351599.664         182.637  
       141.910          38.000          41.000  
 113273787.646 7  88265352.792 7  21555287.099    21555302.440       -1870.785  
     -1457.531          43.000          45.000  
 109952557.122 7  85677374.466 6  20923277.631    20923291.396       -1911.617  
     -1489.488          44.000          39.000  
 107493831.538 7  83761495.010 7  20455398.030    20455413.636         -59.418  
       -46.418          45.000          42.000  
 114795251.574 7  89450933.243 7  21844809.307    21844828.780        2807.184  
      2187.574          47.000          44.000  
 127533755.370 6  99377026.556 6  24268871.012    24268889.818       -3442.152  
     -2682.453          37.000          38.000  
 24  1 10  3 23 24.0000000  0  7G08G24G18G23G10G32G15
 128221855.061 5  99913218.243 6  24399820.514    24399840.937        2646.637  
      2062.215          34.000          38.000  
 127968395.191 6  99715725.917 6  24351574.845    24351596.489         182.281  
       141.879          39.000          41.000  
 113273974.760 7  88265498.606 7  21555322.721    21555338.190       -1870.754  
     -1458.203          43.000          45.000  
 109952748.304 7  85677523.449 6  20923314.200    20923327.858       -1911.758  
     -1490.043          44.000          40.000  
 107493837.514 7  83761499.650 7  20455398.917    20455414.745         -59.605  
       -46.559          45.000          42.000  
 114794970.856 7  89450714.492 7  21844755.967    21844775.140        2807.160  
      2187.398          47.000          44.000  
 127534099.731 6  99377294.804 6  24268935.745    24268955.186       -3442.934  
     -2682.516          36.000          38.000  
 24  1 10  3 23 24.1000000  0  7G08G24G18G23G10G32G15
 128221590.465 5  99913012.005 6  24399770.163    24399790.572        2646.426  
      2062.207          33.000          38.000  
 127968377.063 6  99715711.794 7  24351571.395    24351593.040         181.734  
       141.145          39.000          42.000  
 113274161.955 7  88265644.473 7  21555358.343    21555373.812       -1871.414  
     -1458.359          43.000          45.000  
 109952939.593 7  85677672.493 6  20923350.601    20923364.256       -1912.422  
     -1490.297          44.000          40.000  
 107493843.512 7  83761504.318 7  20455400.059    20455415.885         -59.848  
       -46.695          45.000          42.000  
 114794690.187 7  89450495.784 7  21844702.557    21844721.729        2806.965  
      2187.160          47.000          44.000  
 127534444.064 6  99377563.080 6  24269001.269    24269020.702       -3443.324  
     -2682.977          36.000          38.000  
 24  1 10  3 23 24.2000000  0  7G08G24G18G23G10G32G15
 128221325.841 5  99912805.812 6  24399719.721    24399740.506        2646.273  
      2061.902          33.000          38.000  
 127968358.935 6  99715697.659 7  24351567.813    24351589.760         181.547  
       141.230          38.000          42.000  
 113274349.135 7  88265790.301 7  21555393.688    21555409.761       -1871.883  
     -1458.711          43.000          45.000  
 109953130.869 7  85677821.543 6  20923386.796    20923401.069       -1912.660  
     -1490.754          44.000          40.000  
 107493849.526 7  83761509.020 7  20455401.328    20455416.971         -59.969  
       -47.074          45.000          43.000  
 114794409.449 7  89450277.032 7  21844649.353    21844668.440        2807.141  
      2187.422          47.000          44.000  
 127534788.505 6  99377831.455 6  24269066.439    24269086.109       -3443.516  
     -2683.535          36.000          38.000  
 24  1 10  3 23 24.3000000  0  7G08G24G18G23G10G32G15
 128221061.188 5  99912599.604 6  24399669.359    24399690.148        2646.402  
      2062.008          33.000          38.000  
 127968340.885 6  99715683.542 7  24351564.378    24351586.313         180.945  
       141.422          38.000          42.000  
 113274536.327 7  88265936.225 7  21555429.310    21555445.397       -1871.863  
     -1458.965          42.000          44.000  
 109953322.158 7  85677970.587 6  20923423.197    20923437.467       -1912.730  
     -1489.914          44.000          40.000  
 107493855.527 7  83761513.667 7  20455402.470    20455418.106         -60.055  
       -46.578          45.000          43.000  
 114794128.711 7  89450058.278 7  21844595.931    21844615.018        2807.250  
      2187.516          47.000          44.000  
 127535132.765 6  99378099.835 6  24269131.950    24269151.650       -3443.383  
     -2683.789          37.000          38.000  
 24  1 10  3 23 24.4000000  0  7G08G24G18G23G10G32G15
 128220796.499 5  99912393.371 6  24399619.084    24399639.862        2646.676  
      2062.188          34.000          38.000  
 127968322.841 6  99715669.484 6  24351560.999    24351582.989         180.398  
       140.492          38.000          41.000  
 113274723.563 7  88266082.079 7  21555464.963    21555480.735       -1872.531  
     -1458.977          42.000          44.000  
 109953513.539 7  85678119.756 6  20923459.756    20923473.818       -1913.574  
     -1491.723          44.000          39.000  
 107493861.564 7  83761518.397 7  20455403.205    20455419.230         -60.367  
       -47.176          45.000          43.000  
 114793848.023 7  89449839.563 7  21844542.236    21844561.582        2807.082  
      2187.246          47.000          44.000  
 127535477.233 6  99378368.196 6  24269197.687    24269216.913       -3443.613  
     -2683.602          38.000          37.000  
 24  1 10  3 23 24.5000000  0  7G08G24G18G23G10G32G15
 128220531.920 5  99912187.179 6  24399568.736    24399589.508        2646.152  
      2062.078          34.000          38.000  
 127968304.823 6  99715655.476 6  24351557.570    24351579.568         180.223  
       140.191          38.000          41.000  
 113274910.854 7  88266228.024 7  21555500.604    21555516.376       -1872.707  
     -1459.645          42.000          44.000  
 109953704.848 7  85678268.817 6  20923496.162    20923510.220       -1913.516  
     -1491.301          44.000          39.000  
 107493867.597 7  83761523.088 7  20455404.353    20455420.375         -60.387  
       -47.023          45.000          43.000  
 114793567.279 7  89449620.804 7  21844488.812    21844508.159        2807.164  
      2187.492          47.000          44.000  
 127535821.633 6  99378636.613 6  24269263.224    24269282.463       -3444.648  
     -2684.008          38.000          37.000  
 24  1 10  3 23 24.6000000  0  7G08G24G18G23G10G32G15
 128220267.249 5  99911980.956 6  24399518.355    24399539.193        2646.215  
      2062.164          34.000          38.000  
 127968286.802 6  99715641.490 6  24351554.461    24351575.895         180.371  
       140.223          39.000          41.000  
 113275098.091 7  88266373.948 7  21555536.359    21555552.434       -1872.500  
     -1459.305          42.000          44.000  
 109953896.235 7  85678417.897 6  20923532.730    20923546.846       -1913.531  
     -1490.812          44.000          40.000  
 107493873.617 7  83761527.784 7  20455405.311    20455421.749         -60.223  
       -47.043          45.000          43.000  
 114793286.517 7  89449402.017 7  21844435.534    21844454.643        2807.469  
      2187.766          47.000          44.000  
 127536166.234 6  99378905.012 6  24269329.206    24269347.939       -3444.887  
     -2684.227          38.000          37.000  
 24  1 10  3 23 24.7000000  0  7G08G24G18G23G10G32G15
 128220002.645 5  99911774.768 6  24399468.003    24399488.840        2646.145  
      2062.145          34.000          38.000  
 127968268.852 6  99715627.442 6  24351551.045    24351572.464         179.852  
       140.125          39.000          41.000  
 113275285.386 7  88266519.882 7  21555572.000    21555588.073       -1872.500  
     -1459.129          43.000          44.000  
 109954087.576 7  85678567.006 6  20923569.141    20923583.259       -1913.547  
     -1490.914          45.000          39.000  
 107493879.624 7  83761532.461 7  20455406.454    20455422.891         -60.066  
       -46.754          45.000          43.000  
 114793005.717 7  89449183.232 7  21844382.099    21844401.214        2807.852  
      2188.094          47.000          44.000  
 127536510.523 6  99379173.468 6  24269394.722    24269413.498       -3443.980  
     -2684.391          39.000          38.000  
 24  1 10  3 23 24.8000000  0  7G08G24G18G23G10G32G15
 128219738.038 5  99911568.608 6  24399417.533    24399438.470        2646.078  
      2061.516          34.000          38.000  
 127968250.924 6  99715613.469 6  24351547.712    24351569.325         179.594  
       139.938          38.000          41.000  
 113275472.657 7  88266665.792 7  21555607.816    21555623.112       -1872.527  
     -1459.324          43.000          44.000  
 109954278.951 7  85678716.220 6  20923605.589    20923619.683       -1913.531  
     -1491.621          45.000          39.000  
 107493885.599 7  83761537.113 7  20455407.708    20455423.980         -59.859  
       -46.445          45.000          43.000  
 114792724.889 7  89448964.397 7  21844328.730    21844347.600        2808.156  
      2188.293          47.000          44.000  
 127536855.088 6  99379441.935 6  24269460.822    24269479.514       -3444.922  
     -2684.766          40.000          38.000  
 24  1 10  3 23 24.9000000  0  7G08G24G18G23G10G32G15
 128219473.411 5  99911362.396 6  24399367.176    24399388.111        2646.348  
      2062.086          34.000          38.000  
 127968233.006 6  99715599.521 7  24351544.302    24351565.919         179.383  
       139.547          38.000          42.000  
 113275659.935 7  88266811.715 7  21555643.454    21555658.748       -1872.715  
     -1459.113          43.000          45.000  
 109954470.334 7  85678865.301 6  20923642.008    20923656.090       -1913.695  
     -1491.090          44.000          39.000  
 107493891.580 7  83761541.769 7  20455408.846    20455425.117         -59.895  
       -46.359          45.000          43.000  
 114792444.019 7  89448745.542 7  21844275.282    21844294.154        2808.383  
      2188.477          47.000          44.000  
 127537199.693 6  99379710.396 6  24269526.398    24269545.075       -3445.508  
     -2684.645          40.000          38.000  
 24  1 10  3 23 25.0000000  0  7G08G24G18G23G10G32G15
 128219208.813 5  99911156.190 6  24399316.723    24399337.738        2646.109  
      2061.949          34.000          38.000  
 127968215.066 6  99715585.536 7  24351541.123    24351563.152         179.414  
       139.750          39.000          42.000  
 113275847.195 7  88266957.640 7  21555679.252    21555694.571       -1872.586  
     -1459.195          43.000          45.000  
 109954661.682 7  85679014.368 6  20923678.350    20923692.299       -1913.555  
     -1490.672          44.000          39.000  
 107493897.510 7  83761546.416 7  20455410.389    20455425.885         -59.523  
       -46.430          45.000          43.000  
 114792163.153 7  89448526.676 7  21844221.374    21844240.587        2808.590  
      2188.691          47.000          44.000  
 127537544.265 6  99379978.910 6  24269592.530    24269610.914       -3445.473  
     -2684.973          40.000          38.000  
 24  1 10  3 23 25.1000000  0  7G08G24G18G23G10G32G15
 128218944.209 5  99910949.985 6  24399266.371    24399287.380        2646.125  
      2062.219          33.000          38.000  
 127968197.096 6  99715571.586 7  24351537.703    24351559.745         179.457  
       139.535          39.000          42.000  
 113276034.411 7  88267103.542 7  21555714.878    21555730.202       -1872.453  
     -1459.148          43.000          45.000  
 109954853.033 7  85679163.482 6  20923714.763    20923728.714       -1913.469  
     -1491.145          44.000          39.000  
 107493903.441 7  83761551.030 7  20455411.517    20455427.012         -59.398  
       -46.238          45.000          43.000  
 114791882.255 7  89448307.798 7  21844167.921    21844187.135        2808.922  
      2188.871          47.000          44.000  
 127537888.780 6  99380247.385 6  24269658.089    24269676.479       -3445.488  
     -2684.625          40.000          38.000  
 24  1 10  3 23 25.2000000  0  7G08G24G18G23G10G32G15
 128218679.560 5  99910743.817 6  24399215.509    24399237.110        2646.191  
      2061.762          33.000          38.000  
 127968179.268 6  99715557.653 7  24351534.014    24351556.851         178.898  
       139.301          38.000          42.000  
 113276221.686 7  88267249.469 7  21555750.937    21555765.964       -1872.520  
     -1459.039          43.000          45.000  
 109955044.384 7  85679312.598 6  20923750.824    20923765.200       -1913.570  
     -1491.231          44.000          39.000  
 107493909.365 7  83761555.635 7  20455412.254    20455428.042         -59.254  
       -46.141          45.000          43.000  
 114791601.318 7  89448088.891 7  21844114.703    21844133.628        2809.055  
      2188.891          47.000          44.000  
 127538233.441 6  99380515.884 6  24269723.950    24269742.221       -3446.047  
     -2685.168          39.000          38.000  
 24  1 10  3 23 25.3000000  0  7G08G24G18G23G10G32G15
 128218414.916 5  99910537.612 6  24399165.149    24399186.753        2646.301  
      2061.891          34.000          38.000  
 127968161.395 6  99715543.735 7  24351530.613    24351553.452         178.801  
       139.203          38.000          42.000  
 113276408.912 7  88267395.314 7  21555786.565    21555801.581       -1872.656  
     -1459.059          43.000          45.000  
 109955235.738 7  85679461.672 6  20923787.238    20923801.605       -1913.492  
     -1490.805          44.000          40.000  
 107493915.277 7  83761560.250 7  20455413.379    20455429.170         -59.152  
       -46.094          44.000          43.000  
 114791320.375 7  89447869.981 7  21844061.241    21844080.168        2809.242  
      2189.297          47.000          44.000  
 127538577.989 6  99380784.427 6  24269789.515    24269807.802       -3445.531  
     -2685.410          38.000          38.000  
 24  1 10  3 23 25.4000000  0  7G08G24G18G23G10G32G15
 128218150.309 5  99910331.387 6  24399114.562    24399136.414        2646.297  
      2062.133          34.000          38.000  
 127968143.452 6  99715529.808 7  24351527.425    24351549.957         179.137  
       139.129          39.000          42.000  
 113276596.132 7  88267541.257 7  21555822.348    21555836.847       -1872.023  
     -1458.910          42.000          45.000  
 109955427.053 7  85679610.794 6  20923823.714    20923837.804       -1913.270  
     -1491.145          44.000          39.000  
 107493921.136 7  83761564.808 7  20455414.791    20455430.533         -58.895  
       -45.543          44.000          43.000  
 114791039.412 7  89447651.026 7  21844007.728    21844026.791        2809.578  
      2189.523          47.000          44.000  
 127538922.581 6  99381052.982 6  24269854.643    24269873.815       -3445.906  
     -2685.469          39.000          38.000  
 24  1 10  3 23 25.5000000  0  7G08G24G18G23G10G32G15
 128217885.730 5  99910125.246 6  24399064.214    24399086.072        2646.020  
      2061.559          34.000          38.000  
 127968125.624 6  99715515.908 7  24351524.032    24351546.562         178.750  
       139.227          39.000          42.000  
 113276783.363 7  88267687.131 7  21555857.977    21555872.470       -1872.316  
     -1458.973          42.000          45.000  
 109955618.400 7  85679759.861 6  20923860.126    20923874.207       -1913.406  
     -1490.723          44.000          39.000  
 107493927.054 7  83761569.422 7  20455415.917    20455431.659         -59.094  
       -46.164          45.000          43.000  
 114790758.442 7  89447432.117 7  21843954.262    21843973.331        2809.629  
      2189.094          47.000          44.000  
 127539267.210 6  99381321.477 6  24269920.224    24269939.384       -3446.027  
     -2685.195          39.000          38.000  
 24  1 10  3 23 25.6000000  0  7G08G24G18G23G10G32G15
 128217621.125 5  99909919.041 6  24399013.994    24399035.644        2646.031  
      2062.055          34.000          38.000  
 127968107.786 6  99715501.981 7  24351520.833    24351543.193         178.422  
       139.297          40.000          42.000  
 113276970.616 7  88267833.038 7  21555893.540    21555907.735       -1872.348  
     -1459.266          43.000          45.000  
 109955809.770 7  85679909.024 6  20923896.723    20923909.947       -1913.488  
     -1491.231          44.000          39.000  
 107493932.963 7  83761574.057 7  20455417.237    20455433.065         -58.930  
       -46.082          45.000          43.000  
 114790477.467 7  89447213.159 7  21843900.645    21843919.578        2809.594  
      2189.387          47.000          44.000  
 127539611.931 6  99381590.057 6  24269985.525    24270004.060       -3446.586  
     -2685.605          39.000          38.000  
 24  1 10  3 23 25.7000000  0  7G08G24G18G23G10G32G15
 128217356.536 5  99909712.876 6  24398963.645    24398985.297        2645.941  
      2061.648          33.000          38.000  
 127968089.954 6  99715488.103 7  24351517.440    24351539.803         178.551  
       138.848          40.000          42.000  
 113277157.871 7  88267978.954 7  21555929.173    21555943.370       -1872.629  
     -1459.094          43.000          45.000  
 109956001.112 7  85680058.105 6  20923933.134    20923946.354       -1913.422  
     -1490.941          45.000          39.000  
 107493938.836 7  83761578.601 7  20455418.354    20455434.174         -59.004  
       -45.809          45.000          42.000  
 114790196.483 7  89446994.212 7  21843847.176    21843866.109        2809.758  
      2189.574          46.000          44.000  
 127539956.618 6  99381858.610 6  24270051.117    24270069.644       -3446.750  
     -2685.246          39.000          38.000  
 24  1 10  3 23 25.8000000  0  7G08G18G23G24G10G15G32
 128217091.880 5  99909506.656 6  24398913.673    24398934.756        2646.301  
      2061.969          34.000          38.000  
 113277345.120 7  88268124.831 7  21555964.602    21555979.244       -1872.625  
     -1459.109          43.000          45.000  
 109956192.509 7  85680207.210 6  20923969.673    20923983.212       -1913.703  
     -1490.840          45.000          39.000  
 127968072.133 6  99715474.220 7  24351514.400    24351536.108         178.211  
       138.797          40.000          42.000  
 107493944.768 7  83761583.225 7  20455419.335    20455434.960         -59.098  
       -46.020          45.000          42.000  
 127540301.215 6  99382127.132 6  24270116.645    24270135.485       -3446.047  
     -2685.531          40.000          38.000  
 114789915.490 7  89446775.255 7  21843793.955    21843812.786        2809.793  
      2189.363          46.000          44.000  
 24  1 10  3 23 25.9000000  0  7G08G18G23G24G10G15G32
 128216827.327 5  99909300.507 6  24398863.330    24398884.412        2645.855  
      2061.785          33.000          38.000  
 113277532.425 7  88268270.805 7  21556000.245    21556014.892       -1872.727  
     -1459.551          43.000          45.000  
 109956383.867 7  85680356.353 6  20924006.087    20924019.635       -1913.695  
     -1491.602          45.000          39.000  
 127968054.296 6  99715460.334 7  24351511.006    24351532.717         178.367  
       138.805          40.000          42.000  
 107493950.670 7  83761587.823 7  20455420.458    20455436.083         -59.199  
       -46.207          45.000          42.000  
 127540645.892 6  99382395.723 6  24270182.235    24270201.078       -3446.606  
     -2685.922          39.000          38.000  
 114789634.531 7  89446556.340 7  21843740.490    21843759.325        2809.770  
      2189.371          46.000          44.000  
 24  1 10  3 23 26.0000000  0  7G08G18G23G24G10G15G32
 128216562.759 5  99909094.318 6  24398813.000    24398833.731        2645.793  
      2061.688          33.000          38.000  
 113277719.710 7  88268416.723 7  21556035.759    21556050.730       -1872.809  
     -1459.137          42.000          44.000  
 109956575.253 7  85680505.464 6  20924042.381    20924056.362       -1913.816  
     -1491.352          44.000          40.000  
 127968036.521 6  99715446.463 6  24351507.678    24351529.298         178.078  
       138.797          39.000          41.000  
 107493956.610 7  83761592.456 7  20455421.510    20455437.277         -59.230  
       -46.160          45.000          43.000  
 127540990.627 6  99382664.307 6  24270247.687    24270266.552       -3447.020  
     -2685.625          39.000          38.000  
 114789353.533 7  89446337.373 7  21843687.198    21843706.234        2809.719  
      2189.461          47.000          44.000  
 24  1 10  3 23 26.1000000  0  7G08G18G23G24G10G15G32
 128216298.146 5  99908888.196 6  24398762.646    24398783.394        2645.852  
      2061.719          33.000          38.000  
 113277906.974 7  88268562.676 7  21556071.395    21556086.374       -1872.625  
     -1459.152          42.000          44.000  
 109956766.697 7  85680654.629 6  20924078.812    20924092.789       -1914.188  
     -1491.312          44.000          40.000  
 127968018.763 6  99715432.604 6  24351504.299    24351525.914         177.809  
       138.676          39.000          41.000  
 107493962.561 7  83761597.087 7  20455422.642    20455438.408         -59.379  
       -46.180          44.000          43.000  
 127541335.300 6  99382932.965 6  24270313.276    24270332.161       -3446.715  
     -2686.672          40.000          38.000  
 114789072.554 7  89446118.424 7  21843633.729    21843652.764        2809.980  
      2189.633          46.000          44.000  
 24  1 10  3 23 26.2000000  0  7G08G18G23G24G10G15G32
 128216033.680 5  99908682.079 6  24398712.468    24398732.808        2645.391  
      2061.125          33.000          38.000  
 113278094.309 7  88268708.649 7  21556106.793    21556121.678       -1873.633  
     -1459.988          42.000          45.000  
 109956958.132 7  85680803.804 6  20924115.217    20924130.219       -1914.492  
     -1492.289          44.000          41.000  
 127968000.927 6  99715418.768 6  24351500.858    24351521.683         178.180  
       138.156          39.000          41.000  
 107493968.557 7  83761601.761 7  20455423.518    20455440.158         -60.051  
       -46.633          45.000          42.000  
 127541679.979 6  99383201.516 6  24270379.117    24270397.275       -3447.133  
     -2685.527          40.000          38.000  
 114788791.625 7  89445899.525 7  21843579.942    21843598.799        2809.180  
      2188.957          46.000          44.000  
 24  1 10  3 23 26.3000000  0  7G08G18G23G24G10G15G32
 128215769.111 5  99908475.921 6  24398662.123    24398682.462        2645.477  
      2061.547          33.000          38.000  
 113278281.687 7  88268854.674 7  21556142.450    21556157.339       -1873.816  
     -1460.352          42.000          45.000  
 109957149.655 7  85680953.083 6  20924151.663    20924166.675       -1915.074  
     -1492.543          45.000          41.000  
 127967983.231 6  99715404.965 6  24351497.491    24351518.313         177.160  
       138.219          40.000          41.000  
 107493974.587 7  83761606.451 7  20455424.665    20455441.304         -60.520  
       -47.242          45.000          43.000  
 127542024.751 6  99383470.224 6  24270444.724    24270462.896       -3447.750  
     -2686.715          40.000          38.000  
 114788510.748 7  89445680.668 7  21843526.493    21843545.352        2808.789  
      2188.633          46.000          44.000  
 24  1 10  3 23 26.4000000  0  7G08G18G23G24G10G15G32
 128215504.594 5  99908269.788 6  24398611.498    24398631.935        2645.469  
      2061.395          33.000          38.000  
 113278469.094 7  88269000.681 7  21556178.331    21556193.417       -1873.848  
     -1460.340          42.000          45.000  
 109957341.189 7  85681102.323 6  20924188.072    20924202.488       -1915.270  
     -1492.184          44.000          40.000  
 127967965.484 6  99715391.116 6  24351493.840    24351514.470         177.613  
       138.348          39.000          41.000  
 107493980.654 7  83761611.210 7  20455425.914    20455442.271         -60.336  
       -47.301          45.000          43.000  
 127542369.462 6  99383738.780 6  24270510.477    24270528.426       -3447.340  
     -2686.086          41.000          39.000  
 114788229.840 7  89445461.767 7  21843472.796    21843491.777        2808.965  
      2188.734          46.000          44.000  
 24  1 10  3 23 26.5000000  0  7G08G18G23G24G10G15G32
 128215240.011 5  99908063.643 6  24398561.149    24398581.592        2645.500  
      2061.406          33.000          38.000  
 113278656.511 7  88269146.754 7  21556213.996    21556229.089       -1873.793  
     -1460.477          43.000          44.000  
 109957532.706 7  85681251.529 6  20924224.516    20924238.926       -1915.059  
     -1492.543          44.000          40.000  
 127967947.767 6  99715377.323 7  24351490.468    24351511.101         177.355  
       137.945          40.000          42.000  
 107493986.701 7  83761615.863 7  20455427.064    20455443.407         -60.434  
       -46.938          45.000          43.000  
 127542714.204 6  99384007.374 6  24270576.079    24270594.019       -3447.438  
     -2686.043          40.000          39.000  
 114787948.957 7  89445242.891 7  21843419.345    21843438.325        2809.004  
      2188.871          46.000          44.000  
 24  1 10  3 23 26.6000000  0  7G08G18G23G24G10G15G32
 128214975.508 5  99907857.515 6  24398510.886    24398531.652        2645.238  
      2061.156          34.000          38.000  
 113278843.922 7  88269292.754 7  21556249.674    21556264.369       -1873.938  
     -1459.996          43.000          44.000  
 109957724.200 7  85681400.763 6  20924260.698    20924274.979       -1915.207  
     -1492.231          44.000          40.000  
 127967930.059 6  99715363.475 7  24351486.982    24351508.977         177.094  
       138.281          40.000          42.000  
 107493992.756 7  83761620.638 7  20455428.349    20455444.495         -60.383  
       -47.324          44.000          43.000  
 127543058.933 6  99384276.065 6  24270641.671    24270659.613       -3447.387  
     -2686.602          40.000          39.000  
 114787668.056 7  89445024.022 7  21843365.853    21843385.453        2808.973  
      2188.809          46.000          44.000  
 24  1 10  3 23 26.7000000  0  7G08G18G23G24G10G15G32
 128214711.038 5  99907651.461 6  24398460.559    24398481.331        2644.953  
      2060.781          34.000          38.000  
 113279031.276 7  88269438.716 7  21556285.327    21556300.015       -1873.840  
     -1460.219          42.000          45.000  
 109957915.726 7  85681550.009 6  20924297.145    20924311.427       -1915.145  
     -1492.277          44.000          40.000  
 127967912.352 6  99715349.708 7  24351483.612    24351505.615         177.152  
       137.840          39.000          42.000  
 107493998.771 7  83761625.316 7  20455429.494    20455445.637         -60.367  
       -46.895          45.000          43.000  
 127543403.814 6  99384544.804 6  24270707.300    24270725.242       -3448.012  
     -2687.008          41.000          39.000  
 114787387.124 7  89444805.117 7  21843312.393    21843331.994        2809.227  
      2189.031          46.000          44.000  
 24  1 10  3 23 26.8000000  0  7G08G18G23G24G10G15G32
 128214446.506 5  99907445.322 6  24398410.252    24398431.381        2645.223  
      2061.375          34.000          38.000  
 113279218.594 7  88269584.728 7  21556320.792    21556336.047       -1873.508  
     -1459.731          42.000          45.000  
 109958107.205 7  85681699.207 6  20924333.910    20924348.261       -1914.805  
     -1492.141          44.000          40.000  
 127967894.658 6  99715335.887 7  24351480.003    24351503.084         177.062  
       138.141          39.000          43.000  
 107494004.754 7  83761629.966 7  20455430.797    20455447.179         -60.082  
       -46.582          45.000          43.000  
 127543748.588 6  99384813.400 6  24270773.330    24270790.437       -3447.808  
     -2686.324          40.000          38.000  
 114787106.145 7  89444586.151 7  21843259.112    21843278.310        2809.500  
      2189.633          46.000          44.000  
 24  1 10  3 23 26.9000000  0  7G08G18G23G24G10G15G32
 128214182.045 5  99907239.222 6  24398359.926    24398381.049        2644.809  
      2061.129          34.000          38.000  
 113279405.978 7  88269730.715 7  21556356.450    21556371.699       -1873.504  
     -1459.828          42.000          45.000  
 109958298.663 7  85681848.379 6  20924370.343    20924384.690       -1914.715  
     -1491.434          44.000          40.000  
 127967876.920 6  99715322.127 7  24351476.627    24351499.723         177.207  
       137.828          39.000          43.000  
 107494010.751 7  83761634.632 7  20455431.938    20455448.319         -59.895  
       -46.441          45.000          43.000  
 127544093.321 6  99385082.082 6  24270838.931    24270856.052       -3447.410  
     -2686.914          39.000          38.000  
 114786825.173 7  89444367.235 7  21843205.645    21843224.848        2809.797  
      2189.395          46.000          44.000  
 24  1 10  3 23 27.0000000  0  7G08G18G23G24G10G15G32
 128213917.481 5  99907033.099 6  24398309.465    24398331.133        2645.668  
      2061.062          34.000          38.000  
 113279593.240 7  88269876.615 7  21556391.851    21556407.009       -1872.766  
     -1459.371          42.000          45.000  
 109958490.062 7  85681997.576 6  20924406.367    20924421.227       -1913.852  
     -1491.856          44.000          40.000  
 127967859.208 6  99715308.286 7  24351473.265    24351496.875         177.328  
       138.316          39.000          43.000  
 107494016.659 7  83761639.236 7  20455433.211    20455449.162         -59.355  
       -46.172          45.000          43.000  
 127544438.036 6  99385350.704 6  24270904.090    24270921.621       -3448.316  
     -2686.410          38.000          38.000  
 114786544.109 7  89444148.225 7  21843152.113    21843171.153        2810.492  
      2189.992          46.000          44.000  
 24  1 10  3 23 27.1000000  0  7G08G18G23G24G10G15G32
 128213652.942 5  99906827.000 6  24398259.124    24398280.802        2645.605  
      2061.129          34.000          38.000  
 113279780.526 7  88270022.576 7  21556427.490    21556442.654       -1872.605  
     -1458.992          43.000          45.000  
 109958681.488 7  85682146.704 6  20924442.794    20924457.646       -1914.062  
     -1491.285          44.000          40.000  
 127967841.524 6  99715294.468 7  24351469.900    24351493.500         176.945  
       138.148          40.000          43.000  
 107494022.563 7  83761643.856 7  20455434.334    20455450.290         -58.691  
       -45.965          45.000          43.000  
 127544782.976 6  99385619.372 6  24270969.730    24270987.232       -3448.109  
     -2686.484          38.000          38.000  
 114786263.052 7  89443929.206 7  21843098.630    21843117.666        2810.707  
      2190.227          46.000          44.000  
 24  1 10  3 23 27.2000000  0  7G08G18G23G24G10G15G32
 128213388.470 5  99906620.859 6  24398208.461    24398230.984        2644.938  
      2061.289          34.000          38.000  
 113279967.751 7  88270168.456 7  21556463.219    21556478.435       -1872.789  
     -1459.367          42.000          45.000  
 109958872.854 7  85682295.775 6  20924479.428    20924494.136       -1913.969  
     -1490.918          44.000          40.000  
 127967823.789 6  99715280.685 7  24351466.376    24351490.423         177.148  
       137.848          39.000          43.000  
 107494028.425 7  83761648.391 7  20455435.379    20455451.265         -58.906  
       -45.578          45.000          43.000  
 127545127.591 6  99385888.029 6  24271034.933    24271052.872       -3447.410  
     -2686.770          38.000          38.000  
 114785981.971 7  89443710.178 7  21843045.236    21843064.294        2810.672  
      2190.273          46.000          44.000  
 24  1 10  3 23 27.3000000  0  7G08G18G23G24G10G15G32
 128213123.863 5  99906414.732 6  24398158.108    24398180.646        2645.527  
      2061.168          33.000          38.000  
 113280154.977 7  88270314.358 7  21556498.847    21556514.066       -1872.367  
     -1458.918          42.000          45.000  
 109959064.236 7  85682444.990 6  20924515.847    20924530.576       -1913.859  
     -1491.547          44.000          40.000  
 127967806.125 6  99715266.873 7  24351463.015    24351487.050         176.922  
       137.953          40.000          43.000  
 107494034.296 7  83761652.991 7  20455436.496    20455452.388         -58.695  
       -45.766          45.000          43.000  
 127545472.483 6  99386156.701 6  24271100.564    24271118.485       -3448.098  
     -2686.695          39.000          38.000  
 114785700.867 7  89443491.142 7  21842991.743    21843010.804        2810.836  
      2190.223          46.000          44.000  
 24  1 10  3 23 27.4000000  0  7G08G18G23G24G10G15G32
 128212859.397 5  99906208.623 6  24398107.587    24398129.991        2645.219  
      2061.238          33.000          38.000  
 113280342.315 7  88270460.355 7  21556534.192    21556549.689       -1872.793  
     -1459.324          42.000          45.000  
 109959255.661 7  85682594.098 6  20924552.298    20924566.865       -1913.949  
     -1491.234          44.000          40.000  
 127967788.390 6  99715253.169 7  24351459.367    24351483.313         177.098  
       137.344          40.000          42.000  
 107494040.170 7  83761657.552 7  20455437.567    20455453.041         -58.770  
       -45.703          45.000          43.000  
 127545817.184 6  99386425.346 6  24271166.064    24271184.059       -3447.297  
     -2686.398          39.000          38.000  
 114785419.789 7  89443272.139 7  21842938.193    21842957.422        2810.785  
      2190.285          46.000          44.000  
 24  1 10  3 23 27.5000000  0  7G08G18G23G24G10G15G32
 128212594.864 5  99906002.487 6  24398057.248    24398079.651        2645.242  
      2061.355          33.000          38.000  
 113280529.587 7  88270606.266 7  21556569.829    21556585.322       -1872.852  
     -1459.535          42.000          45.000  
 109959447.074 7  85682743.263 6  20924588.722    20924603.292       -1914.211  
     -1491.762          44.000          40.000  
 127967770.752 6  99715239.402 7  24351456.010    24351479.951         176.773  
       137.574          40.000          42.000  
 107494046.062 7  83761662.181 7  20455438.689    20455454.172         -58.898  
       -46.156          45.000          43.000  
 127546162.132 6  99386694.036 6  24271231.706    24271249.676       -3448.808  
     -2686.793          38.000          38.000  
 114785138.704 7  89443053.096 7  21842884.705    21842903.930        2810.797  
      2190.172          46.000          44.000  
 24  1 10  3 23 27.6000000  0  7G08G18G23G24G10G15G32
 128212330.394 5  99905796.379 6  24398007.225    24398029.098        2645.090  
      2061.141          33.000          38.000  
 113280716.923 7  88270752.225 7  21556605.548    21556621.076       -1873.059  
     -1459.477          42.000          45.000  
 109959638.470 7  85682892.407 6  20924624.941    20924639.606       -1914.094  
     -1491.641          44.000          39.000  
 127967753.149 6  99715225.652 7  24351452.934    24351475.749         176.371  
       137.719          40.000          42.000  
 107494051.959 7  83761666.749 7  20455439.654    20455455.037         -58.996  
       -45.883          45.000          43.000  
 127546506.906 6  99386962.746 6  24271297.064    24271315.251       -3447.965  
     -2687.078          37.000          38.000  
 114784857.661 7  89442834.095 7  21842831.302    21842850.158        2810.590  
      2189.996          46.000          44.000  
 24  1 10  3 23 27.7000000  0  7G08G18G23G24G10G15G32
 128212065.858 5  99905590.273 6  24397956.886    24397978.765        2645.105  
      2061.324          33.000          38.000  
 113280904.249 7  88270898.190 7  21556641.195    21556656.722       -1873.293  
     -1459.898          42.000          45.000  
 109959829.902 7  85683041.558 6  20924661.369    20924676.030       -1914.250  
     -1491.781          44.000          39.000  
 127967735.506 6  99715211.857 7  24351449.577    24351472.380         176.492  
       137.719          39.000          42.000  
 107494057.864 7  83761671.338 7  20455440.778    20455456.158         -59.082  
       -45.867          44.000          42.000  
 127546851.724 6  99387231.396 6  24271362.681    24271380.858       -3448.320  
     -2686.535          37.000          38.000  
 114784576.615 7  89442615.100 7  21842777.821    21842796.678        2810.453  
      2189.887          46.000          44.000  
 24  1 10  3 23 27.8000000  0  7G08G18G23G24G10G15G32
 128211801.262 5  99905384.141 6  24397906.668    24397928.379        2645.551  
      2061.066          33.000          38.000  
 113281091.633 7  88271044.193 7  21556677.181    21556692.159       -1873.496  
     -1459.930          42.000          44.000  
 109960021.398 7  85683190.786 6  20924698.083    20924712.059       -1914.492  
     -1491.691          44.000          40.000  
 127967717.875 6  99715198.190 7  24351446.401    24351468.480         176.410  
       136.945          40.000          42.000  
 107494063.808 7  83761675.993 7  20455442.073    20455457.646         -59.117  
       -46.285          44.000          43.000  
 127547196.536 6  99387500.094 6  24271427.812    24271446.071       -3448.156  
     -2686.957          36.000          37.000  
 114784295.587 7  89442396.115 7  21842724.382    21842742.770        2810.320  
      2189.816          46.000          44.000  
 24  1 10  3 23 27.9000000  0  7G08G18G23G24G10G15G32
 128211536.803 5  99905178.042 6  24397856.343    24397878.047        2645.035  
      2061.098          33.000          38.000  
 113281278.967 7  88271190.203 7  21556712.829    21556727.816       -1873.516  
     -1459.898          42.000          45.000  
 109960212.869 7  85683339.944 6  20924734.518    20924748.485       -1914.652  
     -1491.918          44.000          40.000  
 127967700.351 6  99715184.480 6  24351443.066    24351465.132         175.820  
       137.000          39.000          41.000  
 107494069.743 7  83761680.627 7  20455443.203    20455458.778         -59.203  
       -46.395          44.000          43.000  
 127547541.410 6  99387768.776 6  24271493.439    24271511.686       -3448.512  
     -2686.867          36.000          37.000  
 114784014.588 7  89442177.162 7  21842670.910    21842689.299        2810.246  
      2189.750          46.000          44.000  
 24  1 10  3 23 28.0000000  0  7G08G18G23G24G10G15G32
 128211272.243 5  99904971.869 6  24397805.952    24397827.596        2645.348  
      2061.551          33.000          38.000  
 113281466.315 7  88271336.187 7  21556748.777    21556763.670       -1873.488  
     -1459.969          42.000          45.000  
 109960404.322 7  85683489.178 6  20924770.974    20924785.015       -1914.562  
     -1492.270          44.000          40.000  
 127967682.657 6  99715170.750 6  24351439.989    24351461.279         176.340  
       137.480          40.000          41.000  
 107494075.681 7  83761685.239 7  20455444.348    20455460.388         -59.391  
       -46.164          45.000          43.000  
 127547886.211 6  99388037.535 6  24271558.623    24271577.405       -3448.184  
     -2687.238          37.000          37.000  
 114783733.569 7  89441958.203 7  21842617.152    21842635.905        2810.203  
      2189.633          46.000          44.000  
 24  1 10  3 23 28.1000000  0  7G08G18G23G24G10G15G32
 128211007.749 5  99904765.766 6  24397755.620    24397777.264        2645.164  
      2061.215          34.000          38.000  
 113281653.699 7  88271482.203 7  21556784.435    21556799.328       -1873.594  
     -1460.113          42.000          45.000  
 109960595.799 7  85683638.395 6  20924807.411    20924821.455       -1914.504  
     -1491.895          44.000          40.000  
 127967665.070 6  99715157.019 6  24351436.642    24351457.926         176.074  
       137.188          40.000          41.000  
 107494081.620 7  83761689.851 7  20455445.478    20455461.515         -59.445  
       -46.328          45.000          43.000  
 127548231.021 6  99388306.208 6  24271624.238    24271643.018       -3448.363  
     -2686.879          39.000          37.000  
 114783452.556 7  89441739.215 7  21842563.677    21842582.426        2810.117  
      2189.777          46.000          44.000  
 24  1 10  3 23 28.2000000  0  7G08G18G23G24G10G15G32
 128210743.180 5  99904559.634 6  24397705.118    24397726.854        2645.285  
      2061.055          33.000          38.000  
 113281841.131 7  88271628.260 7  21556820.102    21556835.122       -1874.039  
     -1460.473          42.000          45.000  
 109960787.326 7  85683787.618 6  20924843.647    20924857.710       -1915.062  
     -1492.453          45.000          40.000  
 127967647.478 6  99715143.291 6  24351433.083    24351454.300         175.984  
       137.078          40.000          41.000  
 107494087.621 7  83761694.579 7  20455446.339    20455462.669         -59.680  
       -46.988          44.000          43.000  
 127548575.913 6  99388574.931 6  24271690.479    24271708.674       -3448.469  
     -2687.133          40.000          38.000  
 114783171.599 7  89441520.292 7  21842510.135    21842529.299        2809.758  
      2189.160          47.000          44.000  
 24  1 10  3 23 28.3000000  0  7G08G18G23G24G10G15G32
 128210478.746 5  99904353.592 6  24397654.798    24397676.536        2644.980  
      2060.777          34.000          38.000  
 113282028.522 7  88271774.238 7  21556855.762    21556870.771       -1874.035  
     -1460.316          42.000          45.000  
 109960978.814 7  85683936.837 6  20924880.085    20924894.150       -1914.934  
     -1492.008          45.000          40.000  
 127967629.936 6  99715129.624 6  24351429.745    24351450.962         175.699  
       136.602          40.000          41.000  
 107494093.593 7  83761699.199 7  20455447.475    20455463.798         -59.758  
       -46.555          45.000          43.000  
 127548920.748 6  99388843.640 6  24271756.098    24271774.295       -3448.289  
     -2687.480          39.000          38.000  
 114782890.619 7  89441301.349 7  21842456.666    21842475.831        2809.777  
      2189.281          46.000          43.000  
 24  1 10  3 23 28.4000000  0  7G08G24G18G23G10G32G15
 128210214.226 5  99904147.462 6  24397604.399    24397626.494        2644.949  
      2061.094          33.000          38.000  
 127967612.341 6  99715115.927 6  24351426.491    24351447.578         175.879  
       137.324          40.000          41.000  
 113282215.939 7  88271920.321 7  21556891.684    21556906.774       -1874.074  
     -1460.387          42.000          45.000  
 109961170.301 7  85684086.047 6  20924916.556    20924930.831       -1914.875  
     -1492.156          44.000          40.000  
 107494099.565 7  83761703.838 7  20455448.581    20455465.071         -59.766  
       -46.371          44.000          43.000  
 114782609.652 7  89441082.402 7  21842403.208    21842422.455        2809.781  
      2189.531          46.000          44.000  
 127549265.518 6  99389112.353 6  24271821.995    24271840.004       -3448.332  
     -2687.156          38.000          38.000  
 24  1 10  3 23 28.5000000  0  7G08G24G18G23G10G32G15
 128209949.739 5  99903941.370 6  24397554.069    24397576.164        2644.879  
      2060.949          34.000          38.000  
 127967594.747 6  99715102.181 6  24351423.143    24351444.221         175.945  
       137.055          40.000          41.000  
 113282403.351 7  88272066.318 7  21556927.347    21556942.428       -1873.996  
     -1460.106          42.000          45.000  
 109961361.792 7  85684235.276 6  20924952.995    20924967.274       -1914.891  
     -1492.672          44.000          40.000  
 107494105.564 7  83761708.519 7  20455449.722    20455466.214         -59.785  
       -46.625          44.000          43.000  
 114782328.669 7  89440863.468 7  21842349.739    21842368.989        2809.793  
      2189.438          47.000          44.000  
 127549610.462 6  99389381.073 6  24271887.636    24271905.628       -3448.703  
     -2687.320          39.000          38.000  
 24  1 10  3 23 28.6000000  0  7G08G24G18G23G10G32G15
 128209685.279 5  99903735.302 6  24397503.658    24397525.512        2644.742  
      2060.824          34.000          38.000  
 127967577.217 6  99715088.535 6  24351420.166    24351440.811         175.555  
       136.566          40.000          41.000  
 113282590.798 7  88272212.433 7  21556962.900    21556977.939       -1874.285  
     -1460.742          42.000          45.000  
 109961553.310 7  85684384.463 6  20924989.330    20925003.403       -1915.227  
     -1492.238          44.000          40.000  
 107494111.567 7  83761713.183 7  20455451.029    20455466.955         -59.949  
       -46.777          44.000          43.000  
 114782047.721 7  89440644.547 7  21842296.737    21842315.964        2809.734  
      2189.359          47.000          44.000  
 127549955.345 6  99389649.873 6  24271953.351    24271971.905       -3448.844  
     -2687.871          38.000          38.000  
 24  1 10  3 23 28.7000000  0  7G08G24G18G23G10G32G15
 128209420.865 5  99903529.211 6  24397453.342    24397475.183        2644.418  
      2060.699          34.000          37.000  
 127967559.712 6  99715074.955 6  24351416.835    24351437.494         175.441  
       136.379          41.000          41.000  
 113282778.192 7  88272358.390 7  21556998.560    21557013.583       -1874.445  
     -1460.590          42.000          44.000  
 109961744.905 7  85684533.775 6  20925025.790    20925039.866       -1915.566  
     -1492.777          45.000          40.000  
 107494117.603 7  83761717.907 7  20455452.177    20455468.108         -60.207  
       -47.043          44.000          43.000  
 114781766.767 7  89440425.621 7  21842243.273    21842262.500        2809.500  
      2189.199          46.000          44.000  
 127550300.268 6  99389918.576 6  24272018.987    24272037.525       -3449.004  
     -2687.023          38.000          38.000  
 24  1 10  3 23 28.8000000  0  7G08G24G18G23G10G32G15
 128209156.403 5  99903323.180 6  24397403.141    24397424.610        2644.461  
      2060.535          34.000          38.000  
 127967542.217 6  99715061.252 6  24351413.608    24351434.023         174.848  
       136.164          40.000          41.000  
 113282965.732 7  88272504.549 7  21557034.130    21557048.902       -1874.629  
     -1460.738          42.000          44.000  
 109961936.444 7  85684683.031 6  20925062.793    20925076.082       -1915.559  
     -1492.715          45.000          40.000  
 107494123.648 7  83761722.624 7  20455453.375    20455469.284         -60.406  
       -47.410          45.000          43.000  
 114781485.837 7  89440206.724 7  21842189.650    21842208.770        2809.445  
      2188.977          46.000          44.000  
 127550645.195 6  99390187.385 6  24272084.422    24272103.764       -3449.066  
     -2688.023          38.000          38.000  
 24  1 10  3 23 28.9000000  0  7G08G24G18G23G10G32G15
 128208891.900 5  99903117.079 6  24397352.808    24397374.278        2644.777  
      2060.820          34.000          38.000  
 127967524.691 6  99715047.633 6  24351410.272    24351430.697         175.273  
       136.516          40.000          41.000  
 113283153.166 7  88272650.573 7  21557069.798    21557084.563       -1874.621  
     -1460.742          43.000          45.000  
 109962128.050 7  85684832.299 6  20925099.254    20925112.535       -1915.426  
     -1492.027          44.000          40.000  
 107494129.700 7  83761727.316 7  20455454.526    20455470.430         -60.352  
       -46.832          45.000          43.000  
 114781204.886 7  89439987.801 7  21842136.187    21842155.307        2809.465  
      2189.168          46.000          44.000  
 127550989.999 6  99390456.134 6  24272150.036    24272169.395       -3448.742  
     -2687.707          37.000          38.000  
 24  1 10  3 23 29.0000000  0  7G08G24G18G23G10G32G15
 128208627.429 5  99902911.013 6  24397302.754    24397323.845        2644.777  
      2060.711          34.000          38.000  
 127967507.204 6  99715033.996 6  24351406.929    24351428.062         175.074  
       136.672          40.000          41.000  
 113283340.641 7  88272796.702 7  21557105.809    21557120.366       -1874.680  
     -1460.898          43.000          45.000  
 109962319.595 7  85684981.558 6  20925135.360    20925149.235       -1915.836  
     -1493.438          44.000          40.000  
 107494135.718 7  83761732.026 7  20455455.726    20455471.572         -60.242  
       -47.074          45.000          43.000  
 114780923.942 7  89439768.872 7  21842082.514    21842101.928        2809.469  
      2189.324          46.000          44.000  
 127551334.984 6  99390724.881 6  24272215.286    24272235.237       -3449.039  
     -2687.621          36.000          38.000  
 24  1 10  3 23 29.1000000  0  7G08G24G18G23G10G32G15
 128208363.021 5  99902704.942 6  24397252.439    24397273.521        2644.492  
      2060.520          34.000          38.000  
 127967489.692 6  99715020.363 6  24351403.597    24351424.733         175.043  
       136.199          39.000          41.000  
 113283528.137 7  88272942.821 7  21557141.488    21557156.050       -1874.891  
     -1461.008          43.000          45.000  
 109962511.170 7  85685130.902 6  20925171.816    20925185.706       -1915.574  
     -1492.734          44.000          40.000  
 107494141.788 7  83761736.751 7  20455456.881    20455472.726         -60.430  
       -47.129          45.000          43.000  
 114780643.039 7  89439549.989 7  21842029.060    21842048.474        2809.227  
      2188.809          46.000          44.000  
 127551679.879 5  99390993.667 6  24272280.917    24272300.877       -3449.125  
     -2687.773          35.000          38.000  
 24  1 10  3 23 29.2000000  0  7G08G24G18G23G10G32G15
 128208098.571 5  99902498.867 6  24397202.717    24397223.570        2644.480  
      2060.840          34.000          38.000  
 127967472.247 6  99715006.793 6  24351400.214    24351421.723         174.727  
       135.703          39.000          41.000  
 113283715.649 7  88273088.874 7  21557176.897    21557191.460       -1875.066  
     -1460.996          42.000          45.000  
 109962702.762 7  85685280.157 6  20925207.884    20925222.203       -1915.867  
     -1492.656          44.000          40.000  
 107494147.821 7  83761741.449 7  20455458.123    20455474.123         -60.469  
       -46.988          45.000          43.000  
 114780362.092 7  89439331.083 7  21841975.621    21841994.882        2809.348  
      2189.078          46.000          44.000  
 127552024.926 5  99391262.401 6  24272346.030    24272365.669       -3449.613  
     -2687.379          35.000          38.000  
 24  1 10  3 23 29.3000000  0  7G08G24G18G23G10G32G15
 128207834.112 5  99902292.808 6  24397152.393    24397173.248        2644.492  
      2060.625          35.000          38.000  
 127967454.809 6  99714993.145 6  24351396.896    24351418.390         174.637  
       136.418          39.000          41.000  
 113283903.163 7  88273235.053 7  21557212.580    21557227.158       -1874.801  
     -1461.277          42.000          45.000  
 109962894.346 7  85685429.432 6  20925244.341    20925258.657       -1915.906  
     -1492.957          44.000          40.000  
 107494153.875 7  83761746.187 7  20455459.275    20455475.280         -60.414  
       -47.238          45.000          43.000  
 114780081.205 7  89439112.188 7  21841922.170    21841941.426        2809.113  
      2188.926          47.000          44.000  
 127552369.702 6  99391531.196 6  24272411.639    24272431.312       -3448.906  
     -2687.961          37.000          37.000  
 24  1 10  3 23 29.4000000  0  7G08G24G18G23G10G32G15
 128207569.664 5  99902086.744 6  24397102.015    24397122.699        2644.535  
      2060.426          35.000          38.000  
 127967437.359 6  99714979.577 6  24351392.997    24351414.671         174.402  
       135.855          39.000          41.000  
 113284090.701 7  88273381.120 7  21557247.916    21557262.774       -1875.340  
     -1461.383          42.000          45.000  
 109963085.983 7  85685578.770 6  20925280.598    20925295.283       -1916.062  
     -1493.348          44.000          40.000  
 107494159.977 7  83761750.910 7  20455460.420    20455476.668         -60.703  
       -47.227          45.000          42.000  
 114779800.313 7  89438893.333 7  21841869.116    21841887.940        2808.945  
      2188.395          47.000          44.000  
 127552714.758 6  99391800.017 6  24272477.489    24272496.593       -3449.738  
     -2688.012          39.000          37.000  
 24  1 10  3 23 29.5000000  0  7G08G24G18G23G10G32G15
 128207305.170 5  99901880.691 6  24397051.683    24397072.379        2644.711  
      2060.680          34.000          38.000  
 127967419.989 6  99714966.022 6  24351389.692    24351411.361         174.195  
       135.500          40.000          41.000  
 113284278.308 7  88273527.341 7  21557283.616    21557298.483       -1875.551  
     -1461.481          43.000          45.000  
 109963277.597 7  85685728.058 6  20925317.061    20925331.741       -1916.328  
     -1493.168          44.000          40.000  
 107494166.025 7  83761755.624 7  20455461.571    20455477.819         -60.750  
       -47.609          45.000          43.000  
 114779519.447 7  89438674.459 7  21841815.669    21841834.489        2808.680  
      2188.605          47.000          44.000  
 127553059.842 6  99392068.835 6  24272543.156    24272562.241       -3450.148  
     -2688.285          39.000          38.000  
 24  1 10  3 23 29.6000000  0  7G08G24G18G23G10G32G15
 128207040.695 5  99901674.584 6  24397000.973    24397022.326        2644.785  
      2060.949          34.000          38.000  
 127967402.508 6  99714952.479 6  24351386.483    24351407.819         174.512  
       135.367          40.000          41.000  
 113284465.762 7  88273673.402 7  21557319.530    21557334.621       -1875.254  
     -1461.332          43.000          45.000  
 109963469.183 7  85685877.385 6  20925353.526    20925368.208       -1915.832  
     -1493.074          44.000          40.000  
 107494172.099 7  83761760.399 7  20455462.610    20455478.634         -60.605  
       -47.348          45.000          43.000  
 114779238.551 7  89438455.595 7  21841761.740    21841781.485        2808.914  
      2188.863          46.000          44.000  
 127553404.747 6  99392337.562 6  24272609.399    24272627.953       -3449.594  
     -2687.406          38.000          38.000  
 24  1 10  3 23 29.7000000  0  7G08G24G18G23G10G32G15
 128206776.249 5  99901468.511 6  24396950.650    24396972.001        2644.578  
      2060.844          34.000          38.000  
 127967385.134 6  99714938.857 7  24351383.176    24351404.492         174.102  
       136.266          39.000          42.000  
 113284653.366 7  88273819.574 7  21557355.229    21557370.318       -1875.520  
     -1461.441          42.000          45.000  
 109963660.822 7  85686026.706 6  20925389.994    20925404.674       -1916.160  
     -1492.848          44.000          40.000  
 107494178.188 7  83761765.081 7  20455463.769    20455479.777         -60.758  
       -47.152          45.000          43.000  
 114778957.677 7  89438236.726 7  21841708.291    21841728.035        2808.855  
      2188.723          46.000          44.000  
 127553749.531 6  99392606.365 6  24272675.009    24272693.598       -3448.770  
     -2687.836          39.000          38.000  
 24  1 10  3 23 29.8000000  0  7G08G24G18G23G10G32G15
 128206511.802 5  99901262.435 6  24396899.914    24396921.917        2644.543  
      2060.699          34.000          38.000  
 127967367.723 6  99714925.302 7  24351379.879    24351401.447         173.926  
       135.348          39.000          42.000  
 113284840.938 7  88273965.777 7  21557390.806    21557406.093       -1875.625  
     -1461.637          43.000          45.000  
 109963852.425 7  85686175.979 6  20925426.697    20925440.526       -1916.281  
     -1493.477          44.000          40.000  
 107494184.271 7  83761769.832 7  20455464.778    20455481.148         -60.789  
       -47.547          45.000          43.000  
 114778676.826 7  89438017.881 7  21841654.863    21841674.505        2808.684  
      2188.480          47.000          44.000  
 127554094.566 6  99392875.247 6  24272740.589    24272758.863       -3449.606  
     -2688.629          39.000          38.000  
 24  1 10  3 23 29.9000000  0  7G08G24G18G23G10G32G15
 128206247.387 5  99901056.392 6  24396849.597    24396871.600        2644.445  
      2060.453          35.000          38.000  
 127967350.372 6  99714911.785 7  24351376.577    24351398.146         173.891  
       135.250          39.000          42.000  
 113285028.583 7  88274111.944 7  21557426.514    21557441.788       -1876.078  
     -1461.910          43.000          45.000  
 109964044.088 7  85686325.376 6  20925463.169    20925477.011       -1916.324  
     -1493.332          44.000          40.000  
 107494190.367 7  83761774.595 7  20455465.938    20455482.312         -61.070  
       -47.719          45.000          43.000  
 114778395.999 7  89437799.054 7  21841601.423    21841621.066        2808.430  
      2188.199          46.000          44.000  
 127554439.650 6  99393144.066 6  24272806.256    24272824.511       -3450.109  
     -2688.289          39.000          38.000  
 24  1 10  3 23 30.0000000  0  7G08G24G18G23G10G32G15
 128205982.915 5  99900850.308 6  24396799.161    24396821.334        2644.539  
      2060.754          35.000          39.000  
 127967332.988 6  99714898.252 7  24351373.074    24351395.248         173.746  
       135.422          39.000          42.000  
 113285216.184 7  88274258.145 7  21557461.643    21557477.523       -1875.953  
     -1461.785          42.000          45.000  
 109964235.773 7  85686474.701 6  20925499.450    20925513.540       -1916.516  
     -1493.578          44.000          40.000  
 107494196.484 7  83761779.375 7  20455466.750    20455483.276         -61.059  
       -47.617          45.000          43.000  
 114778115.150 7  89437580.210 7  21841548.026    21841567.372        2808.371  
      2188.418          46.000          44.000  
 127554784.594 6  99393412.882 6  24272872.420    24272890.487       -3449.883  
     -2688.262          40.000          38.000  
 24  1 10  3 23 30.1000000  0  7G08G24G18G23G10G32G15
 128205718.443 5  99900644.281 6  24396748.833    24396771.021        2644.531  
      2060.336          34.000          38.000  
 127967315.704 6  99714884.718 7  24351369.785    24351391.943         173.289  
       135.125          39.000          42.000  
 113285403.733 7  88274404.295 7  21557497.332    21557513.214       -1875.906  
     -1461.824          42.000          45.000  
 109964427.404 7  85686624.029 6  20925535.916    20925550.007       -1916.434  
     -1493.234          44.000          40.000  
 107494202.603 7  83761784.133 7  20455467.915    20455484.438         -60.996  
       -47.543          45.000          43.000  
 114777834.298 7  89437361.367 7  21841494.582    21841513.928        2808.566  
      2188.516          46.000          44.000  
 127555129.639 6  99393681.719 6  24272938.080    24272956.140       -3449.996  
     -2688.367          40.000          38.000  
 24  1 10  3 23 30.2000000  0  7G08G24G18G23G10G32G15
 128205453.959 5  99900438.188 6  24396698.652    24396720.354        2644.766  
      2060.836          35.000          38.000  
 127967298.295 6  99714871.195 7  24351366.417    24351389.336         173.949  
       135.461          39.000          42.000  
 113285591.366 7  88274550.501 7  21557533.045    21557549.037       -1876.004  
     -1461.613          42.000          45.000  
 109964619.071 7  85686773.363 6  20925572.421    20925586.320       -1916.512  
     -1492.981          44.000          40.000  
 107494208.690 7  83761788.891 7  20455469.385    20455485.943         -60.965  
       -47.559          45.000          43.000  
 114777553.437 7  89437142.515 7  21841441.144    21841460.435        2808.664  
      2188.555          46.000          44.000  
 127555474.419 6  99393950.523 6  24273004.377    24273021.792       -3449.144  
     -2688.125          39.000          38.000  
 24  1 10  3 23 30.3000000  0  7G08G24G18G23G10G32G15
 128205189.576 5  99900232.098 6  24396648.342    24396670.025        2644.363  
      2060.688          35.000          38.000  
 127967280.908 6  99714857.732 6  24351363.109    24351386.048         173.676  
       134.891          39.000          41.000  
 113285778.950 7  88274696.647 7  21557568.741    21557584.727       -1876.145  
     -1461.988          42.000          45.000  
 109964810.693 7  85686922.692 6  20925608.885    20925622.788       -1916.414  
     -1493.512          44.000          40.000  
 107494214.764 7  83761793.618 7  20455470.541    20455487.098         -60.879  
       -47.305          45.000          43.000  
 114777272.570 7  89436923.664 7  21841387.696    21841406.989        2808.543  
      2188.430          47.000          44.000  
 127555819.602 6  99394219.335 6  24273070.063    24273087.439       -3450.442  
     -2688.219          38.000          38.000  
 24  1 10  3 23 30.4000000  0  7G08G24G18G23G10G32G15
 128204925.089 5  99900026.070 6  24396597.925    24396619.594        2644.586  
      2060.590          35.000          38.000  
 127967263.565 6  99714844.158 6  24351359.394    24351381.780         173.582  
       135.734          38.000          41.000  
 113285966.501 7  88274842.808 7  21557604.556    21557620.226       -1875.727  
     -1461.703          43.000          45.000  
 109965002.319 7  85687072.058 6  20925645.506    20925659.546       -1916.195  
     -1493.281          44.000          40.000  
 107494220.859 7  83761798.358 7  20455471.748    20455488.287         -60.906  
       -47.086          45.000          43.000  
 114776991.709 7  89436704.811 7  21841334.539    21841353.426        2808.770  
      2188.766          46.000          43.000  
 127556164.548 6  99394488.149 6  24273135.485    24273153.516       -3449.891  
     -2688.230          38.000          38.000  
 24  1 10  3 23 30.5000000  0  7G08G24G18G23G10G32G15
 128204660.659 5  99899819.989 6  24396547.606    24396569.267        2644.477  
      2060.711          35.000          38.000  
 127967246.228 6  99714830.652 6  24351356.095    24351378.481         173.418  
       134.910          39.000          41.000  
 113286154.079 7  88274988.990 7  21557640.251    21557655.925       -1875.750  
     -1461.387          42.000          45.000  
 109965193.935 7  85687221.328 6  20925681.970    20925695.999       -1916.281  
     -1492.891          44.000          40.000  
 107494226.926 7  83761803.097 7  20455472.903    20455489.444         -60.703  
       -47.473          45.000          43.000  
 114776710.799 7  89436485.909 7  21841281.084    21841299.968        2808.867  
      2188.918          46.000          44.000  
 127556509.547 6  99394757.034 6  24273201.136    24273219.180       -3449.848  
     -2688.574          40.000          39.000  
 24  1 10  3 23 30.6000000  0  7G08G24G18G23G10G32G15
 128204396.216 5  99899613.924 6  24396497.151    24396518.983        2644.594  
      2060.496          35.000          38.000  
 127967228.852 6  99714817.160 6  24351352.429    24351374.796         173.578  
       135.047          39.000          41.000  
 113286341.684 7  88275135.134 7  21557676.178    21557691.685       -1875.941  
     -1461.672          43.000          45.000  
 109965385.604 7  85687370.667 6  20925718.662    20925733.102       -1916.500  
     -1493.481          44.000          40.000  
 107494233.026 7  83761807.850 7  20455474.212    20455490.120         -60.863  
       -47.406          45.000          43.000  
 114776429.914 7  89436267.054 7  21841227.532    21841246.576        2808.852  
      2188.602          46.000          43.000  
 127556854.544 6  99395025.866 6  24273266.842    24273285.347       -3449.976  
     -2688.418          39.000          38.000  
 24  1 10  3 23 30.7000000  0  7G08G24G18G23G10G32G15
 128204131.746 5  99899407.874 6  24396446.824    24396468.663        2644.434  
      2060.840          35.000          38.000  
 127967211.508 6  99714803.646 6  24351349.129    24351371.495         173.520  
       135.047          39.000          41.000  
 113286529.285 7  88275281.348 7  21557711.877    21557727.392       -1875.840  
     -1461.797          43.000          45.000  
 109965577.239 7  85687520.038 6  20925755.129    20925769.580       -1916.426  
     -1493.195          44.000          40.000  
 107494239.091 7  83761812.581 7  20455475.366    20455491.276         -60.797  
       -47.316          45.000          43.000  
 114776149.026 7  89436048.156 7  21841174.081    21841193.119        2808.770  
      2188.781          46.000          44.000  
 127557199.452 6  99395294.678 6  24273332.476    24273350.994       -3449.551  
     -2688.172          39.000          38.000  
 24  1 10  3 23 30.8000000  0  7G08G24G18G23G10G32G15
 128203867.320 5  99899201.806 6  24396396.311    24396418.222        2644.418  
      2060.754          35.000          38.000  
 127967194.239 6  99714790.114 6  24351345.850    24351368.035         173.152  
       135.289          38.000          41.000  
 113286716.898 7  88275427.535 7  21557747.703    21557763.124       -1876.141  
     -1462.027          42.000          45.000  
 109965768.879 7  85687669.312 6  20925792.073    20925805.995       -1916.375  
     -1493.164          44.000          40.000  
 107494245.191 7  83761817.320 7  20455476.238    20455492.113         -60.824  
       -47.500          45.000          42.000  
 114775868.167 7  89435829.310 7  21841120.940    21841139.659        2808.781  
      2188.590          46.000          44.000  
 127557544.548 6  99395563.479 6  24273397.723    24273416.403       -3450.226  
     -2687.949          39.000          38.000  
