     2.11           OBSERVATION DATA    M (MIXED)           RINEX VERSION / TYPE
GPP.DLL V3.2.21                         18 - MAR - 24 07:43 PGM / RUN BY / DATE 
                                                            MARKER NAME         
                                                            MARKER NUMBER       
                                                            OBSERVER / AGENCY   
6028C00128          APX-15v3 AV         5.50                REC # / TYPE / VERS 
                    E                                       ANT # / TYPE        
 -4668078.5841  2554565.5762 -3504580.7464                  APPROX POSITION XYZ 
        0.0000       -0.0000       -0.0000                  ANTENNA: DELTA H/E/N
     1     1                                                WAVELENGTH FACT L1/2
     9    L1    L2    C1    P2    C2    D1    D2    S1    S2# / TYPES OF OBSERV 
     0.100                                                  INTERVAL            
  2024     1    10     3    21    0.0000000     GPS         TIME OF FIRST OBS   
  2024     1    10     3    21   59.9000000     GPS         TIME OF LAST OBS    
    18                                                      LEAP SECONDS        
     8                                                      # OF SATELLITES     
   G08   600   600   600     0   600   600   600   600   600PRN / # OF OBS      
   G10   600   600   600     0   600   600   600   600   600PRN / # OF OBS      
   G15   600   600   600     0   600   600   600   600   600PRN / # OF OBS      
   G16   600   600   600   600     0   600   600   600   600PRN / # OF OBS      
   G18   600   600   600     0   600   600   600   600   600PRN / # OF OBS      
   G23   600   600   600     0   600   600   600   600   600PRN / # OF OBS      
   G24   578   578   578     0   578   578   578   578   578PRN / # OF OBS      
   G32   600   600   600     0   600   600   600   600   600PRN / # OF OBS      
                                                            END OF HEADER       
 24  1 10  3 21  0.0000000  0  8G08G24G18G23G16G10G15G32
 128621287.683 5 100224464.218 5  24475829.624                    24475851.047  
      2812.539        2191.215          33.000          35.000  
 127996355.68726  99737511.911 6  24356895.714                    24356917.953  
       220.117         171.844          37.000          39.000  
 113003481.369 7  88054724.836 7  21503849.813                    21503864.364  
     -1857.953       -1447.481          42.000          42.000  
 109685432.188 7  85469225.368 7  20872444.900                    20872459.972  
     -1837.488       -1431.547          44.000          43.000  
 127921849.774 5  99679490.256 3  24342725.914    24342749.910                  
     -2286.668       -1781.684          35.000          18.000  
 107495854.954 7  83763071.772 7  20455782.659                    20455798.877  
        48.605          37.863          47.000          44.000  
 127046070.227 5  98997012.916 6  24176066.076                    24176084.770  
     -3375.629       -2630.258          34.000          37.000  
 115194532.046 7  89762060.287 6  21920790.621                    21920809.463  
      2802.344        2183.914          46.000          41.000  
 24  1 10  3 21  0.1000000  0  8G08G24G18G23G16G10G15G32
 128621006.433 5 100224245.056 5  24475776.104                    24475797.525  
      2812.270        2191.602          34.000          35.000  
 127996333.67126  99737494.757 6  24356891.525                    24356913.764  
       220.281         171.672          38.000          39.000  
 113003667.136 7  88054869.561 7  21503885.164                    21503899.707  
     -1857.840       -1447.250          42.000          42.000  
 109685615.929 7  85469368.569 7  20872479.865                    20872494.943  
     -1837.434       -1431.953          44.000          43.000  
 127922078.358 5  99679668.368 3  24342769.412    24342793.407                  
     -2286.117       -1780.996          35.000          18.000  
 107495850.099 7  83763067.983 7  20455781.735                    20455797.952  
        48.637          38.055          47.000          44.000  
 127046407.812 5  98997275.987 6  24176130.316                    24176149.014  
     -3375.808       -2630.336          34.000          37.000  
 115194251.789 7  89761841.896 6  21920737.289                    21920756.129  
      2802.488        2184.031          46.000          41.000  
 24  1 10  3 21  0.2000000  0  8G08G24G18G23G16G10G15G32
 128620725.280 5 100224025.944 5  24475722.540                    24475744.094  
      2812.129        2191.086          34.000          35.000  
 127996311.57626  99737477.609 6  24356887.820                    24356909.522  
       220.586         171.699          37.000          39.000  
 113003852.872 6  88055014.317 7  21503920.375                    21503935.253  
     -1857.320       -1447.168          41.000          42.000  
 109685799.685 7  85469511.782 7  20872514.559                    20872530.151  
     -1837.438       -1431.762          44.000          43.000  
 127922306.966 5  99679846.503 3  24342812.735    24342836.987                  
     -2286.219       -1781.430          35.000          18.000  
 107495845.245 7  83763064.184 7  20455780.413                    20455796.953  
        48.566          37.848          47.000          44.000  
 127046745.448 5  98997539.034 6  24176194.613                    24176213.589  
     -3376.082       -2630.688          34.000          37.000  
 115193971.526 7  89761623.483 6  21920683.613                    21920702.783  
      2802.594        2183.895          46.000          41.000  
 24  1 10  3 21  0.3000000  0  8G08G24G18G23G16G10G15G32
 128620444.053 5 100223806.863 5  24475669.024                    24475690.592  
      2812.098        2191.242          34.000          35.000  
 127996289.58226  99737460.432 6  24356883.635                    24356905.327  
       220.227         171.691          36.000          39.000  
 113004038.521 6  88055158.991 7  21503955.703                    21503970.584  
     -1856.953       -1447.215          40.000          42.000  
 109685983.434 7  85469654.903 7  20872549.525                    20872565.103  
     -1837.566       -1431.586          44.000          43.000  
 127922535.721 5  99680024.755 3  24342856.265    24342880.518                  
     -2286.746       -1782.078          35.000          18.000  
 107495840.365 7  83763060.410 7  20455779.485                    20455796.032  
        48.684          37.840          47.000          44.000  
 127047082.935 5  98997802.088 6  24176258.835                    24176277.830  
     -3375.551       -2630.422          33.000          38.000  
 115193691.193 7  89761405.087 6  21920630.268                    21920649.448  
      2803.000        2183.957          46.000          41.000  
 24  1 10  3 21  0.4000000  0  8G08G24G18G23G16G10G15G32
 128620162.909 5 100223587.709 5  24475615.751                    24475637.182  
      2811.727        2190.785          35.000          34.000  
 127996267.50825  99737443.271 6  24356879.474                    24356901.612  
       220.371         171.508          34.000          40.000  
 113004224.313 6  88055303.797 7  21503990.535                    21504005.987  
     -1857.281       -1447.258          41.000          42.000  
 109686167.181 7  85469798.133 7  20872584.639                    20872599.979  
     -1837.469       -1432.152          45.000          43.000  
 127922764.319 5  99680202.892 3  24342900.071    24342924.021                  
     -2286.477       -1781.734          35.000          18.000  
 107495835.533 7  83763056.619 7  20455778.495                    20455795.145  
        48.469          37.863          47.000          44.000  
 127047420.612 5  98998065.157 6  24176322.983                    24176342.199  
     -3376.058       -2630.844          34.000          38.000  
 115193410.927 7  89761186.677 6  21920576.247                    21920595.985  
      2802.863        2184.289          45.000          41.000  
 24  1 10  3 21  0.5000000  0  8G08G24G18G23G16G10G15G32
 128619881.769 5 100223368.686 5  24475562.251                    24475583.694  
      2811.500        2190.504          35.000          34.000  
 127996245.48425  99737426.151 6  24356875.283                    24356897.432  
       220.363         171.273          33.000          40.000  
 113004410.096 6  88055448.532 7  21504025.888                    21504041.332  
     -1857.730       -1447.637          41.000          42.000  
 109686350.975 7  85469941.355 7  20872619.614                    20872634.956  
     -1837.703       -1432.152          45.000          44.000  
 127922993.021 5  99680381.095 3  24342943.591    24342967.540                  
     -2286.863       -1782.168          35.000          19.000  
 107495830.720 7  83763052.865 7  20455777.579                    20455794.228  
        48.305          37.520          47.000          44.000  
 127047758.219 5  98998328.248 6  24176387.228                    24176406.448  
     -3375.992       -2630.770          35.000          38.000  
 115193130.655 7  89760968.242 6  21920522.913                    21920542.641  
      2802.625        2183.711          45.000          41.000  
 24  1 10  3 21  0.6000000  0  8G08G24G18G23G16G10G15G32
 128619600.665 5 100223149.601 5  24475508.993                    24475529.723  
      2811.480        2190.621          35.000          34.000  
 127996223.53725  99737409.012 6  24356870.528                    24356893.699  
       219.668         171.496          33.000          40.000  
 113004595.777 6  88055593.231 7  21504061.113                    21504076.755  
     -1857.441       -1447.481          40.000          42.000  
 109686534.765 7  85470084.542 7  20872654.768                    20872670.150  
     -1837.930       -1432.031          45.000          44.000  
 127923221.715 5  99680559.293 3  24342987.314    24343011.058                  
     -2286.715       -1781.707          34.000          19.000  
 107495825.910 7  83763049.121 7  20455776.726                    20455793.267  
        48.105          37.234          47.000          44.000  
 127048095.840 5  98998591.320 6  24176451.522                    24176470.553  
     -3376.215       -2630.527          35.000          38.000  
 115192850.410 7  89760749.917 6  21920469.366                    21920489.293  
      2802.570        2183.500          45.000          41.000  
 24  1 10  3 21  0.7000000  0  8G08G24G18G23G16G10G15G32
 128619319.458 5 100222930.543 5  24475455.482                    24475476.227  
      2811.594        2190.617          35.000          34.000  
 127996201.57825  99737391.860 6  24356866.349                    24356889.510  
       219.891         171.438          32.000          40.000  
 113004781.543 6  88055737.986 7  21504096.463                    21504112.106  
     -1857.320       -1447.359          41.000          42.000  
 109686718.526 7  85470227.742 7  20872689.736                    20872705.121  
     -1837.605       -1431.941          45.000          44.000  
 127923450.349 5  99680737.442 3  24343030.821    24343054.564                  
     -2286.633       -1781.730          34.000          18.000  
 107495821.080 7  83763045.380 7  20455775.807                    20455792.353  
        48.309          37.738          47.000          44.000  
 127048433.466 5  98998854.396 6  24176515.770                    24176534.798  
     -3376.230       -2630.793          35.000          38.000  
 115192570.130 7  89760531.487 6  21920416.030                    21920435.950  
      2802.785        2184.152          45.000          41.000  
 24  1 10  3 21  0.8000000  0  8G08G24G18G23G16G10G15G32
 128619038.387 6 100222711.467 5  24475402.253                    24475422.937  
      2811.152        2190.496          36.000          35.000  
 127996178.966 5  99737374.741 6  24356861.640                    24356885.322  
       220.281         171.297          30.000          40.000  
 113004967.358 7  88055882.753 7  21504132.299                    21504147.405  
     -1857.926       -1447.746          42.000          42.000  
 109686902.329 7  85470370.967 7  20872724.596                    20872739.824  
     -1837.840       -1432.203          45.000          44.000  
 127923679.078 5  99680915.670 3  24343074.409    24343098.128                  
     -2287.016       -1782.273          34.000          18.000  
 107495816.301 7  83763041.626 7  20455774.843                    20455791.476  
        48.062          37.359          47.000          44.000  
 127048771.122 5  98999117.493 6  24176579.992                    24176598.924  
     -3376.508       -2630.957          35.000          38.000  
 115192289.910 7  89760313.131 6  21920363.050                    21920382.703  
      2802.480        2183.715          45.000          41.000  
 24  1 10  3 21  0.9000000  0  8G08G24G18G23G16G10G15G32
 128618757.267 6 100222492.421 5  24475348.758                    24475369.444  
      2811.215        2190.656          36.000          34.000  
 127996157.094 5  99737357.614 6  24356857.478                    24356881.139  
       219.566         171.254          31.000          41.000  
 113005153.164 6  88056027.500 7  21504167.656                    21504182.754  
     -1858.180       -1447.727          41.000          42.000  
 109687086.125 7  85470514.175 7  20872759.571                    20872774.797  
     -1838.047       -1432.234          45.000          44.000  
 127923907.810 5  99681093.904 3  24343117.935    24343141.654                  
     -2287.145       -1782.309          34.000          18.000  
 107495811.505 7  83763037.897 7  20455773.930                    20455790.565  
        47.898          37.254          47.000          44.000  
 127049108.738 5  98999380.587 6  24176644.239                    24176663.175  
     -3376.219       -2630.828          35.000          38.000  
 115192009.697 7  89760094.785 6  21920309.727                    21920329.381  
      2802.141        2183.285          45.000          41.000  
 24  1 10  3 21  1.0000000  0  8G08G24G18G23G16G10G15G32
 128618476.128 6 100222273.374 5  24475295.657                    24475315.622  
      2811.340        2190.387          36.000          34.000  
 127996135.102 5  99737340.480 6  24356852.957                    24356876.830  
       219.977         171.227          34.000          40.000  
 113005338.953 6  88056172.256 7  21504202.948                    21504218.050  
     -1857.688       -1447.199          41.000          42.000  
 109687269.905 7  85470657.389 7  20872794.700                    20872809.365  
     -1837.938       -1432.051          45.000          44.000  
 127924136.514 5  99681272.114 2  24343161.542    24343185.222                  
     -2287.078       -1782.148          35.000          17.000  
 107495806.706 8  83763034.163 7  20455773.111                    20455789.528  
        47.988          37.488          48.000          44.000  
 127049446.354 6  98999643.666 6  24176708.430                    24176727.023  
     -3376.226       -2630.770          36.000          38.000  
 115191729.453 7  89759876.454 6  21920256.617                    21920275.945  
      2802.449        2183.500          46.000          41.000  
 24  1 10  3 21  1.1000000  0  8G08G24G18G23G16G10G15G32
 128618194.965 6 100222054.328 5  24475242.154                    24475262.129  
      2811.371        2190.711          36.000          34.000  
 127996113.098 5  99737323.355 6  24356848.770                    24356872.648  
       219.902         171.402          35.000          40.000  
 113005524.648 6  88056317.014 7  21504238.285                    21504253.401  
     -1857.434       -1448.035          41.000          42.000  
 109687453.661 7  85470800.595 7  20872829.667                    20872844.338  
     -1837.645       -1432.055          45.000          44.000  
 127924365.254 5  99681450.354 3  24343205.070    24343228.750                  
     -2287.273       -1782.387          35.000          18.000  
 107495801.906 8  83763030.427 7  20455772.197                    20455788.616  
        48.016          37.348          48.000          44.000  
 127049783.949 6  98999906.694 6  24176772.672                    24176791.257  
     -3376.024       -2630.684          36.000          38.000  
 115191449.210 7  89759658.075 6  21920203.289                    21920222.615  
      2802.344        2183.625          46.000          41.000  
 24  1 10  3 21  1.2000000  0  8G08G24G18G23G16G10G15G32
 128617913.830 6 100221835.194 5  24475188.843                    24475208.052  
      2811.488        2190.875          36.000          35.000  
 127996091.007 6  99737306.173 6  24356845.254                    24356868.100  
       220.453         171.871          36.000          40.000  
 113005710.386 6  88056461.792 7  21504273.489                    21504288.585  
     -1857.516       -1447.359          40.000          42.000  
 109687637.434 7  85470943.787 7  20872864.482                    20872880.010  
     -1837.531       -1431.695          45.000          44.000  
 127924593.933 5  99681628.550 2  24343248.485    24343272.290                  
     -2287.031       -1782.066          35.000          17.000  
 107495797.096 8  83763026.690 7  20455771.649                    20455787.586  
        48.086          37.434          48.000          44.000  
 127050121.481 5  99000169.741 6  24176836.496                    24176855.253  
     -3375.656       -2630.305          35.000          38.000  
 115191169.005 7  89759439.706 6  21920150.241                    21920169.224  
      2802.297        2183.719          46.000          41.000  
 24  1 10  3 21  1.3000000  0  8G08G24G18G23G16G10G15G32
 128617632.643 5 100221616.139 5  24475135.335                    24475154.556  
      2811.551        2190.902          35.000          34.000  
 127996068.977 6  99737288.991 6  24356841.061                    24356863.904  
       220.258         171.609          36.000          40.000  
 113005896.284 6  88056606.562 7  21504308.864                    21504323.940  
     -1858.113       -1447.797          40.000          42.000  
 109687821.219 7  85471086.966 7  20872899.455                    20872914.976  
     -1837.848       -1432.004          45.000          44.000  
 127924822.664 6  99681806.774 2  24343292.011    24343315.815                  
     -2287.105       -1782.125          36.000          17.000  
 107495792.340 8  83763022.974 7  20455770.744                    20455786.678  
        47.867          37.062          48.000          44.000  
 127050459.071 5  99000432.788 6  24176900.737                    24176919.492  
     -3375.746       -2630.586          35.000          38.000  
 115190888.771 7  89759221.383 6  21920096.914                    21920115.908  
      2802.199        2183.273          47.000          41.000  
 24  1 10  3 21  1.4000000  0  8G08G24G18G23G16G10G15G32
 128617351.548 5 100221397.077 5  24475081.376                    24475101.356  
      2811.367        2190.672          35.000          34.000  
 127996047.015 6  99737271.860 6  24356837.171                    24356860.033  
       220.027         171.598          36.000          41.000  
 113006082.025 6  88056751.301 7  21504343.858                    21504359.552  
     -1857.633       -1447.539          40.000          42.000  
 109688004.990 7  85471230.189 7  20872934.667                    20872950.116  
     -1837.715       -1432.106          45.000          44.000  
 127925051.421 5  99681985.023 3  24343336.034    24343359.298                  
     -2287.320       -1782.348          35.000          18.000  
 107495787.559 7  83763019.228 7  20455769.561                    20455785.647  
        47.746          37.297          47.000          44.000  
 127050796.640 5  99000695.856 6  24176964.560                    24176984.213  
     -3375.758       -2630.535          35.000          38.000  
 115190608.589 7  89759003.072 6  21920044.676                    21920062.500  
      2802.121        2183.484          47.000          41.000  
 24  1 10  3 21  1.5000000  0  8G08G24G18G23G16G10G15G32
 128617070.431 5 100221178.034 5  24475027.881                    24475047.863  
      2811.262        2190.688          35.000          35.000  
 127996025.032 5  99737254.691 6  24356832.988                    24356855.841  
       219.875         171.648          35.000          41.000  
 113006267.752 6  88056896.076 7  21504379.201                    21504394.908  
     -1857.555       -1447.606          40.000          42.000  
 109688188.765 7  85471373.387 7  20872969.639                    20872985.087  
     -1837.824       -1432.266          45.000          44.000  
 127925280.111 5  99682163.211 3  24343379.552    24343402.813                  
     -2287.059       -1781.930          35.000          18.000  
 107495782.786 7  83763015.511 7  20455768.653                    20455784.739  
        47.633          37.074          47.000          44.000  
 127051134.291 5  99000958.904 6  24177028.813                    24177048.452  
     -3376.047       -2630.535          35.000          38.000  
 115190328.417 7  89758784.715 6  21919991.361                    21920009.175  
      2801.770        2183.469          46.000          41.000  
 24  1 10  3 21  1.6000000  0  8G08G24G18G23G16G10G15G32
 128616789.274 5 100220958.963 5  24474974.082                    24474994.426  
      2811.453        2190.500          35.000          35.000  
 127996003.089 5  99737237.551 6  24356828.672                    24356851.881  
       219.727         171.242          34.000          41.000  
 113006453.622 6  88057040.845 7  21504414.008                    21504429.777  
     -1858.160       -1447.789          40.000          42.000  
 109688372.566 7  85471516.648 7  20873004.248                    20873019.744  
     -1837.820       -1432.172          45.000          44.000  
 127925508.872 5  99682341.462 2  24343423.514    24343446.266                  
     -2287.457       -1782.539          35.000          17.000  
 107495778.031 7  83763011.816 7  20455767.443                    20455783.961  
        47.668          37.152          47.000          44.000  
 127051471.790 6  99001221.960 6  24177093.217                    24177112.989  
     -3375.613       -2630.633          36.000          38.000  
 115190048.254 7  89758566.398 7  21919937.844                    21919956.094  
      2801.730        2183.062          46.000          42.000  
 24  1 10  3 21  1.7000000  0  8G08G24G18G23G16G10G15G32
 128616508.176 6 100220739.932 5  24474920.590                    24474940.937  
      2811.121        2190.609          36.000          35.000  
 127995981.024 5  99737220.411 6  24356824.473                    24356847.695  
       220.078         171.504          34.000          41.000  
 113006639.372 6  88057185.605 7  21504449.355                    21504465.129  
     -1857.766       -1447.508          40.000          42.000  
 109688556.350 7  85471659.797 7  20873039.220                    20873054.703  
     -1837.887       -1431.602          45.000          44.000  
 127925737.623 5  99682519.717 2  24343467.044    24343489.798                  
     -2287.395       -1782.457          35.000          17.000  
 107495773.256 7  83763008.113 7  20455766.535                    20455783.057  
        47.695          36.988          47.000          44.000  
 127051809.414 6  99001485.051 6  24177157.465                    24177177.239  
     -3375.750       -2630.637          36.000          38.000  
 115189768.046 7  89758348.038 7  21919884.522                    21919902.769  
      2801.910        2183.430          46.000          42.000  
 24  1 10  3 21  1.8000000  0  8G08G24G18G23G16G10G15G32
 128616227.114 5 100220520.872 5  24474866.716                    24474887.823  
      2810.910        2190.320          35.000          35.000  
 127995959.007 6  99737203.254 6  24356820.237                    24356843.482  
       220.168         171.520          36.000          40.000  
 113006825.091 6  88057330.342 7  21504484.993                    21504500.483  
     -1857.434       -1447.531          41.000          42.000  
 109688740.122 7  85471802.985 7  20873074.082                    20873089.155  
     -1837.773       -1432.195          44.000          44.000  
 127925966.367 5  99682697.974 2  24343510.775    24343533.314                  
     -2287.441       -1782.570          35.000          17.000  
 107495768.480 7  83763004.410 7  20455765.618                    20455782.387  
        47.828          37.262          47.000          44.000  
 127052146.988 5  99001748.062 6  24177222.461                    24177241.102  
     -3375.844       -2630.238          35.000          38.000  
 115189487.847 7  89758129.715 7  21919830.085                    21919849.803  
      2801.973        2183.258          45.000          42.000  
 24  1 10  3 21  1.9000000  0  8G08G24G18G23G16G10G15G32
 128615945.978 5 100220301.874 5  24474813.217                    24474834.341  
      2811.082        2190.258          35.000          35.000  
 127995936.928 6  99737186.117 6  24356816.035                    24356839.297  
       220.551         171.547          37.000          40.000  
 113007010.864 6  88057475.125 7  21504520.345                    21504535.841  
     -1857.477       -1447.426          41.000          42.000  
 109688923.885 7  85471946.217 7  20873109.051                    20873124.134  
     -1837.664       -1431.805          45.000          44.000  
 127926195.057 5  99682876.174 3  24343554.294    24343576.832                  
     -2287.191       -1782.203          35.000          18.000  
 107495763.703 7  83763000.664 7  20455764.709                    20455781.472  
        47.773          37.406          47.000          44.000  
 127052484.592 5  99002011.095 6  24177286.705                    24177305.337  
     -3375.840       -2630.488          34.000          37.000  
 115189207.649 7  89757911.366 7  21919776.765                    21919796.480  
      2802.082        2183.684          45.000          42.000  
 24  1 10  3 21  2.0000000  0  8G08G24G18G23G16G10G15G32
 128615664.894 5 100220082.780 5  24474759.721                    24474781.086  
      2810.918        2190.617          35.000          35.000  
 127995914.893 6  99737168.934 6  24356812.498                    24356835.023  
       220.277         171.723          38.000          40.000  
 113007196.609 6  88057619.772 7  21504556.214                    21504571.688  
     -1857.617       -1447.062          41.000          42.000  
 109689107.613 7  85472089.327 7  20873144.372                    20873158.981  
     -1837.449       -1431.688          45.000          43.000  
 127926423.821 5  99683054.436 3  24343597.513    24343620.389                  
     -2287.410       -1782.512          35.000          18.000  
 107495758.901 7  83762996.909 7  20455764.209                    20455780.313  
        47.914          37.414          47.000          44.000  
 127052822.085 5  99002274.126 6  24177350.881                    24177369.525  
     -3375.609       -2630.250          34.000          38.000  
 115188927.406 7  89757692.983 7  21919722.530                    21919743.188  
      2802.180        2183.477          44.000          42.000  
 24  1 10  3 21  2.1000000  0  8G08G24G18G23G16G10G15G32
 128615383.784 5 100219863.763 5  24474706.227                    24474727.600  
      2811.094        2190.105          34.000          34.000  
 127995892.878 6  99737151.807 6  24356808.309                    24356830.840  
       220.344         171.375          38.000          39.000  
 113007382.290 6  88057764.533 7  21504591.548                    21504607.041  
     -1857.121       -1447.246          41.000          42.000  
 109689291.353 7  85472232.541 7  20873179.337                    20873193.955  
     -1837.438       -1431.797          45.000          43.000  
 127926652.577 6  99683232.688 3  24343641.044    24343663.920                  
     -2287.508       -1782.562          36.000          18.000  
 107495754.110 7  83762993.201 7  20455763.297                    20455779.408  
        47.934          37.289          47.000          44.000  
 127053159.701 5  99002537.178 6  24177415.127                    24177433.765  
     -3375.770       -2630.516          34.000          38.000  
 115188647.176 7  89757474.642 7  21919669.205                    21919689.867  
      2802.371        2183.789          45.000          42.000  
 24  1 10  3 21  2.2000000  0  8G08G24G18G23G16G10G15G32
 128615102.713 5 100219644.774 5  24474652.398                    24474674.801  
      2810.816        2189.906          34.000          34.000  
 127995870.829 6  99737134.616 6  24356804.379                    24356825.923  
       220.301         171.562          37.000          39.000  
 113007568.052 6  88057909.233 7  21504626.968                    21504642.425  
     -1857.422       -1447.363          41.000          42.000  
 109689475.110 7  85472375.726 7  20873214.313                    20873228.462  
     -1837.457       -1432.012          45.000          43.000  
 127926881.349 5  99683410.953 3  24343684.578    24343707.423                  
     -2287.645       -1782.688          35.000          18.000  
 107495749.352 8  83762989.479 7  20455762.517                    20455778.592  
        47.703          37.203          48.000          44.000  
 127053497.300 5  99002800.233 6  24177478.932                    24177498.311  
     -3375.894       -2630.594          34.000          38.000  
 115188366.966 7  89757256.290 7  21919615.640                    21919636.348  
      2802.254        2183.523          45.000          42.000  
 24  1 10  3 21  2.3000000  0  8G08G24G18G23G16G10G15G32
 128614821.697 5 100219425.757 5  24474598.922                    24474621.314  
      2810.562        2190.164          35.000          34.000  
 127995848.871 6  99737117.497 6  24356800.200                    24356821.742  
       219.922         171.277          36.000          39.000  
 113007753.809 6  88058053.982 7  21504662.316                    21504677.774  
     -1857.508       -1447.312          40.000          42.000  
 109689658.873 7  85472518.921 7  20873249.281                    20873263.431  
     -1837.633       -1432.066          45.000          44.000  
 127927110.120 6  99683589.211 3  24343728.112    24343750.956                  
     -2287.652       -1782.574          36.000          18.000  
 107495744.579 8  83762985.746 7  20455761.609                    20455777.681  
        47.684          37.090          48.000          44.000  
 127053834.960 5  99003063.312 6  24177543.187                    24177562.557  
     -3376.293       -2630.602          34.000          38.000  
 115188086.708 7  89757037.913 7  21919562.309                    21919583.018  
      2802.301        2183.719          45.000          42.000  
 24  1 10  3 21  2.4000000  0  8G08G24G18G23G16G10G15G32
 128614540.671 5 100219206.743 5  24474545.226                    24474568.087  
      2810.410        2190.434          35.000          34.000  
 127995826.884 5  99737100.371 6  24356795.579                    24356817.560  
       219.848         171.465          35.000          39.000  
 113007939.531 6  88058198.718 7  21504697.017                    21504713.206  
     -1857.031       -1447.199          40.000          42.000  
 109689842.638 7  85472662.119 7  20873284.290                    20873299.324  
     -1837.664       -1431.891          45.000          44.000  
 127927338.881 6  99683767.462 3  24343771.644    24343794.471                  
     -2287.562       -1782.426          36.000          18.000  
 107495739.791 8  83762982.028 7  20455760.948                    20455776.656  
        47.801          37.215          48.000          44.000  
 127054172.465 5  99003326.397 6  24177607.779                    24177627.086  
     -3375.797       -2630.848          34.000          38.000  
 115187806.461 7  89756819.551 6  21919509.433                    21919529.379  
      2802.492        2183.594          45.000          41.000  
 24  1 10  3 21  2.5000000  0  8G08G24G18G23G16G10G15G32
 128614259.585 5 100218987.769 5  24474491.737                    24474514.611  
      2810.520        2189.723          35.000          35.000  
 127995804.909 5  99737083.221 6  24356791.397                    24356813.372  
       219.762         171.348          35.000          39.000  
 113008125.286 6  88058343.494 7  21504732.365                    21504748.562  
     -1857.359       -1447.406          41.000          42.000  
 109690026.397 7  85472805.296 7  20873319.258                    20873334.289  
     -1837.668       -1431.934          45.000          44.000  
 127927567.676 6  99683945.750 2  24343815.182    24343838.010                  
     -2287.844       -1782.949          36.000          17.000  
 107495735.031 8  83762978.324 7  20455760.042                    20455775.751  
        47.754          37.305          48.000          44.000  
 127054510.137 5  99003589.429 6  24177672.036                    24177691.321  
     -3376.051       -2630.340          34.000          38.000  
 115187526.261 7  89756601.231 6  21919456.113                    21919476.063  
      2802.266        2183.414          45.000          41.000  
 24  1 10  3 21  2.6000000  0  8G08G24G18G23G16G10G15G32
 128613978.564 5 100218768.733 5  24474438.495                    24474460.995  
      2810.359        2190.344          35.000          34.000  
 127995783.055 5  99737066.139 6  24356787.035                    24356808.575  
       219.227         170.953          34.000          39.000  
 113008311.065 6  88058488.247 7  21504768.288                    21504784.123  
     -1857.789       -1447.633          41.000          42.000  
 109690210.208 7  85472948.524 7  20873354.494                    20873369.985  
     -1837.879       -1432.340          45.000          44.000  
 127927796.441 6  99684124.020 2  24343859.035    24343881.538                  
     -2287.684       -1782.641          36.000          17.000  
 107495730.296 7  83762974.633 7  20455758.945                    20455774.553  
        47.469          36.664          47.000          44.000  
 127054847.725 5  99003852.547 6  24177736.542                    24177755.921  
     -3376.141       -2630.965          34.000          38.000  
 115187246.074 7  89756382.910 6  21919402.756                    21919422.599  
      2801.918        2183.164          46.000          41.000  
 24  1 10  3 21  2.7000000  0  8G08G24G18G23G16G10G15G32
 128613697.490 5 100218549.798 5  24474385.008                    24474407.529  
      2810.594        2189.629          35.000          34.000  
 127995761.017 5  99737048.994 6  24356782.841                    24356804.388  
       220.020         171.316          33.000          38.000  
 113008496.812 7  88058632.969 7  21504803.634                    21504819.465  
     -1857.715       -1447.484          42.000          42.000  
 109690393.995 7  85473091.780 7  20873389.467                    20873404.970  
     -1837.902       -1432.352          46.000          44.000  
 127928025.229 6  99684302.287 2  24343902.572    24343925.073                  
     -2287.859       -1782.781          36.000          17.000  
 107495725.564 7  83762970.942 7  20455758.045                    20455773.651  
        47.387          37.027          47.000          44.000  
 127055185.309 5  99004115.609 6  24177800.782                    24177820.164  
     -3376.031       -2630.848          34.000          38.000  
 115186965.866 7  89756164.535 6  21919349.434                    21919369.269  
      2801.938        2183.711          46.000          41.000  
 24  1 10  3 21  2.8000000  0  8G08G24G18G23G16G10G15G32
 128613416.491 5 100218330.801 5  24474331.286                    24474353.634  
      2810.234        2189.801          35.000          34.000  
 127995738.913 5  99737031.875 6  24356778.346                    24356800.395  
       220.504         171.246          31.000          38.000  
 113008682.677 7  88058777.766 7  21504839.527                    21504854.514  
     -1858.086       -1447.723          42.000          42.000  
 109690577.829 7  85473234.991 7  20873424.755                    20873439.662  
     -1838.070       -1432.156          45.000          44.000  
 127928254.078 6  99684480.603 2  24343946.214    24343968.603                  
     -2288.016       -1782.785          36.000          17.000  
 107495720.861 7  83762967.263 7  20455756.251                    20455772.573  
        47.172          36.590          47.000          44.000  
 127055522.983 5  99004378.707 6  24177864.704                    24177884.337  
     -3376.438       -2630.895          34.000          38.000  
 115186685.718 7  89755946.219 6  21919297.069                    21919315.579  
      2801.762        2183.152          46.000          41.000  
 24  1 10  3 21  2.9000000  0  8G08G24G18G23G16G10G15G32
 128613135.487 5 100218111.840 5  24474277.813                    24474300.161  
      2810.293        2189.816          35.000          34.000  
 127995717.071 5  99737014.813 6  24356774.190                    24356796.229  
       218.969         170.695          31.000          38.000  
 113008868.459 6  88058922.563 7  21504874.880                    21504889.875  
     -1858.070       -1448.207          41.000          42.000  
 109690761.648 7  85473378.231 7  20873459.734                    20873474.643  
     -1838.234       -1432.508          45.000          44.000  
 127928482.802 5  99684658.827 2  24343989.738    24344012.128                  
     -2287.801       -1782.680          35.000          17.000  
 107495716.174 8  83762963.640 7  20455755.360                    20455771.689  
        47.012          36.383          48.000          44.000  
 127055860.616 5  99004641.793 6  24177928.953                    24177948.585  
     -3376.332       -2630.828          34.000          38.000  
 115186405.584 7  89755727.953 6  21919243.761                    21919262.276  
      2801.605        2183.105          46.000          41.000  
 24  1 10  3 21  3.0000000  0  8G08G24G18G23G16G10G15G32
 128612854.456 5 100217892.923 5  24474224.756                    24474246.192  
      2810.207        2189.551          35.000          34.000  
 127995695.221 5  99736997.727 6  24356769.563                    24356792.040  
       219.031         170.891          34.000          38.000  
 113009054.301 7  88059067.361 6  21504910.588                    21504925.197  
     -1858.352       -1448.180          42.000          41.000  
 109690945.509 7  85473521.530 7  20873494.292                    20873508.701  
     -1838.395       -1432.762          45.000          44.000  
 127928711.687 5  99684837.175 2  24344033.192    24344055.682                  
     -2288.219       -1783.160          35.000          17.000  
 107495711.515 7  83762959.981 7  20455754.739                    20455771.147  
        46.727          36.430          47.000          44.000  
 127056198.326 5  99004904.897 6  24177993.030                    24178012.596  
     -3376.734       -2630.926          34.000          38.000  
 115186125.452 7  89755509.650 6  21919190.352                    21919208.801  
      2801.281        2182.703          46.000          40.000  
 24  1 10  3 21  3.1000000  0  8G08G24G18G23G16G10G15G32
 128612573.448 5 100217673.869 5  24474171.282                    24474192.696  
      2810.312        2190.031          35.000          34.000  
 127995673.263 6  99736980.649 6  24356765.385                    24356787.870  
       219.320         170.832          36.000          38.000  
 113009240.114 7  88059212.165 6  21504945.947                    21504960.559  
     -1858.078       -1447.856          42.000          41.000  
 109691129.348 7  85473664.733 7  20873529.276                    20873543.672  
     -1838.391       -1432.082          45.000          44.000  
 127928940.419 5  99685015.405 2  24344076.719    24344099.208                  
     -2287.871       -1782.680          35.000          17.000  
 107495706.815 7  83762956.312 7  20455753.844                    20455770.250  
        46.875          36.660          47.000          45.000  
 127056535.852 5  99005167.993 6  24178057.259                    24178076.846  
     -3375.980       -2631.117          34.000          39.000  
 115185845.296 7  89755291.368 6  21919137.040                    21919155.494  
      2801.559        2183.012          46.000          40.000  
 24  1 10  3 21  3.2000000  0  8G08G24G18G23G16G10G15G32
 128612292.387 5 100217454.911 5  24474117.954                    24474139.217  
      2810.316        2189.609          35.000          34.000  
 127995651.291 6  99736963.522 6  24356761.813                    24356783.453  
       219.629         171.113          38.000          39.000  
 113009425.957 7  88059356.982 6  21504981.859                    21504995.300  
     -1858.316       -1448.145          42.000          41.000  
 109691313.175 7  85473807.985 7  20873564.061                    20873578.398  
     -1838.277       -1432.734          45.000          44.000  
 127929169.185 6  99685193.660 2  24344120.111    24344142.763                  
     -2287.754       -1782.609          36.000          17.000  
 107495702.130 7  83762952.669 7  20455753.062                    20455769.916  
        46.938          36.516          47.000          45.000  
 127056873.517 5  99005431.083 6  24178121.530                    24178140.916  
     -3376.308       -2630.980          34.000          39.000  
 115185565.185 7  89755073.086 6  21919083.698                    21919102.171  
      2801.414        2182.758          46.000          41.000  
 24  1 10  3 21  3.3000000  0  8G08G24G18G23G16G10G15G32
 128612011.422 5 100217235.938 5  24474064.488                    24474085.741  
      2810.082        2189.754          35.000          34.000  
 127995629.361 6  99736946.460 6  24356757.640                    24356779.286  
       219.363         170.820          38.000          39.000  
 113009611.758 7  88059501.777 6  21505017.216                    21505030.660  
     -1858.199       -1448.242          42.000          41.000  
 109691497.032 7  85473951.234 7  20873599.048                    20873613.381  
     -1838.496       -1432.578          45.000          44.000  
 127929398.018 6  99685371.982 2  24344163.656    24344186.311                  
     -2288.074       -1783.129          36.000          17.000  
 107495697.455 8  83762949.009 7  20455752.173                    20455769.022  
        46.828          36.457          48.000          45.000  
 127057211.174 5  99005694.181 6  24178185.784                    24178205.167  
     -3376.219       -2630.887          34.000          38.000  
 115185285.035 7  89754854.800 6  21919030.387                    21919048.864  
      2801.312        2182.719          46.000          40.000  
 24  1 10  3 21  3.4000000  0  8G08G24G18G23G16G10G15G32
 128611730.406 5 100217016.955 5  24474010.927                    24474032.326  
      2810.184        2189.902          35.000          35.000  
 127995607.489 6  99736929.370 6  24356754.439                    24356774.972  
       219.121         170.941          39.000          39.000  
 113009797.650 6  88059646.631 6  21505052.324                    21505066.285  
     -1858.539       -1447.898          41.000          41.000  
 109691680.880 7  85474094.512 7  20873633.916                    20873648.371  
     -1838.457       -1432.488          45.000          43.000  
 127929626.820 6  99685550.281 3  24344207.118    24344229.822                  
     -2288.000       -1782.969          36.000          18.000  
 107495692.756 8  83762945.347 7  20455751.856                    20455768.534  
        46.914          36.691          48.000          45.000  
 127057548.785 5  99005957.273 6  24178250.240                    24178269.737  
     -3376.453       -2630.977          34.000          38.000  
 115185004.897 7  89754636.521 6  21918977.688                    21918995.792  
      2801.414        2182.781          47.000          40.000  
 24  1 10  3 21  3.5000000  0  8G08G24G18G23G16G10G15G32
 128611449.295 5 100216797.928 5  24473957.433                    24473978.837  
      2810.652        2190.129          35.000          35.000  
 127995585.532 6  99736912.291 6  24356750.260                    24356770.801  
       219.254         170.844          39.000          39.000  
 113009983.536 6  88059791.427 7  21505087.697                    21505101.646  
     -1858.762       -1448.223          41.000          42.000  
 109691864.712 7  85474237.735 7  20873668.898                    20873683.347  
     -1838.301       -1432.254          45.000          43.000  
 127929855.604 6  99685728.560 3  24344250.654    24344273.359                  
     -2287.828       -1782.621          36.000          18.000  
 107495688.075 8  83762941.714 7  20455750.966                    20455767.646  
        46.914          36.371          48.000          45.000  
 127057886.486 5  99006220.372 6  24178314.502                    24178333.989  
     -3376.633       -2630.723          33.000          38.000  
 115184724.824 7  89754418.270 6  21918924.392                    21918942.493  
      2801.086        2182.812          46.000          40.000  
 24  1 10  3 21  3.6000000  0  8G08G24G18G23G16G10G15G32
 128611168.323 5 100216579.018 5  24473904.364                    24473925.088  
      2810.102        2189.137          35.000          35.000  
 127995563.681 6  99736895.252 6  24356746.751                    24356766.843  
       218.914         170.387          40.000          40.000  
 113010169.449 6  88059936.295 7  21505122.356                    21505137.274  
     -1858.875       -1448.731          40.000          42.000  
 109692048.579 7  85474381.018 7  20873704.059                    20873718.432  
     -1838.613       -1433.039          45.000          43.000  
 127930084.471 6  99685906.894 3  24344294.190    24344316.871                  
     -2288.445       -1783.520          36.000          18.000  
 107495683.418 8  83762938.092 7  20455750.001                    20455766.731  
        46.727          36.293          48.000          45.000  
 127058224.163 5  99006483.485 6  24178378.690                    24178398.290  
     -3376.684       -2631.145          34.000          38.000  
 115184444.751 7  89754199.988 6  21918871.221                    21918888.811  
      2800.742        2182.109          46.000          40.000  
 24  1 10  3 21  3.7000000  0  8G08G24G18G23G16G10G15G32
 128610887.243 5 100216359.996 5  24473850.877                    24473871.601  
      2810.520        2190.164          35.000          35.000  
 127995541.785 6  99736878.176 6  24356742.584                    24356762.673  
       218.922         170.840          39.000          40.000  
 113010355.315 6  88060081.167 7  21505157.725                    21505172.653  
     -1858.730       -1448.398          41.000          42.000  
 109692232.413 7  85474524.279 7  20873739.041                    20873753.418  
     -1838.461       -1432.391          45.000          43.000  
 127930313.295 6  99686085.191 3  24344337.734    24344360.413                  
     -2288.234       -1782.996          36.000          18.000  
 107495678.722 8  83762934.452 7  20455749.108                    20455765.842  
        46.805          36.277          48.000          45.000  
 127058561.787 5  99006746.551 6  24178442.938                    24178462.534  
     -3376.500       -2630.660          34.000          38.000  
 115184164.657 7  89753981.718 6  21918817.920                    21918835.508  
      2800.750        2182.566          46.000          40.000  
 24  1 10  3 21  3.8000000  0  8G08G24G18G23G16G10G15G32
 128610606.189 5 100216141.028 5  24473797.339                    24473817.877  
      2810.398        2189.762          35.000          35.000  
 127995519.908 6  99736861.089 6  24356738.523                    24356759.437  
       218.871         170.867          39.000          40.000  
 113010541.223 6  88060226.050 7  21505192.892                    21505208.020  
     -1858.590       -1448.227          41.000          42.000  
 109692416.218 7  85474667.485 7  20873774.018                    20873788.390  
     -1838.211       -1432.207          45.000          43.000  
 127930542.041 6  99686263.434 3  24344381.161    24344403.981                  
     -2287.855       -1782.562          36.000          18.000  
 107495674.035 8  83762930.785 7  20455748.356                    20455764.384  
        46.867          36.633          48.000          45.000  
 127058899.391 5  99007009.665 6  24178507.431                    24178526.508  
     -3376.176       -2631.105          34.000          38.000  
 115183884.581 7  89753763.508 6  21918763.905                    21918782.078  
      2801.055        2182.703          46.000          40.000  
 24  1 10  3 21  3.9000000  0  8G08G24G18G23G16G10G15G32
 128610325.151 5 100215922.010 5  24473743.859                    24473764.390  
      2810.684        2190.227          34.000          35.000  
 127995498.030 6  99736844.031 6  24356734.359                    24356755.272  
       218.805         170.875          39.000          40.000  
 113010726.977 6  88060370.737 7  21505228.239                    21505243.354  
     -1858.328       -1447.664          40.000          42.000  
 109692599.997 7  85474810.688 7  20873808.990                    20873823.362  
     -1837.945       -1432.074          45.000          43.000  
 127930770.863 6  99686441.734 3  24344424.705    24344447.524                  
     -2288.066       -1782.918          36.000          18.000  
 107495669.304 8  83762927.080 7  20455747.456                    20455763.479  
        47.141          37.051          48.000          45.000  
 127059237.001 5  99007272.720 6  24178571.677                    24178590.748  
     -3376.058       -2630.508          34.000          38.000  
 115183604.421 7  89753545.178 6  21918710.592                    21918728.759  
      2801.250        2182.871          46.000          40.000  
 24  1 10  3 21  4.0000000  0  8G08G24G18G23G16G10G15G32
 128610044.078 5 100215702.974 5  24473690.826                    24473711.251  
      2810.551        2190.070          35.000          35.000  
 127995476.109 6  99736826.916 6  24356730.063                    24356751.827  
       219.051         170.707          38.000          40.000  
 113010912.786 6  88060515.519 7  21505263.121                    21505278.578  
     -1858.074       -1447.801          41.000          42.000  
 109692783.771 7  85474953.921 7  20873844.195                    20873858.560  
     -1837.777       -1432.094          45.000          43.000  
 127930999.672 6  99686620.021 3  24344467.964    24344491.040                  
     -2287.859       -1782.516          36.000          19.000  
 107495664.542 8  83762923.388 7  20455746.339                    20455761.976  
        47.418          36.918          48.000          44.000  
 127059574.607 5  99007535.802 6  24178635.991                    24178654.785  
     -3376.254       -2630.562          34.000          38.000  
 115183324.285 7  89753326.936 6  21918656.956                    21918675.775  
      2801.270        2182.594          45.000          41.000  
 24  1 10  3 21  4.1000000  0  8G08G24G18G23G16G10G15G32
 128609763.061 5 100215484.035 5  24473637.350                    24473657.784  
      2810.496        2189.758          35.000          35.000  
 127995454.104 6  99736809.833 6  24356725.875                    24356747.655  
       219.773         170.914          37.000          40.000  
 113011098.571 6  88060660.305 7  21505298.475                    21505313.937  
     -1857.949       -1447.715          41.000          42.000  
 109692967.506 7  85475097.071 7  20873879.159                    20873893.518  
     -1837.539       -1431.606          45.000          43.000  
 127931228.464 6  99686798.309 3  24344511.502    24344534.580                  
     -2288.078       -1783.039          36.000          18.000  
 107495659.797 7  83762919.704 7  20455745.436                    20455761.076  
        47.445          37.125          47.000          44.000  
 127059912.180 5  99007798.797 6  24178700.229                    24178719.011  
     -3375.742       -2630.238          34.000          38.000  
 115183044.138 7  89753108.658 6  21918603.646                    21918622.469  
      2801.457        2182.832          45.000          41.000  
 24  1 10  3 21  4.2000000  0  8G08G24G18G23G16G10G15G32
 128609481.988 5 100215264.983 5  24473584.028                    24473604.242  
      2810.633        2189.957          35.000          35.000  
 127995432.135 6  99736792.755 6  24356721.312                    24356743.773  
       219.395         170.859          36.000          40.000  
 113011284.316 6  88060805.055 7  21505334.266                    21505348.887  
     -1857.941       -1447.773          41.000          42.000  
 109693151.295 7  85475240.276 7  20873914.047                    20873928.678  
     -1837.680       -1431.977          45.000          43.000  
 127931457.275 5  99686976.606 3  24344554.723    24344578.137                  
     -2287.945       -1782.781          35.000          18.000  
 107495655.088 7  83762916.032 7  20455743.962                    20455760.359  
        47.238          36.719          47.000          44.000  
 127060249.726 5  99008061.838 6  24178764.626                    24178783.217  
     -3375.801       -2630.383          35.000          38.000  
 115182764.037 7  89752890.411 7  21918550.048                    21918569.999  
      2801.285        2182.660          45.000          42.000  
 24  1 10  3 21  4.3000000  0  8G08G24G18G23G16G10G15G32
 128609200.999 5 100215046.034 5  24473530.558                    24473550.773  
      2810.191        2189.848          34.000          35.000  
 127995410.224 6  99736775.676 6  24356717.142                    24356739.602  
       219.547         170.848          36.000          41.000  
 113011470.210 6  88060949.896 7  21505369.641                    21505384.259  
     -1858.195       -1448.113          41.000          42.000  
 109693335.102 7  85475383.518 7  20873949.024                    20873963.659  
     -1838.027       -1432.434          45.000          43.000  
 127931686.131 6  99687154.935 3  24344598.273    24344621.687                  
     -2288.348       -1783.328          36.000          18.000  
 107495650.401 7  83762912.369 7  20455743.070                    20455759.464  
        46.992          36.477          47.000          44.000  
 127060587.375 5  99008324.957 6  24178828.879                    24178847.473  
     -3375.980       -2631.020          35.000          38.000  
 115182483.943 7  89752672.149 7  21918496.748                    21918516.698  
      2800.992        2182.492          45.000          42.000  
 24  1 10  3 21  4.4000000  0  8G08G24G18G23G16G10G15G32
 128608919.987 5 100214827.067 5  24473477.208                    24473497.595  
      2810.148        2189.375          34.000          35.000  
 127995388.248 6  99736758.625 6  24356712.937                    24356735.462  
       219.445         170.375          37.000          40.000  
 113011656.016 6  88061094.685 7  21505404.936                    21505420.009  
     -1858.352       -1448.453          41.000          42.000  
 109693518.915 7  85475526.738 7  20873983.847                    20873998.260  
     -1838.109       -1432.285          45.000          43.000  
 127931914.964 6  99687333.244 3  24344641.951    24344665.255                  
     -2288.344       -1783.176          36.000          18.000  
 107495645.733 7  83762908.742 7  20455742.291                    20455758.266  
        46.844          36.383          47.000          44.000  
 127060924.997 5  99008588.021 6  24178893.517                    24178911.841  
     -3376.195       -2630.609          35.000          38.000  
 115182203.837 7  89752453.879 7  21918443.789                    21918463.597  
      2800.902        2182.301          46.000          42.000  
 24  1 10  3 21  4.5000000  0  8G08G24G18G23G16G10G15G32
 128608638.984 5 100214608.102 5  24473423.735                    24473444.122  
      2810.180        2189.551          34.000          35.000  
 127995366.399 6  99736741.566 6  24356708.780                    24356731.296  
       218.957         170.684          38.000          40.000  
 113011841.904 6  88061239.543 7  21505440.309                    21505455.385  
     -1858.465       -1448.238          41.000          42.000  
 109693702.766 7  85475669.996 7  20874018.832                    20874033.245  
     -1838.293       -1432.566          45.000          44.000  
 127932143.839 6  99687511.585 3  24344685.504    24344708.808                  
     -2288.461       -1783.215          36.000          18.000  
 107495641.105 7  83762905.116 7  20455741.410                    20455757.381  
        46.473          36.180          47.000          44.000  
 127061262.595 6  99008851.061 6  24178957.759                    24178976.078  
     -3376.199       -2630.574          36.000          38.000  
 115181923.828 7  89752235.702 7  21918390.505                    21918410.316  
      2800.559        2182.191          46.000          42.000  
 24  1 10  3 21  4.6000000  0  8G08G24G18G23G16G10G15G32
 128608358.038 5 100214389.176 5  24473370.054                    24473390.970  
      2809.676        2189.254          35.000          35.000  
 127995344.566 6  99736724.497 6  24356705.195                    24356726.698  
       218.617         170.758          39.000          40.000  
 113012027.847 6  88061384.398 6  21505475.521                    21505490.759  
     -1859.172       -1448.531          41.000          41.000  
 109693886.608 7  85475813.268 7  20874053.980                    20874068.249  
     -1838.395       -1432.785          45.000          44.000  
 127932372.775 6  99687689.970 3  24344729.171    24344752.317                  
     -2288.965       -1783.797          36.000          18.000  
 107495636.473 8  83762901.518 7  20455740.826                    20455756.768  
        46.379          35.867          48.000          44.000  
 127061600.217 5  99009114.194 6  24179022.061                    24179040.158  
     -3376.152       -2631.184          35.000          38.000  
 115181643.789 7  89752017.477 7  21918337.489                    21918356.859  
      2800.375        2181.836          46.000          42.000  
 24  1 10  3 21  4.7000000  0  8G08G24G18G23G16G10G15G32
 128608077.054 5 100214170.228 5  24473316.584                    24473337.501  
      2809.969        2189.363          35.000          35.000  
 127995322.703 6  99736707.482 6  24356701.035                    24356722.542  
       218.723         170.160          39.000          39.000  
 113012213.758 6  88061529.237 6  21505510.899                    21505526.131  
     -1858.895       -1448.676          40.000          41.000  
 109694070.516 7  85475956.585 7  20874088.977                    20874103.249  
     -1838.730       -1432.816          45.000          44.000  
 127932601.648 6  99687868.311 3  24344772.724    24344795.869                  
     -2288.773       -1783.367          36.000          18.000  
 107495631.875 8  83762897.951 7  20455739.951                    20455755.897  
        46.172          35.848          48.000          44.000  
 127061937.858 5  99009377.305 6  24179086.312                    24179104.413  
     -3376.270       -2630.898          34.000          38.000  
 115181363.782 7  89751799.290 7  21918284.205                    21918303.576  
      2800.410        2182.223          46.000          42.000  
 24  1 10  3 21  4.8000000  0  8G08G24G18G23G16G10G15G32
 128607796.083 5 100213951.289 5  24473262.898                    24473283.581  
      2809.586        2189.664          35.000          35.000  
 127995300.822 6  99736690.456 6  24356697.238                    24356717.861  
       218.785         169.930          39.000          39.000  
 113012399.658 6  88061674.132 7  21505545.923                    21505561.000  
     -1858.973       -1448.742          40.000          42.000  
 109694254.392 7  85476099.832 7  20874124.280                    20874138.294  
     -1838.887       -1432.852          45.000          44.000  
 127932830.552 6  99688046.674 3  24344815.783    24344839.451                  
     -2288.980       -1783.703          36.000          18.000  
 107495627.310 8  83762894.390 7  20455739.152                    20455755.043  
        45.848          35.586          48.000          44.000  
 127062275.535 5  99009640.386 6  24179150.461                    24179168.550  
     -3376.558       -2630.914          34.000          38.000  
 115181083.797 7  89751581.108 7  21918231.004                    21918250.332  
      2799.855        2181.574          46.000          42.000  
 24  1 10  3 21  4.9000000  0  8G08G24G18G23G16G10G15G32
 128607515.168 5 100213732.326 5  24473209.442                    24473230.108  
      2809.324        2189.688          35.000          35.000  
 127995278.936 6  99736673.420 6  24356693.073                    24356713.701  
       218.691         170.336          40.000          38.000  
 113012585.570 6  88061819.038 7  21505581.301                    21505596.387  
     -1859.125       -1448.938          41.000          42.000  
 109694438.284 7  85476243.128 7  20874159.273                    20874173.288  
     -1838.785       -1432.871          45.000          44.000  
 127933059.459 5  99688225.052 3  24344859.343    24344883.013                  
     -2288.902       -1783.547          35.000          18.000  
 107495622.746 8  83762890.820 7  20455738.284                    20455754.171  
        45.797          35.625          48.000          44.000  
 127062613.120 5  99009903.453 6  24179214.701                    24179232.794  
     -3376.125       -2630.793          34.000          38.000  
 115180803.820 7  89751362.941 6  21918177.726                    21918197.054  
      2799.973        2181.723          46.000          41.000  
 24  1 10  3 21  5.0000000  0  8G08G24G18G23G16G10G15G32
 128607234.185 5 100213513.473 5  24473155.738                    24473176.357  
      2809.656        2188.895          35.000          35.000  
 127995257.070 6  99736656.434 6  24356689.022                    24356708.974  
       218.734         169.879          40.000          38.000  
 113012771.512 6  88061963.870 7  21505617.114                    21505632.398  
     -1859.418       -1448.508          41.000          42.000  
 109694622.217 7  85476386.452 7  20874194.220                    20874208.484  
     -1838.969       -1433.047          45.000          44.000  
 127933288.375 5  99688403.438 3  24344902.334    24344926.592                  
     -2289.043       -1783.785          35.000          18.000  
 107495618.189 7  83762887.281 7  20455737.261                    20455753.205  
        45.590          35.348          47.000          44.000  
 127062950.813 5  99010166.595 6  24179278.899                    24179296.767  
     -3376.578       -2631.230          34.000          38.000  
 115180523.833 7  89751144.794 6  21918124.368                    21918143.241  
      2799.758        2181.602          46.000          41.000  
 24  1 10  3 21  5.1000000  0  8G08G24G18G23G16G10G15G32
 128606953.284 5 100213294.539 5  24473102.285                    24473122.891  
      2809.324        2189.227          35.000          35.000  
 127995235.180 6  99736639.427 6  24356684.856                    24356704.821  
       218.840         170.180          40.000          38.000  
 113012957.443 6  88062108.782 7  21505652.496                    21505667.787  
     -1859.168       -1448.922          41.000          42.000  
 109694806.108 7  85476529.755 7  20874229.213                    20874243.481  
     -1839.086       -1433.020          45.000          44.000  
 127933517.286 5  99688581.808 3  24344945.894    24344970.152                  
     -2289.137       -1783.828          35.000          18.000  
 107495613.626 7  83762883.724 7  20455736.392                    20455752.336  
        45.680          35.598          47.000          44.000  
 127063288.440 5  99010429.711 6  24179343.148                    24179361.023  
     -3376.539       -2631.121          34.000          38.000  
 115180243.864 7  89750926.641 6  21918071.092                    21918089.966  
      2799.785        2181.543          46.000          41.000  
 24  1 10  3 21  5.2000000  0  8G08G24G18G23G16G10G15G32
 128606672.299 5 100213075.591 5  24473048.643                    24473069.703  
      2809.645        2189.496          35.000          35.000  
 127995213.343 6  99736622.372 6  24356680.912                    24356700.148  
       218.477         170.449          39.000          38.000  
 113013143.360 7  88062253.687 7  21505688.203                    21505703.572  
     -1859.105       -1448.856          42.000          42.000  
 109694990.005 7  85476673.013 7  20874263.762                    20874278.520  
     -1838.992       -1432.758          45.000          43.000  
 127933746.219 6  99688760.191 2  24344989.701    24345013.730                  
     -2289.184       -1783.781          36.000          17.000  
 107495609.066 7  83762880.171 7  20455735.650                    20455752.156  
        45.641          35.602          47.000          44.000  
 127063626.141 5  99010692.800 6  24179406.894                    24179425.123  
     -3376.660       -2630.996          34.000          38.000  
 115179963.847 7  89750708.459 6  21918018.314                    21918036.847  
      2800.008        2181.438          46.000          41.000  
 24  1 10  3 21  5.3000000  0  8G08G24G18G23G16G10G15G32
 128606391.372 5 100212856.671 5  24472995.185                    24473016.240  
      2809.309        2189.125          35.000          35.000  
 127995191.499 6  99736605.285 6  24356676.755                    24356695.975  
       218.594         170.781          39.000          38.000  
 113013329.277 7  88062398.481 7  21505723.581                    21505738.932  
     -1859.383       -1448.270          42.000          42.000  
 109695173.884 7  85476816.334 7  20874298.753                    20874313.521  
     -1838.809       -1433.000          45.000          43.000  
 127933975.070 6  99688938.518 2  24345033.250    24345057.280                  
     -2288.789       -1783.273          36.000          17.000  
 107495604.468 7  83762876.580 7  20455734.774                    20455751.279  
        45.840          35.730          47.000          44.000  
 127063963.771 5  99010955.911 6  24179471.143                    24179489.378  
     -3376.598       -2631.102          33.000          38.000  
 115179683.837 7  89750490.319 6  21917965.030                    21917983.575  
      2800.262        2182.027          46.000          41.000  
 24  1 10  3 21  5.4000000  0  8G08G24G18G23G16G10G15G32
 128606110.422 5 100212637.789 5  24472941.761                    24472962.944  
      2809.383        2189.102          35.000          35.000  
 127995169.596 6  99736588.233 6  24356672.290                    24356692.421  
       218.812         170.543          38.000          38.000  
 113013515.197 7  88062543.385 6  21505759.297                    21505774.249  
     -1859.172       -1448.945          42.000          41.000  
 109695357.781 7  85476959.629 7  20874333.545                    20874348.320  
     -1838.914       -1432.840          45.000          43.000  
 127934203.941 5  99689116.856 2  24345076.685    24345100.824                  
     -2288.957       -1783.758          35.000          17.000  
 107495599.889 7  83762873.017 7  20455733.981                    20455750.144  
        45.891          35.879          47.000          44.000  
 127064301.406 5  99011219.008 6  24179535.541                    24179554.535  
     -3376.379       -2631.043          33.000          38.000  
 115179403.841 7  89750272.095 6  21917912.210                    21917930.127  
      2800.020        2182.016          46.000          41.000  
 24  1 10  3 21  5.5000000  0  8G08G24G18G23G16G10G15G32
 128605829.513 5 100212418.871 5  24472888.305                    24472909.482  
      2809.395        2189.141          35.000          35.000  
 127995147.783 6  99736571.229 6  24356668.139                    24356688.268  
       218.457         170.129          37.000          38.000  
 113013701.053 7  88062688.224 6  21505794.664                    21505809.620  
     -1859.109       -1448.688          42.000          41.000  
 109695541.621 7  85477102.873 7  20874368.528                    20874383.301  
     -1838.656       -1432.691          45.000          43.000  
 127934432.902 5  99689295.265 2  24345120.255    24345144.393                  
     -2288.977       -1783.488          35.000          17.000  
 107495595.290 7  83762869.457 7  20455733.106                    20455749.274  
        45.922          35.754          47.000          44.000  
 127064639.068 5  99011482.150 6  24179599.796                    24179618.797  
     -3376.668       -2631.266          33.000          38.000  
 115179123.784 7  89750053.839 6  21917858.916                    21917876.826  
      2800.277        2182.398          46.000          41.000  
 24  1 10  3 21  5.6000000  0  8G08G24G18G23G16G10G15G32
 128605548.549 5 100212199.984 5  24472834.957                    24472855.933  
      2809.398        2189.133          35.000          35.000  
 127995125.860 5  99736554.191 6  24356663.452                    24356684.185  
       218.797         170.324          35.000          39.000  
 113013886.918 7  88062833.073 7  21505829.978                    21505844.783  
     -1857.910       -1447.852          42.000          42.000  
 109695725.463 7  85477246.139 7  20874403.489                    20874418.632  
     -1838.285       -1432.324          45.000          44.000  
 127934661.725 5  99689473.562 2  24345163.673    24345187.958                  
     -2288.465       -1783.180          35.000          17.000  
 107495590.631 7  83762865.808 7  20455732.009                    20455747.977  
        46.633          36.207          47.000          44.000  
 127064976.693 5  99011745.239 6  24179664.029                    24179682.913  
     -3376.043       -2631.129          33.000          38.000  
 115178843.708 7  89749835.605 6  21917805.292                    21917823.641  
      2800.910        2182.418          46.000          41.000  
 24  1 10  3 21  5.7000000  0  8G08G24G18G23G16G10G15G32
 128605267.625 5 100211981.052 5  24472781.499                    24472802.468  
      2809.355        2189.297          35.000          35.000  
 127995104.070 5  99736537.158 6  24356659.305                    24356680.026  
       218.250         170.379          34.000          39.000  
 113014072.728 7  88062977.829 7  21505865.337                    21505880.134  
     -1858.371       -1448.012          42.000          42.000  
 109695909.236 7  85477389.325 7  20874438.459                    20874453.599  
     -1837.801       -1432.180          45.000          44.000  
 127934890.602 6  99689651.909 2  24345207.227    24345231.513                  
     -2288.867       -1783.539          36.000          17.000  
 107495585.951 7  83762862.141 7  20455731.118                    20455747.081  
        46.805          36.680          47.000          44.000  
 127065314.390 5  99012008.334 6  24179728.290                    24179747.163  
     -3376.766       -2630.762          33.000          38.000  
 115178563.619 7  89749617.369 6  21917751.992                    21917770.345  
      2801.062        2182.680          46.000          41.000  
 24  1 10  3 21  5.8000000  0  8G08G24G18G23G16G10G15G32
 128604986.644 5 100211762.121 5  24472727.694                    24472749.386  
      2809.512        2189.133          35.000          35.000  
 127995082.170 5  99736520.131 6  24356654.091                    24356675.680  
       218.641         170.176          33.000          39.000  
 113014258.606 7  88063122.678 6  21505900.982                    21505915.335  
     -1858.539       -1448.074          42.000          41.000  
 109696093.056 7  85477532.573 7  20874473.752                    20874488.465  
     -1838.062       -1432.281          45.000          43.000  
 127935119.463 6  99689830.246 2  24345250.833    24345275.064                  
     -2288.699       -1783.387          36.000          17.000  
 107495581.279 7  83762858.500 7  20455730.330                    20455746.270  
        46.746          36.543          47.000          44.000  
 127065651.991 5  99012271.392 6  24179792.330                    24179811.022  
     -3376.379       -2630.832          33.000          38.000  
 115178283.513 7  89749399.057 6  21917698.721                    21917717.539  
      2800.820        2182.730          46.000          41.000  
 24  1 10  3 21  5.9000000  0  8G08G24G18G23G16G10G15G32
 128604705.755 5 100211543.173 5  24472674.243                    24472695.916  
      2809.320        2189.559          35.000          35.000  
 127995060.355 5  99736503.105 6  24356649.940                    24356671.522  
       218.426         170.277          35.000          39.000  
 113014444.402 6  88063267.431 6  21505936.337                    21505950.686  
     -1858.469       -1448.086          41.000          41.000  
 109696276.848 7  85477675.796 7  20874508.726                    20874523.441  
     -1838.047       -1432.055          45.000          43.000  
 127935348.317 6  99690008.577 2  24345294.382    24345318.615                  
     -2288.613       -1783.352          36.000          17.000  
 107495576.594 8  83762854.865 7  20455729.439                    20455745.382  
        46.785          36.496          48.000          44.000  
 127065989.634 5  99012534.520 6  24179856.582                    24179875.280  
     -3376.461       -2631.152          33.000          38.000  
 115178003.454 7  89749180.869 6  21917645.428                    21917664.255  
      2800.902        2182.090          46.000          41.000  
 24  1 10  3 21  6.0000000  0  8G08G24G18G23G16G10G15G32
 128604424.790 5 100211324.300 5  24472620.800                    24472642.387  
      2809.383        2188.883          35.000          35.000  
 127995038.613 6  99736486.143 6  24356645.388                    24356667.692  
       218.027         169.816          36.000          39.000  
 113014630.209 6  88063412.274 6  21505970.492                    21505986.027  
     -1858.246       -1448.109          40.000          41.000  
 109696460.633 7  85477818.972 7  20874543.715                    20874558.196  
     -1837.988       -1432.000          45.000          44.000  
 127935577.244 5  99690186.969 2  24345338.039    24345362.172                  
     -2288.953       -1783.785          35.000          17.000  
 107495571.915 8  83762851.213 7  20455728.744                    20455744.631  
        46.715          36.320          48.000          44.000  
 127066327.317 5  99012797.638 6  24179921.044                    24179939.451  
     -3376.524       -2631.246          33.000          38.000  
 115177723.373 7  89748962.615 6  21917591.435                    21917611.073  
      2800.672        2182.676          46.000          41.000  
 24  1 10  3 21  6.1000000  0  8G08G24G18G23G16G10G15G32
 128604143.810 5 100211105.396 5  24472567.331                    24472588.928  
      2809.734        2189.227          35.000          35.000  
 127995016.725 6  99736469.070 6  24356641.223                    24356663.523  
       218.441         170.742          36.000          39.000  
 113014816.097 6  88063557.064 6  21506005.865                    21506021.386  
     -1858.320       -1447.910          40.000          41.000  
 109696644.417 7  85477962.172 7  20874578.688                    20874593.166  
     -1837.855       -1431.961          45.000          44.000  
 127935806.100 5  99690365.286 2  24345381.589    24345405.719                  
     -2288.809       -1783.410          35.000          17.000  
 107495567.224 8  83762847.537 7  20455727.851                    20455743.733  
        46.848          36.699          48.000          44.000  
 127066664.861 5  99013060.652 6  24179985.276                    24180003.682  
     -3376.039       -2630.234          33.000          38.000  
 115177443.270 7  89748744.331 6  21917538.133                    21917557.765  
      2800.926        2182.621          46.000          41.000  
 24  1 10  3 21  6.2000000  0  8G08G24G18G23G16G10G15G32
 128603862.874 5 100210886.389 5  24472514.191                    24472535.468  
      2809.523        2189.500          35.000          35.000  
 127994994.871 5  99736451.999 6  24356636.971                    24356659.307  
       218.531         170.520          35.000          38.000  
 113015001.962 6  88063701.882 6  21506040.633                    21506056.189  
     -1858.707       -1448.356          40.000          41.000  
 109696828.232 7  85478105.436 7  20874613.706                    20874628.098  
     -1837.965       -1432.402          45.000          44.000  
 127936034.999 6  99690543.634 2  24345425.311    24345449.234                  
     -2289.020       -1783.691          36.000          17.000  
 107495562.558 8  83762843.908 7  20455727.096                    20455742.972  
        46.754          36.352          48.000          45.000  
 127067002.567 5  99013323.746 6  24180049.930                    24180067.744  
     -3376.539       -2631.004          34.000          38.000  
 115177163.269 7  89748526.160 6  21917485.148                    21917503.955  
      2800.371        2181.754          46.000          41.000  
 24  1 10  3 21  6.3000000  0  8G08G24G18G23G16G10G15G32
 128603581.938 5 100210667.487 5  24472460.731                    24472482.010  
      2809.359        2189.273          35.000          35.000  
 127994972.925 5  99736435.027 6  24356632.794                    24356655.162  
       219.043         170.113          33.000          38.000  
 113015187.819 6  88063846.712 6  21506076.000                    21506091.558  
     -1858.781       -1448.848          40.000          41.000  
 109697012.078 7  85478248.676 7  20874648.690                    20874663.079  
     -1838.395       -1432.641          45.000          44.000  
 127936263.950 6  99690722.033 2  24345468.879    24345492.801                  
     -2289.066       -1783.633          36.000          17.000  
 107495557.950 8  83762840.325 7  20455726.219                    20455742.097  
        46.328          35.812          48.000          45.000  
 127067340.157 5  99013586.882 6  24180114.172                    24180132.005  
     -3376.340       -2631.168          34.000          38.000  
 115176883.294 7  89748308.015 6  21917431.870                    21917450.681  
      2799.820        2181.438          46.000          41.000  
 24  1 10  3 21  6.4000000  0  8G08G24G18G23G16G10G15G32
 128603300.967 6 100210448.586 5  24472407.467                    24472428.201  
      2809.523        2189.117          36.000          35.000  
 127994951.138 5  99736417.977 6  24356628.188                    24356650.334  
       218.273         170.098          33.000          37.000  
 113015373.777 6  88063991.683 7  21506111.504                    21506127.266  
     -1859.012       -1448.934          40.000          42.000  
 109697195.894 7  85478391.891 7  20874683.498                    20874698.194  
     -1838.219       -1432.191          45.000          44.000  
 127936492.871 6  99690900.413 2  24345512.567    24345536.316                  
     -2289.258       -1783.930          36.000          17.000  
 107495553.298 8  83762836.695 7  20455725.068                    20455741.406  
        46.324          36.160          48.000          45.000  
 127067677.842 5  99013849.978 6  24180178.032                    24180196.583  
     -3376.512       -2631.000          34.000          38.000  
 115176603.339 7  89748089.844 6  21917378.714                    21917397.316  
      2799.801        2181.465          46.000          41.000  
 24  1 10  3 21  6.5000000  0  8G08G24G18G23G16G10G15G32
 128603019.967 6 100210229.610 5  24472353.995                    24472374.725  
      2809.805        2189.781          36.000          35.000  
 127994929.417 5  99736401.021 6  24356624.054                    24356646.194  
       217.895         169.680          34.000          37.000  
 113015559.730 6  88064136.542 6  21506146.890                    21506162.642  
     -1859.156       -1448.383          40.000          41.000  
 109697379.695 7  85478535.139 7  20874718.474                    20874733.177  
     -1837.984       -1432.309          45.000          44.000  
 127936721.810 5  99691078.800 2  24345556.132    24345579.880                  
     -2289.352       -1783.984          35.000          17.000  
 107495548.667 8  83762833.100 7  20455724.187                    20455740.528  
        46.406          36.102          48.000          45.000  
 127068015.372 5  99014113.062 6  24180242.262                    24180260.831  
     -3375.824       -2630.785          34.000          38.000  
 115176323.401 7  89747871.752 6  21917325.443                    21917344.055  
      2799.594        2181.281          45.000          41.000  
 24  1 10  3 21  6.6000000  0  8G08G24G18G23G16G10G15G32
 128602738.957 6 100210010.655 5  24472300.903                    24472321.144  
      2809.992        2189.449          36.000          35.000  
 127994907.637 5  99736384.039 6  24356620.003                    24356642.023  
       217.945         169.617          34.000          37.000  
 113015745.687 6  88064281.374 6  21506182.409                    21506198.059  
     -1859.402       -1448.621          40.000          41.000  
 109697563.489 7  85478678.346 7  20874753.691                    20874768.493  
     -1838.059       -1432.156          45.000          44.000  
 127936950.782 6  99691257.214 2  24345600.024    24345623.490                  
     -2289.574       -1784.227          36.000          17.000  
 107495544.000 8  83762829.459 7  20455723.283                    20455739.436  
        46.570          36.355          48.000          45.000  
 127068353.043 5  99014376.128 6  24180306.136                    24180325.192  
     -3376.316       -2630.699          34.000          38.000  
 115176043.460 7  89747653.582 6  21917271.586                    21917291.026  
      2799.449        2181.332          45.000          41.000  
 24  1 10  3 21  6.7000000  0  8G08G24G18G23G16G10G15G32
 128602457.952 6 100209791.679 5  24472247.430                    24472267.668  
      2810.035        2189.941          36.000          35.000  
 127994885.824 5  99736367.022 6  24356615.853                    24356637.867  
       217.938         170.258          35.000          38.000  
 113015931.557 7  88064426.279 7  21506217.779                    21506233.446  
     -1859.117       -1449.191          42.000          42.000  
 109697747.271 7  85478821.552 7  20874788.663                    20874803.466  
     -1837.996       -1432.246          45.000          43.000  
 127937179.682 6  99691435.569 2  24345643.583    24345667.046                  
     -2289.230       -1783.633          36.000          17.000  
 107495539.354 8  83762825.828 7  20455722.399                    20455738.549  
        46.488          36.297          48.000          45.000  
 127068690.660 5  99014639.217 6  24180370.382                    24180389.441  
     -3376.242       -2630.977          33.000          38.000  
 115175763.526 7  89747435.476 6  21917218.317                    21917237.763  
      2799.344        2181.359          46.000          41.000  
 24  1 10  3 21  6.8000000  0  8G08G24G18G23G16G10G15G32
 128602176.884 5 100209572.657 5  24472193.577                    24472214.298  
      2810.477        2189.832          35.000          35.000  
 127994864.018 6  99736350.028 6  24356611.992                    24356633.952  
       217.992         169.902          36.000          38.000  
 113016117.462 6  88064571.148 7  21506253.843                    21506269.106  
     -1858.945       -1448.520          41.000          42.000  
 109697931.040 7  85478964.766 7  20874823.579                    20874837.752  
     -1837.703       -1431.871          45.000          43.000  
 127937408.531 5  99691613.883 2  24345687.108    24345710.694                  
     -2288.734       -1783.039          35.000          17.000  
 107495534.650 8  83762822.181 7  20455721.418                    20455737.588  
        46.855          36.562          48.000          45.000  
 127069028.178 5  99014902.216 6  24180434.469                    24180453.723  
     -3375.672       -2630.004          33.000          38.000  
 115175483.579 7  89747217.327 6  21917164.998                    21917184.481  
      2799.574        2181.648          45.000          41.000  
 24  1 10  3 21  6.9000000  0  8G08G24G18G23G16G10G15G32
 128601895.796 5 100209353.658 5  24472140.088                    24472160.816  
      2810.504        2190.359          35.000          35.000  
 127994842.246 6  99736333.054 6  24356607.849                    24356629.806  
       217.895         169.656          36.000          39.000  
 113016303.399 6  88064716.056 7  21506289.225                    21506304.494  
     -1859.156       -1448.695          41.000          42.000  
 109698114.769 7  85479107.932 7  20874858.541                    20874872.715  
     -1837.453       -1431.824          45.000          44.000  
 127937637.437 5  99691792.257 3  24345730.667    24345754.254                  
     -2288.887       -1783.543          34.000          18.000  
 107495529.943 8  83762818.508 7  20455720.523                    20455736.691  
        47.035          36.781          48.000          44.000  
 127069365.788 5  99015165.293 6  24180498.714                    24180517.969  
     -3376.058       -2630.652          33.000          38.000  
 115175203.609 7  89746999.165 6  21917111.721                    21917131.203  
      2799.641        2181.285          45.000          41.000  
 24  1 10  3 21  7.0000000  0  8G08G24G18G23G16G10G15G32
 128601614.802 5 100209134.691 5  24472086.733                    24472107.029  
      2810.180        2189.387          35.000          34.000  
 127994820.442 6  99736316.116 6  24356603.692                    24356626.209  
       217.957         169.328          36.000          40.000  
 113016489.302 6  88064860.869 7  21506324.438                    21506339.835  
     -1859.363       -1448.727          41.000          42.000  
 109698298.559 7  85479251.160 7  20874893.461                    20874908.154  
     -1837.664       -1431.949          45.000          44.000  
 127937866.318 5  99691970.614 3  24345773.573    24345797.717                  
     -2288.891       -1783.625          34.000          18.000  
 107495525.245 8  83762814.839 7  20455719.629                    20455735.576  
        46.938          36.680          48.000          44.000  
 127069703.396 5  99015428.350 6  24180562.975                    24180582.561  
     -3375.953       -2630.547          34.000          38.000  
 115174923.688 7  89746781.081 6  21917058.759                    21917077.960  
      2799.398        2181.008          46.000          41.000  
 24  1 10  3 21  7.1000000  0  8G08G24G18G23G16G10G15G32
 128601333.781 5 100208915.705 5  24472033.257                    24472053.551  
      2810.277        2189.969          35.000          35.000  
 127994798.693 6  99736299.202 6  24356599.553                    24356622.078  
       217.480         169.273          36.000          40.000  
 113016675.226 6  88065005.788 7  21506359.818                    21506375.226  
     -1859.137       -1448.969          40.000          42.000  
 109698482.345 7  85479394.374 7  20874928.434                    20874943.128  
     -1837.848       -1432.219          45.000          44.000  
 127938095.253 5  99692149.007 3  24345817.138    24345841.283                  
     -2289.266       -1784.102          35.000          18.000  
 107495520.547 8  83762811.192 7  20455718.735                    20455734.686  
        46.941          36.500          48.000          45.000  
 127070041.016 5  99015691.440 6  24180627.222                    24180646.811  
     -3376.098       -2630.965          34.000          38.000  
 115174643.759 7  89746562.950 6  21917005.490                    21917024.691  
      2799.285        2181.230          46.000          41.000  
 24  1 10  3 21  7.2000000  0  8G08G24G18G23G16G10G15G32
 128601052.755 5 100208696.705 5  24471979.709                    24472000.264  
      2810.141        2190.008          35.000          35.000  
 127994777.081 6  99736282.291 6  24356595.456                    24356618.792  
       216.980         169.102          36.000          40.000  
 113016861.225 6  88065150.738 7  21506395.072                    21506410.765  
     -1859.352       -1449.098          40.000          42.000  
 109698666.127 7  85479537.561 7  20874963.399                    20874978.166  
     -1837.852       -1432.195          45.000          44.000  
 127938324.229 5  99692327.427 3  24345860.875    24345884.823                  
     -2289.348       -1783.918          35.000          18.000  
 107495515.871 7  83762807.563 7  20455718.040                    20455733.971  
        46.801          36.281          47.000          45.000  
 127070378.678 5  99015954.571 6  24180691.398                    24180711.133  
     -3376.524       -2631.129          34.000          38.000  
 115174363.856 7  89746344.815 6  21916952.476                    21916971.584  
      2799.098        2181.340          46.000          41.000  
 24  1 10  3 21  7.3000000  0  8G08G24G18G23G16G10G15G32
 128600771.759 5 100208477.812 5  24471926.237                    24471946.808  
      2810.141        2189.301          35.000          34.000  
 127994755.377 5  99736265.391 6  24356591.326                    24356614.665  
       216.945         169.004          35.000          40.000  
 113017047.214 6  88065295.634 7  21506430.464                    21506446.150  
     -1859.988       -1449.336          40.000          42.000  
 109698849.975 7  85479680.792 7  20874998.384                    20875013.144  
     -1838.234       -1432.383          45.000          44.000  
 127938553.130 5  99692505.802 3  24345904.433    24345928.384                  
     -2289.211       -1783.836          35.000          18.000  
 107495511.227 7  83762803.929 7  20455717.156                    20455733.084  
        46.648          36.359          47.000          45.000  
 127070716.415 5  99016217.669 6  24180755.668                    24180775.384  
     -3376.953       -2630.934          34.000          38.000  
 115174083.939 7  89746126.665 6  21916899.209                    21916918.309  
      2799.215        2181.086          46.000          41.000  
 24  1 10  3 21  7.4000000  0  8G08G24G18G23G16G10G15G32
 128600490.800 5 100208258.830 5  24471872.976                    24471893.612  
      2809.777        2189.375          34.000          34.000  
 127994733.482 5  99736248.484 6  24356586.894                    24356610.575  
       218.105         169.117          34.000          40.000  
 113017233.210 6  88065440.506 7  21506465.850                    21506481.920  
     -1860.027       -1449.102          41.000          42.000  
 109699033.796 7  85479824.066 7  20875033.754                    20875048.141  
     -1838.141       -1432.645          45.000          44.000  
 127938782.028 5  99692684.175 2  24345948.476    24345972.031                  
     -2289.129       -1783.836          35.000          17.000  
 107495506.599 7  83762800.321 7  20455716.416                    20455732.015  
        46.453          36.137          47.000          45.000  
 127071053.984 5  99016480.788 6  24180820.257                    24180839.640  
     -3376.414       -2631.105          33.000          38.000  
 115173804.032 7  89745908.624 6  21916845.687                    21916864.944  
      2799.301        2181.066          46.000          41.000  
 24  1 10  3 21  7.5000000  0  8G08G24G18G23G16G10G15G32
 128600209.776 5 100208039.864 5  24471819.499                    24471840.138  
      2810.137        2189.578          34.000          34.000  
 127994711.931 5  99736231.569 6  24356582.793                    24356606.445  
       216.648         169.062          33.000          40.000  
 113017419.209 6  88065585.475 7  21506501.245                    21506517.323  
     -1860.004       -1449.500          41.000          42.000  
 109699217.643 7  85479967.322 7  20875068.739                    20875083.126  
     -1838.320       -1432.559          45.000          44.000  
 127939010.942 5  99692862.545 3  24345992.036    24346015.591                  
     -2289.285       -1783.996          35.000          18.000  
 107495501.950 7  83762796.718 7  20455715.532                    20455731.135  
        46.473          36.020          47.000          45.000  
 127071391.694 5  99016743.918 6  24180884.521                    24180903.899  
     -3376.695       -2631.312          34.000          38.000  
 115173524.149 7  89745690.491 6  21916792.427                    21916811.674  
      2798.953        2181.207          46.000          41.000  
 24  1 10  3 21  7.6000000  0  8G08G24G18G23G16G10G15G32
 128599928.793 5 100207820.971 5  24471765.733                    24471786.479  
      2809.824        2189.152          34.000          34.000  
 127994690.154 5  99736214.656 6  24356578.063                    24356602.275  
       217.312         169.121          33.000          39.000  
 113017605.161 6  88065730.402 7  21506537.349                    21506552.669  
     -1859.746       -1449.227          41.000          42.000  
 109699401.484 7  85480110.595 7  20875103.879                    20875118.404  
     -1838.488       -1432.578          45.000          44.000  
 127939239.874 5  99693040.926 3  24346036.187    24346059.192                  
     -2289.320       -1783.957          35.000          18.000  
 107495497.335 7  83762793.099 7  20455714.239                    20455730.275  
        46.254          35.949          47.000          45.000  
 127071729.438 5  99017007.083 6  24180949.330                    24180968.026  
     -3376.789       -2631.367          34.000          38.000  
 115173244.221 7  89745472.370 6  21916739.182                    21916758.516  
      2798.961        2180.926          46.000          41.000  
 24  1 10  3 21  7.7000000  0  8G08G24G18G23G16G10G15G32
 128599647.847 5 100207601.985 5  24471712.270                    24471733.000  
      2809.762        2189.586          34.000          34.000  
 127994668.548 5  99736197.673 6  24356573.952                    24356598.128  
       216.582         169.887          34.000          39.000  
 113017791.140 6  88065875.295 7  21506572.739                    21506588.053  
     -1859.684       -1448.918          41.000          42.000  
 109699585.317 7  85480253.810 7  20875138.862                    20875153.378  
     -1838.324       -1432.281          45.000          43.000  
 127939468.737 5  99693219.258 2  24346079.738    24346102.743                  
     -2288.758       -1783.086          35.000          17.000  
 107495492.696 8  83762789.493 7  20455713.357                    20455729.394  
        46.383          36.176          48.000          45.000  
 127072067.027 5  99017270.142 6  24181013.571                    24181032.268  
     -3376.629       -2631.027          34.000          38.000  
 115172964.316 7  89745254.257 6  21916685.918                    21916705.251  
      2799.145        2181.270          46.000          41.000  
 24  1 10  3 21  7.8000000  0  8G08G24G18G23G16G10G15G32
 128599366.912 5 100207383.146 5  24471658.474                    24471679.300  
      2809.328        2188.883          35.000          34.000  
 127994646.859 6  99736180.780 6  24356569.762                    24356593.260  
       216.859         168.953          36.000          39.000  
 113017977.232 6  88066020.287 7  21506608.089                    21506622.938  
     -1860.648       -1449.543          41.000          42.000  
 109699769.191 7  85480397.088 7  20875173.672                    20875188.235  
     -1838.496       -1432.832          45.000          44.000  
 127939697.711 5  99693397.672 2  24346123.505    24346146.360                  
     -2289.695       -1784.141          35.000          17.000  
 107495488.125 7  83762785.923 7  20455712.362                    20455728.530  
        45.797          35.887          47.000          44.000  
 127072404.749 5  99017533.265 6  24181077.939                    24181096.259  
     -3377.234       -2631.293          34.000          38.000  
 115172684.426 7  89745036.168 6  21916632.821                    21916651.671  
      2798.988        2181.004          46.000          41.000  
 24  1 10  3 21  7.9000000  0  8G08G24G18G23G16G10G15G32
 128599085.953 5 100207164.192 5  24471605.010                    24471625.829  
      2809.316        2189.426          34.000          34.000  
 127994625.179 6  99736163.891 6  24356565.636                    24356589.136  
       217.145         169.176          36.000          39.000  
 113018163.198 6  88066165.187 7  21506643.477                    21506658.324  
     -1860.012       -1449.500          41.000          42.000  
 109699953.070 7  85480540.395 7  20875208.663                    20875223.232  
     -1839.039       -1433.004          45.000          44.000  
 127939926.741 6  99693576.146 2  24346167.088    24346189.945                  
     -2289.941       -1784.441          36.000          17.000  
 107495483.537 7  83762782.365 7  20455711.489                    20455727.661  
        45.812          35.520          47.000          44.000  
 127072742.407 5  99017796.444 6  24181142.193                    24181160.531  
     -3376.812       -2631.512          34.000          38.000  
 115172404.536 7  89744818.091 6  21916579.559                    21916598.414  
      2798.762        2180.797          46.000          41.000  
 24  1 10  3 21  8.0000000  0  8G08G24G18G23G16G10G15G32
 128598805.055 5 100206945.279 5  24471551.299                    24471572.564  
      2809.281        2189.188          35.000          34.000  
 127994603.363 6  99736146.958 6  24356561.516                    24356585.149  
       217.441         169.312          38.000          39.000  
 113018349.153 6  88066310.136 7  21506679.152                    21506693.269  
     -1859.707       -1449.309          41.000          42.000  
 109700136.893 7  85480683.621 7  20875243.729                    20875257.827  
     -1838.422       -1432.176          45.000          44.000  
 127940155.653 6  99693754.527 2  24346210.586    24346233.492                  
     -2289.340       -1783.812          36.000          17.000  
 107495478.911 7  83762778.748 7  20455710.523                    20455726.521  
        46.117          35.910          47.000          44.000  
 127073080.127 5  99018059.553 6  24181206.248                    24181224.644  
     -3376.840       -2631.066          34.000          38.000  
 115172124.623 7  89744599.979 6  21916526.747                    21916545.172  
      2799.117        2181.293          46.000          41.000  
 24  1 10  3 21  8.1000000  0  8G08G24G18G23G16G10G15G32
 128598524.076 5 100206726.367 5  24471497.830                    24471519.103  
      2809.520        2188.816          35.000          34.000  
 127994581.694 6  99736130.063 6  24356557.393                    24356581.023  
       216.984         168.902          40.000          39.000  
 113018535.121 6  88066455.027 7  21506714.541                    21506728.653  
     -1859.625       -1449.000          41.000          42.000  
 109700320.769 7  85480826.869 7  20875278.720                    20875292.809  
     -1838.496       -1432.621          45.000          44.000  
 127940384.607 6  99693932.929 2  24346254.155    24346277.060                  
     -2289.539       -1784.078          36.000          17.000  
 107495474.328 8  83762775.178 7  20455709.650                    20455725.649  
        45.996          35.934          48.000          44.000  
 127073417.826 5  99018322.664 6  24181270.510                    24181288.898  
     -3376.926       -2631.266          33.000          38.000  
 115171844.717 7  89744381.831 6  21916473.483                    21916491.898  
      2799.020        2180.859          46.000          41.000  
 24  1 10  3 21  8.2000000  0  8G08G24G18G23G16G10G15G32
 128598243.204 5 100206507.474 5  24471444.382                    24471465.827  
      2809.125        2188.906          35.000          34.000  
 127994560.042 6  99736113.196 6  24356554.366                    24356577.419  
       216.801         168.664          40.000          40.000  
 113018721.150 6  88066600.001 7  21506749.269                    21506764.174  
     -1860.160       -1449.684          40.000          42.000  
 109700504.645 7  85480970.176 7  20875313.702                    20875327.924  
     -1838.680       -1432.848          45.000          44.000  
 127940613.573 6  99694111.331 2  24346297.476    24346320.588                  
     -2289.633       -1784.145          36.000          17.000  
 107495469.754 8  83762771.614 7  20455709.085                    20455725.020  
        45.836          35.566          48.000          44.000  
 127073755.514 5  99018585.826 6  24181335.083                    24181352.657  
     -3377.098       -2631.609          34.000          38.000  
 115171564.869 7  89744163.818 6  21916420.190                    21916438.876  
      2798.941        2180.773          46.000          41.000  
 24  1 10  3 21  8.3000000  0  8G08G24G18G23G16G10G15G32
 128597962.267 5 100206288.574 5  24471390.921                    24471412.369  
      2809.215        2189.008          35.000          34.000  
 127994538.387 6  99736096.337 6  24356550.245                    24356573.302  
       216.777         168.770          40.000          40.000  
 113018907.174 6  88066744.949 7  21506784.668                    21506799.572  
     -1860.102       -1449.465          40.000          42.000  
 109700688.549 7  85481113.431 7  20875348.698                    20875362.908  
     -1838.961       -1432.902          46.000          43.000  
 127940842.556 5  99694289.755 3  24346341.050    24346364.161                  
     -2289.730       -1784.207          35.000          18.000  
 107495465.213 8  83762768.069 7  20455708.220                    20455724.155  
        45.578          35.461          48.000          44.000  
 127074093.211 5  99018848.984 6  24181399.344                    24181416.923  
     -3376.992       -2631.523          34.000          38.000  
 115171284.984 7  89743945.675 6  21916366.930                    21916385.604  
      2798.645        2180.941          46.000          41.000  
 24  1 10  3 21  8.4000000  0  8G08G24G18G23G16G10G15G32
 128597681.398 6 100206069.748 5  24471337.536                    24471358.687  
      2808.879        2188.551          36.000          34.000  
 127994516.767 6  99736079.483 6  24356547.569                    24356569.624  
       216.191         168.418          39.000          40.000  
 113019093.333 6  88066889.993 7  21506819.968                    21506835.649  
     -1861.758       -1450.477          41.000          42.000  
 109700872.538 7  85481256.821 7  20875383.874                    20875397.644  
     -1839.766       -1433.672          46.000          43.000  
 127941071.491 5  99694468.142 2  24346384.177    24346407.741                  
     -2289.762       -1784.188          35.000          17.000  
 107495460.721 8  83762764.562 7  20455707.538                    20455723.447  
        44.906          35.059          48.000          44.000  
 127074430.962 5  99019112.185 6  24181464.007                    24181481.731  
     -3377.324       -2632.012          34.000          38.000  
 115171005.179 7  89743727.660 6  21916313.067                    21916332.448  
      2798.051        2180.367          46.000          41.000  
 24  1 10  3 21  8.5000000  0  8G08G24G18G23G16G10G15G32
 128597400.478 6 100205850.842 5  24471284.079                    24471305.228  
      2809.227        2188.770          36.000          34.000  
 127994495.171 6  99736062.659 6  24356543.459                    24356565.515  
       216.125         168.312          39.000          40.000  
 113019279.424 6  88067034.992 7  21506855.380                    21506871.059  
     -1861.254       -1450.527          41.000          42.000  
 109701056.482 7  85481400.159 7  20875418.878                    20875432.648  
     -1839.641       -1433.543          45.000          43.000  
 127941300.495 5  99694646.576 2  24346427.755    24346451.316                  
     -2289.691       -1784.082          35.000          17.000  
 107495456.225 8  83762761.068 7  20455706.682                    20455722.593  
        44.910          34.973          48.000          44.000  
 127074768.753 5  99019375.356 6  24181528.286                    24181546.000  
     -3377.695       -2631.816          34.000          38.000  
 115170725.388 7  89743509.641 6  21916259.825                    21916279.205  
      2797.980        2180.238          45.000          41.000  
 24  1 10  3 21  8.6000000  0  8G08G24G18G23G16G10G15G32
 128597119.624 6 100205631.986 5  24471230.720                    24471251.610  
      2808.852        2188.492          36.000          34.000  
 127994473.532 6  99736045.803 6  24356539.209                    24356561.188  
       216.172         168.359          38.000          40.000  
 113019465.577 6  88067180.016 7  21506890.952                    21506906.570  
     -1861.277       -1450.375          41.000          42.000  
 109701240.460 7  85481543.539 7  20875453.536                    20875467.202  
     -1839.535       -1433.758          45.000          43.000  
 127941529.466 5  99694824.985 3  24346471.139    24346494.909                  
     -2289.805       -1784.242          35.000          18.000  
 107495451.772 8  83762757.592 7  20455705.756                    20455721.643  
        44.820          34.695          48.000          44.000  
 127075106.523 5  99019638.575 6  24181592.546                    24181610.070  
     -3377.606       -2632.215          34.000          38.000  
 115170445.597 7  89743291.602 6  21916206.114                    21916225.778  
      2797.844        2180.137          45.000          41.000  
 24  1 10  3 21  8.7000000  0  8G08G24G18G23G16G10G15G32
 128596838.657 6 100205413.045 5  24471177.254                    24471198.142  
      2809.223        2189.273          36.000          34.000  
 127994451.958 6  99736028.964 6  24356535.103                    24356557.076  
       216.062         168.445          38.000          40.000  
 113019651.772 6  88067325.162 7  21506926.384                    21506942.016  
     -1861.125       -1450.387          41.000          42.000  
 109701424.456 7  85481686.936 7  20875488.549                    20875502.222  
     -1839.785       -1433.723          45.000          43.000  
 127941758.441 5  99695003.401 2  24346514.712    24346538.480                  
     -2289.652       -1783.977          35.000          17.000  
 107495447.302 8  83762754.093 7  20455704.906                    20455720.789  
        44.746          34.938          48.000          44.000  
 127075444.272 5  99019901.752 6  24181656.818                    24181674.340  
     -3377.418       -2631.730          34.000          38.000  
 115170165.832 7  89743073.638 6  21916152.876                    21916172.549  
      2797.906        2179.938          45.000          41.000  
 24  1 10  3 21  8.8000000  0  8G08G24G18G23G16G10G15G32
 128596557.771 6 100205194.173 5  24471123.538                    24471144.941  
      2809.031        2188.449          36.000          34.000  
 127994430.376 6  99736012.156 6  24356530.895                    24356552.627  
       215.789         168.117          37.000          40.000  
 113019837.937 6  88067470.190 7  21506962.037                    21506977.738  
     -1861.727       -1450.922          41.000          42.000  
 109701608.476 7  85481830.266 7  20875523.372                    20875537.982  
     -1840.062       -1433.606          45.000          44.000  
 127941987.450 5  99695181.840 2  24346558.142    24346582.064                  
     -2289.898       -1784.355          35.000          17.000  
 107495442.854 8  83762750.643 7  20455704.278                    20455720.110  
        44.566          34.469          48.000          44.000  
 127075781.979 5  99020164.915 6  24181721.581                    24181738.584  
     -3377.426       -2631.844          35.000          38.000  
 115169886.110 7  89742855.662 6  21916099.928                    21916119.372  
      2797.527        2179.805          46.000          41.000  
 24  1 10  3 21  8.9000000  0  8G08G24G18G23G16G10G15G32
 128596276.860 5 100204975.290 5  24471070.082                    24471091.488  
      2809.090        2189.066          35.000          34.000  
 127994408.886 6  99735995.376 6  24356526.805                    24356548.529  
       215.344         167.926          36.000          40.000  
 113020024.088 6  88067615.234 7  21506997.460                    21507013.159  
     -1861.746       -1450.621          41.000          42.000  
 109701792.485 7  85481973.628 7  20875558.387                    20875572.992  
     -1839.992       -1433.828          45.000          43.000  
 127942216.433 5  99695360.279 2  24346601.716    24346625.641                  
     -2289.906       -1784.441          35.000          17.000  
 107495438.415 8  83762747.197 7  20455703.434                    20455719.268  
        44.449          34.590          48.000          44.000  
 127076119.778 5  99020428.130 6  24181785.862                    24181802.864  
     -3377.711       -2632.250          35.000          38.000  
 115169606.346 7  89742637.657 6  21916046.691                    21916066.133  
      2797.355        2179.758          46.000          41.000  
 24  1 10  3 21  9.0000000  0  8G08G24G18G23G16G10G15G32
 128595995.913 6 100204756.392 5  24471016.729                    24471038.116  
      2809.215        2189.090          36.000          34.000  
 127994387.340 6  99735978.555 6  24356522.213                    24356544.968  
       215.543         168.160          36.000          41.000  
 113020210.277 7  88067760.369 7  21507033.461                    21507048.587  
     -1861.551       -1450.926          42.000          42.000  
 109701976.514 7  85482117.085 7  20875593.399                    20875607.440  
     -1840.137       -1434.070          45.000          43.000  
 127942445.377 5  99695538.687 3  24346644.947    24346669.233                  
     -2289.801       -1784.402          35.000          18.000  
 107495433.989 8  83762743.736 7  20455702.302                    20455718.283  
        44.426          34.531          48.000          44.000  
 127076457.539 5  99020691.277 6  24181849.949                    24181866.986  
     -3377.531       -2631.473          35.000          38.000  
 115169326.642 7  89742419.722 6  21915993.739                    21916012.598  
      2797.371        2179.477          46.000          41.000  
 24  1 10  3 21  9.1000000  0  8G08G24G18G23G16G10G15G32
 128595714.990 5 100204537.479 5  24470963.271                    24470984.656  
      2809.219        2188.988          35.000          34.000  
 127994365.756 6  99735961.802 6  24356518.106                    24356540.877  
       215.613         167.547          36.000          41.000  
 113020396.447 7  88067905.412 7  21507068.888                    21507084.008  
     -1861.941       -1450.836          42.000          42.000  
 109702160.513 7  85482260.437 7  20875628.413                    20875642.448  
     -1840.086       -1433.797          45.000          43.000  
 127942674.409 5  99695717.146 3  24346688.530    24346712.815                  
     -2289.867       -1784.227          35.000          18.000  
 107495429.540 8  83762740.260 7  20455701.456                    20455717.434  
        44.406          34.695          48.000          44.000  
 127076795.267 5  99020954.501 6  24181914.216                    24181931.268  
     -3377.492       -2632.008          35.000          38.000  
 115169046.950 7  89742201.778 6  21915940.515                    21915959.374  
      2797.184        2179.578          46.000          41.000  
 24  1 10  3 21  9.2000000  0  8G08G24G18G23G16G10G15G32
 128595434.079 5 100204318.545 5  24470909.776                    24470930.698  
      2809.328        2189.488          35.000          34.000  
 127994344.176 6  99735945.027 6  24356513.929                    24356537.281  
       215.680         167.797          38.000          41.000  
 113020582.662 7  88068050.500 7  21507105.128                    21507119.393  
     -1861.879       -1450.664          43.000          42.000  
 109702344.468 7  85482403.801 7  20875663.215                    20875677.373  
     -1839.781       -1433.512          45.000          43.000  
 127942903.348 5  99695895.527 3  24346732.010    24346756.409                  
     -2289.676       -1784.016          35.000          18.000  
 107495425.047 8  83762736.790 7  20455700.710                    20455716.493  
        44.734          34.805          48.000          44.000  
 127077133.042 5  99021217.677 6  24181978.531                    24181995.616  
     -3377.438       -2631.688          35.000          38.000  
 115168767.178 7  89741983.769 6  21915887.440                    21915906.173  
      2797.344        2179.875          46.000          41.000  
 24  1 10  3 21  9.3000000  0  8G08G24G18G23G16G10G15G32
 128595153.062 5 100204099.612 5  24470856.301                    24470877.232  
      2809.676        2189.258          35.000          34.000  
 127994322.564 6  99735928.206 6  24356509.816                    24356533.173  
       215.957         168.117          38.000          40.000  
 113020768.843 7  88068195.597 7  21507140.557                    21507154.827  
     -1861.695       -1450.750          43.000          42.000  
 109702528.435 7  85482547.129 7  20875698.223                    20875712.375  
     -1839.711       -1433.398          45.000          43.000  
 127943132.246 5  99696073.883 3  24346775.568    24346799.965                  
     -2289.352       -1783.684          35.000          18.000  
 107495420.566 8  83762733.268 7  20455699.857                    20455715.632  
        44.871          35.070          48.000          44.000  
 127077470.740 5  99021480.807 6  24182042.793                    24182059.875  
     -3377.258       -2631.414          34.000          38.000  
 115168487.431 7  89741765.798 6  21915834.206                    21915852.943  
      2797.590        2180.086          46.000          41.000  
 24  1 10  3 21  9.4000000  0  8G08G24G18G23G16G10G15G32
 128594872.158 5 100203880.670 5  24470803.315                    24470824.428  
      2809.270        2189.188          35.000          34.000  
 127994301.082 6  99735911.404 6  24356505.986                    24356528.718  
       215.281         168.094          37.000          40.000  
 113020955.044 7  88068340.672 7  21507176.060                    21507189.795  
     -1862.133       -1450.984          42.000          42.000  
 109702712.435 7  85482690.510 7  20875733.409                    20875747.281  
     -1839.836       -1433.852          45.000          43.000  
 127943361.243 5  99696252.310 3  24346819.020    24346843.578                  
     -2289.641       -1784.102          35.000          18.000  
 107495416.103 8  83762729.808 7  20455699.211                    20455714.639  
        44.695          34.734          48.000          44.000  
 127077808.513 5  99021744.015 6  24182106.960                    24182124.396  
     -3377.520       -2632.078          33.000          38.000  
 115168207.729 7  89741547.824 6  21915781.137                    21915799.664  
      2797.301        2179.434          46.000          41.000  
 24  1 10  3 21  9.5000000  0  8G08G24G18G23G16G10G15G32
 128594591.256 5 100203661.811 5  24470749.861                    24470770.980  
      2809.324        2188.809          35.000          34.000  
 127994279.657 6  99735894.627 6  24356501.909                    24356524.621  
       214.938         167.980          36.000          40.000  
 113021141.213 7  88068485.734 7  21507211.487                    21507225.221  
     -1861.738       -1450.637          42.000          42.000  
 109702896.407 7  85482833.910 7  20875768.418                    20875782.301  
     -1839.789       -1433.731          45.000          43.000  
 127943590.173 5  99696430.707 2  24346862.583    24346887.144                  
     -2289.617       -1784.297          35.000          17.000  
 107495411.646 8  83762726.345 7  20455698.363                    20455713.793  
        44.648          34.758          48.000          44.000  
 127078146.236 5  99022007.233 6  24182171.227                    24182188.676  
     -3377.223       -2631.898          34.000          38.000  
 115167927.993 7  89741329.881 6  21915727.905                    21915746.441  
      2797.316        2179.691          46.000          41.000  
 24  1 10  3 21  9.6000000  0  8G08G24G18G23G16G10G15G32
 128594310.284 5 100203442.874 5  24470696.339                    24470717.787  
      2809.398        2189.508          35.000          34.000  
 127994258.50835  99735877.773 6  24356497.720                    24356520.138  
       216.031         168.445          34.000          40.000  
 113021327.337 6  88068630.801 7  21507246.452                    21507260.507  
     -1861.613       -1450.645          41.000          42.000  
 109703080.361 7  85482977.227 7  20875803.517                    20875817.207  
     -1839.746       -1433.481          45.000          43.000  
 127943819.177 5  99696609.163 2  24346906.685    24346930.756                  
     -2289.758       -1784.418          35.000          17.000  
 107495407.141 7  83762722.816 7  20455697.295                    20455712.783  
        44.828          35.160          47.000          44.000  
 127078483.970 5  99022270.355 6  24182235.362                    24182252.824  
     -3377.418       -2631.383          34.000          38.000  
 115167648.214 7  89741111.860 6  21915674.430                    21915693.221  
      2797.465        2179.965          46.000          41.000  
 24  1 10  3 21  9.7000000  0  8G08G24G18G23G16G10G15G32
 128594029.352 5 100203223.969 5  24470642.880                    24470664.328  
      2809.223        2188.977          35.000          34.000  
 127994236.78025  99735861.003 6  24356493.586                    24356516.042  
       216.543         167.836          32.000          39.000  
 113021513.510 7  88068775.886 7  21507281.880                    21507295.938  
     -1861.375       -1450.422          42.000          42.000  
 109703264.339 7  85483120.591 7  20875838.526                    20875852.217  
     -1839.641       -1433.441          45.000          43.000  
 127944048.042 5  99696787.517 2  24346950.236    24346974.312                  
     -2289.270       -1783.871          35.000          17.000  
 107495402.636 7  83762719.331 7  20455696.438                    20455711.932  
        45.078          34.973          47.000          44.000  
 127078821.721 5  99022533.575 6  24182299.634                    24182317.105  
     -3377.465       -2631.934          34.000          39.000  
 115167368.434 7  89740893.847 6  21915621.190                    21915639.980  
      2797.699        2180.066          46.000          41.000  
 24  1 10  3 21  9.8000000  0  8G08G24G18G23G16G10G15G32
 128593748.403 5 100203005.051 5  24470589.269                    24470610.874  
      2809.500        2188.969          35.000          34.000  
 127994215.30025  99735844.179 6  24356488.592                    24356511.590  
       215.539         168.176          32.000          39.000  
 113021699.628 7  88068920.899 7  21507317.024                    21507331.727  
     -1861.312       -1450.066          42.000          42.000  
 109703448.258 7  85483263.887 7  20875873.244                    20875887.673  
     -1839.469       -1432.969          45.000          43.000  
 127944277.041 5  99696965.973 2  24346993.907    24347017.869                  
     -2289.555       -1784.238          35.000          17.000  
 107495398.101 7  83762715.787 7  20455695.512                    20455711.262  
        45.121          35.402          47.000          44.000  
 127079159.534 5  99022796.698 6  24182363.707                    24182381.862  
     -3377.558       -2631.359          34.000          39.000  
 115167088.640 7  89740675.806 6  21915567.666                    21915586.896  
      2797.883        2180.344          46.000          41.000  
 24  1 10  3 21  9.9000000  0  8G08G24G18G23G16G10G15G32
 128593467.438 5 100202786.129 5  24470535.803                    24470557.411  
      2809.551        2189.539          35.000          34.000  
 127994193.77925  99735827.398 6  24356484.497                    24356507.492  
       215.285         168.133          34.000          39.000  
 113021885.764 6  88069065.868 7  21507352.444                    21507367.130  
     -1861.320       -1450.188          41.000          42.000  
 109703632.189 7  85483407.194 7  20875908.245                    20875922.670  
     -1839.297       -1433.090          45.000          43.000  
 127944505.937 5  99697144.338 2  24347037.465    24347061.428                  
     -2289.258       -1783.824          35.000          17.000  
 107495393.570 7  83762712.252 7  20455694.650                    20455710.399  
        45.242          35.219          47.000          44.000  
 127079497.192 5  99023059.865 6  24182427.961                    24182446.131  
     -3377.051       -2631.715          34.000          39.000  
 115166808.835 7  89740457.817 6  21915514.420                    21915533.661  
      2798.105        2180.180          46.000          41.000  
 24  1 10  3 21 10.0000000  0  8G08G24G18G23G16G10G15G32
 128593186.529 5 100202567.241 5  24470482.121                    24470503.582  
      2809.168        2188.723          35.000          34.000  
 127994172.20425  99735810.604 6  24356480.422                    24356502.688  
       215.656         168.188          35.000          39.000  
 113022071.860 6  88069210.910 7  21507387.755                    21507402.206  
     -1861.301       -1450.473          41.000          42.000  
 109703816.118 7  85483550.525 7  20875943.386                    20875957.212  
     -1839.277       -1433.371          45.000          43.000  
 127944734.946 5  99697322.789 2  24347081.044    24347104.953                  
     -2289.617       -1784.266          35.000          17.000  
 107495389.070 7  83762708.758 7  20455693.840                    20455709.686  
        45.117          34.984          47.000          44.000  
 127079834.917 5  99023323.060 6  24182491.931                    24182510.593  
     -3377.367       -2631.863          34.000          39.000  
 115166529.034 7  89740239.788 6  21915461.286                    21915480.354  
      2797.961        2180.137          46.000          41.000  
 24  1 10  3 21 10.1000000  0  8G08G24G18G23G16G10G15G32
 128592905.673 5 100202348.373 5  24470428.676                    24470450.132  
      2808.977        2188.773          34.000          35.000  
 127994150.57626  99735793.747 6  24356476.307                    24356498.571  
       215.953         168.219          38.000          39.000  
 113022258.008 6  88069355.994 7  21507423.178                    21507437.638  
     -1861.082       -1450.188          41.000          42.000  
 109704000.047 7  85483693.871 7  20875978.386                    20875992.218  
     -1839.277       -1433.312          45.000          43.000  
 127944963.860 5  99697501.172 2  24347124.605    24347148.516                  
     -2289.516       -1784.148          35.000          17.000  
 107495384.569 7  83762705.245 7  20455692.984                    20455708.828  
        45.113          35.172          47.000          44.000  
 127080172.670 5  99023586.198 6  24182556.203                    24182574.854  
     -3377.398       -2631.426          34.000          38.000  
 115166249.222 7  89740021.758 6  21915408.039                    21915427.108  
      2798.133        2180.367          46.000          41.000  
 24  1 10  3 21 10.2000000  0  8G08G24G18G23G16G10G15G32
 128592624.762 5 100202129.460 5  24470375.564                    24470396.507  
      2809.105        2188.926          35.000          35.000  
 127994129.02226  99735776.932 6  24356472.557                    24356493.714  
       215.770         168.023          38.000          38.000  
 113022444.118 6  88069500.991 7  21507457.398                    21507473.360  
     -1861.289       -1450.445          40.000          42.000  
 109704183.997 7  85483837.216 7  20876013.547                    20876027.951  
     -1839.438       -1433.406          45.000          43.000  
 127945192.811 5  99697679.578 3  24347168.469    24347192.100                  
     -2289.508       -1784.121          35.000          18.000  
 107495380.088 7  83762701.743 7  20455691.975                    20455708.090  
        44.859          34.938          47.000          44.000  
 127080510.439 5  99023849.390 6  24182620.502                    24182639.292  
     -3377.492       -2631.996          35.000          38.000  
 115165969.409 7  89739803.685 6  21915354.746                    21915373.743  
      2797.992        2180.441          46.000          41.000  
 24  1 10  3 21 10.3000000  0  8G08G24G18G23G16G10G15G32
 128592343.848 5 100201910.630 5  24470322.108                    24470343.066  
      2809.016        2188.703          35.000          34.000  
 127994106.968 6  99735760.134 6  24356468.360                    24356489.612  
       215.559         167.973          38.000          38.000  
 113022630.266 6  88069646.026 7  21507492.821                    21507508.779  
     -1861.477       -1450.430          41.000          42.000  
 109704367.938 7  85483980.516 7  20876048.550                    20876062.947  
     -1839.516       -1433.410          45.000          43.000  
 127945421.816 6  99697858.027 3  24347212.048    24347235.679                  
     -2289.652       -1784.195          36.000          18.000  
 107495375.599 8  83762698.222 7  20455691.121                    20455707.230  
        44.789          34.949          48.000          44.000  
 127080848.173 5  99024112.588 6  24182684.771                    24182703.568  
     -3377.414       -2632.070          34.000          38.000  
 115165689.624 7  89739585.673 6  21915301.504                    21915320.503  
      2797.824        2180.125          46.000          41.000  
 24  1 10  3 21 10.4000000  0  8G08G24G18G23G16G10G15G32
 128592062.986 5 100201691.705 5  24470268.662                    24470289.407  
      2808.852        2188.809          35.000          35.000  
 127994085.402 6  99735743.252 6  24356464.772                    24356485.036  
       215.566         168.664          38.000          37.000  
 113022816.448 6  88069791.077 7  21507528.469                    21507544.452  
     -1861.332       -1450.324          41.000          42.000  
 109704551.932 7  85484123.925 7  20876083.672                    20876097.875  
     -1839.656       -1433.594          45.000          43.000  
 127945650.716 5  99698036.391 3  24347256.020    24347279.229                  
     -2289.262       -1783.660          35.000          18.000  
 107495371.133 8  83762694.763 7  20455690.482                    20455706.401  
        44.867          34.781          48.000          44.000  
 127081185.915 5  99024375.730 6  24182748.893                    24182767.416  
     -3377.504       -2631.512          34.000          38.000  
 115165409.840 7  89739367.676 6  21915248.263                    21915267.266  
      2797.973        2180.102          46.000          41.000  
 24  1 10  3 21 10.5000000  0  8G08G24G18G23G16G10G15G32
 128591782.123 6 100201472.918 5  24470215.215                    24470235.977  
      2808.742        2188.176          36.000          35.000  
 127994063.836 6  99735726.497 6  24356460.668                    24356480.945  
       215.707         167.641          38.000          37.000  
 113023002.571 7  88069936.126 7  21507563.887                    21507579.874  
     -1861.465       -1450.809          42.000          42.000  
 109704735.955 7  85484267.307 7  20876118.691                    20876132.890  
     -1839.965       -1433.781          45.000          44.000  
 127945879.770 5  99698214.877 3  24347299.607    24347322.818                  
     -2290.137       -1784.926          35.000          18.000  
 107495366.721 8  83762691.316 7  20455689.642                    20455705.559  
        44.352          34.355          48.000          44.000  
 127081523.714 5  99024638.968 6  24182813.174                    24182831.701  
     -3377.726       -2632.234          34.000          38.000  
 115165130.103 7  89739149.680 6  21915195.031                    21915214.029  
      2797.598        2179.797          46.000          41.000  
 24  1 10  3 21 10.6000000  0  8G08G24G18G23G16G10G15G32
 128591501.215 6 100201254.023 5  24470161.627                    24470182.255  
      2808.941        2188.383          36.000          35.000  
 127994042.299 6  99735709.764 6  24356456.827                    24356476.600  
       215.430         167.648          37.000          37.000  
 113023188.781 7  88070081.300 7  21507600.337                    21507615.335  
     -1861.645       -1450.992          43.000          42.000  
 109704919.962 7  85484410.656 7  20876153.480                    20876168.226  
     -1840.086       -1433.824          45.000          44.000  
 127946108.679 5  99698393.243 2  24347343.230    24347366.298                  
     -2289.391       -1783.637          35.000          17.000  
 107495362.304 8  83762687.887 7  20455688.864                    20455704.753  
        44.246          34.332          48.000          44.000  
 127081861.437 5  99024902.143 6  24182877.362                    24182895.401  
     -3377.453       -2632.043          35.000          38.000  
 115164850.354 7  89738931.713 6  21915142.093                    21915160.986  
      2797.520        2179.707          46.000          41.000  
 24  1 10  3 21 10.7000000  0  8G08G24G18G23G16G10G15G32
 128591220.419 6 100201035.181 5  24470108.193                    24470128.812  
      2808.484        2188.637          36.000          35.000  
 127994020.839 6  99735692.981 6  24356452.744                    24356472.502  
       215.172         167.551          37.000          37.000  
 113023374.982 7  88070226.334 7  21507635.770                    21507650.754  
     -1862.074       -1451.094          42.000          42.000  
 109705104.000 7  85484554.080 7  20876188.501                    20876203.251  
     -1840.234       -1434.066          45.000          44.000  
 127946337.623 5  99698571.634 2  24347386.796    24347409.863                  
     -2289.648       -1784.227          35.000          17.000  
 107495357.914 8  83762684.467 7  20455688.029                    20455703.918  
        44.125          34.254          48.000          44.000  
 127082199.249 5  99025165.364 6  24182941.646                    24182959.682  
     -3377.875       -2631.996          34.000          39.000  
 115164570.642 7  89738713.735 6  21915088.866                    21915107.754  
      2797.250        2179.758          46.000          41.000  
 24  1 10  3 21 10.8000000  0  8G08G24G18G23G16G10G15G32
 128590939.559 6 100200816.324 5  24470054.521                    24470075.685  
      2808.543        2188.566          36.000          35.000  
 127993999.239 6  99735676.277 6  24356447.899                    24356468.657  
       215.543         167.090          37.000          37.000  
 113023561.230 7  88070371.466 7  21507671.524                    21507685.821  
     -1862.293       -1451.453          42.000          42.000  
 109705288.057 7  85484697.495 7  20876223.432                    20876238.595  
     -1840.391       -1434.336          45.000          44.000  
 127946566.644 5  99698750.087 2  24347429.964    24347453.420                  
     -2289.820       -1784.266          35.000          17.000  
 107495353.541 8  83762681.063 7  20455687.220                    20455703.141  
        43.895          34.137          48.000          44.000  
 127082537.045 5  99025428.594 6  24183006.082                    24183023.981  
     -3377.902       -2632.270          34.000          39.000  
 115164290.948 7  89738495.821 6  21915035.548                    21915054.350  
      2797.152        2179.488          46.000          41.000  
 24  1 10  3 21 10.9000000  0  8G08G24G18G23G16G10G15G32
 128590658.692 6 100200597.479 5  24470001.074                    24470022.241  
      2808.590        2188.383          36.000          35.000  
 127993977.740 6  99735659.536 6  24356443.808                    24356464.569  
       215.344         167.699          37.000          37.000  
 113023747.463 7  88070516.564 7  21507706.963                    21507721.256  
     -1862.324       -1450.918          42.000          42.000  
 109705472.109 7  85484840.935 7  20876258.456                    20876273.624  
     -1840.422       -1434.199          45.000          44.000  
 127946795.660 5  99698928.545 2  24347473.544    24347497.001                  
     -2289.949       -1784.430          35.000          17.000  
 107495349.153 8  83762677.633 7  20455686.385                    20455702.304  
        43.895          34.129          48.000          44.000  
 127082874.805 5  99025691.766 6  24183070.356                    24183088.250  
     -3377.668       -2631.949          34.000          39.000  
 115164011.236 7  89738277.849 6  21914982.321                    21915001.119  
      2797.023        2179.488          46.000          41.000  
 24  1 10  3 21 11.0000000  0  8G08G24G18G23G16G10G15G32
 128590377.803 6 100200378.601 5  24469947.544                    24469969.093  
      2808.703        2188.344          36.000          35.000  
 127993956.188 6  99735642.766 6  24356439.347                    24356460.543  
       215.191         167.312          36.000          37.000  
 113023933.754 7  88070661.746 7  21507742.437                    21507756.648  
     -1862.555       -1451.672          42.000          42.000  
 109705656.183 7  85484984.347 7  20876293.281                    20876308.889  
     -1840.629       -1434.160          45.000          44.000  
 127947024.610 5  99699106.951 2  24347517.096    24347540.609                  
     -2289.715       -1784.137          35.000          17.000  
 107495344.790 8  83762674.239 7  20455685.469                    20455701.233  
        43.711          33.969          48.000          44.000  
 127083212.612 5  99025954.985 6  24183134.802                    24183153.211  
     -3378.024       -2632.219          34.000          38.000  
 115163731.565 7  89738059.930 6  21914928.695                    21914947.807  
      2796.902        2179.223          46.000          41.000  
 24  1 10  3 21 11.1000000  0  8G08G24G18G23G16G10G15G32
 128590096.963 6 100200159.797 5  24469894.102                    24469915.659  
      2808.633        2187.957          36.000          35.000  
 127993934.837 5  99735626.074 6  24356435.284                    24356456.467  
       214.250         167.008          34.000          37.000  
 113024120.028 7  88070806.901 7  21507777.884                    21507792.097  
     -1862.734       -1451.633          42.000          42.000  
 109705840.279 7  85485127.771 7  20876328.313                    20876343.915  
     -1840.863       -1434.531          45.000          44.000  
 127947253.640 6  99699285.410 2  24347560.679    24347584.190                  
     -2289.941       -1784.387          36.000          17.000  
 107495340.447 7  83762670.857 7  20455684.642                    20455700.407  
        43.582          33.820          47.000          44.000  
 127083550.453 5  99026218.258 6  24183199.091                    24183217.505  
     -3378.211       -2632.508          34.000          38.000  
 115163451.924 7  89737842.031 6  21914875.481                    21914894.594  
      2796.648        2178.996          46.000          41.000  
 24  1 10  3 21 11.2000000  0  8G08G24G18G23G16G10G15G32
 128589816.131 6 100199940.977 5  24469840.459                    24469862.244  
      2808.414        2188.148          36.000          35.000  
 127993913.510 5  99735609.369 6  24356430.796                    24356452.239  
       213.895         167.023          32.000          37.000  
 113024306.311 6  88070952.050 7  21507812.692                    21507827.465  
     -1862.895       -1451.754          41.000          42.000  
 109706024.388 7  85485271.286 7  20876363.012                    20876378.713  
     -1840.898       -1434.742          45.000          44.000  
 127947482.653 6  99699463.862 3  24347603.899    24347627.715                  
     -2290.152       -1784.664          36.000          18.000  
 107495336.125 8  83762667.495 7  20455683.546                    20455699.820  
        43.426          33.750          48.000          44.000  
 127083888.317 5  99026481.499 6  24183263.471                    24183282.010  
     -3378.320       -2632.539          34.000          38.000  
 115163172.304 7  89737624.155 6  21914822.388                    21914841.402  
      2796.449        2178.945          46.000          41.000  
 24  1 10  3 21 11.3000000  0  8G08G24G18G23G16G10G15G32
 128589535.302 6 100199722.104 5  24469787.019                    24469808.793  
      2808.391        2188.461          36.000          35.000  
 127993892.019 5  99735592.646 6  24356426.706                    24356448.155  
       214.449         167.332          33.000          38.000  
 113024492.609 6  88071097.187 7  21507848.143                    21507862.909  
     -1862.980       -1451.555          41.000          42.000  
 109706208.471 7  85485414.698 7  20876398.042                    20876413.735  
     -1840.949       -1434.258          45.000          44.000  
 127947711.710 6  99699642.342 3  24347647.487    24347671.302                  
     -2290.297       -1784.695          36.000          19.000  
 107495331.777 8  83762664.093 7  20455682.719                    20455698.989  
        43.348          33.848          48.000          44.000  
 127084226.121 5  99026744.750 6  24183327.753                    24183346.298  
     -3378.121       -2632.414          34.000          38.000  
 115162892.624 7  89737406.210 6  21914769.167                    21914788.177  
      2796.465        2179.023          46.000          41.000  
 24  1 10  3 21 11.4000000  0  8G08G24G18G23G16G10G15G32
 128589254.432 6 100199503.244 5  24469733.407                    24469755.283  
      2808.523        2188.496          36.000          35.000  
 127993870.538 5  99735575.942 6  24356422.947                    24356443.888  
       214.719         166.887          35.000          38.000  
 113024678.928 7  88071242.423 7  21507883.215                    21507898.534  
     -1862.672       -1451.766          42.000          42.000  
 109706392.571 7  85485558.168 7  20876433.317                    20876449.155  
     -1840.914       -1434.676          45.000          44.000  
 127947940.648 6  99699820.729 3  24347691.069    24347714.874                  
     -2289.914       -1784.234          36.000          19.000  
 107495327.434 8  83762660.707 7  20455682.221                    20455698.662  
        43.473          33.906          48.000          44.000  
 127084563.904 5  99027007.970 6  24183392.414                    24183410.321  
     -3378.219       -2632.172          34.000          39.000  
 115162613.003 7  89737188.338 6  21914716.230                    21914734.791  
      2796.504        2179.055          46.000          41.000  
 24  1 10  3 21 11.5000000  0  8G08G24G18G23G16G10G15G32
 128588973.558 5 100199284.420 5  24469679.958                    24469701.844  
      2808.676        2188.332          35.000          35.000  
 127993849.074 5  99735559.229 6  24356418.862                    24356439.807  
       214.516         167.391          35.000          37.000  
 113024865.241 6  88071387.586 7  21507918.669                    21507933.984  
     -1863.121       -1451.840          41.000          42.000  
 109706576.642 7  85485701.572 7  20876468.345                    20876484.176  
     -1840.824       -1434.121          45.000          44.000  
 127948169.685 6  99699999.191 3  24347734.653    24347758.456                  
     -2290.145       -1784.582          36.000          18.000  
 107495323.064 8  83762657.323 7  20455681.389                    20455697.836  
        43.621          33.961          48.000          44.000  
 127084901.798 5  99027271.227 6  24183456.713                    24183474.611  
     -3378.297       -2632.523          33.000          38.000  
 115162333.339 7  89736970.411 6  21914663.012                    21914681.571  
      2796.574        2179.266          46.000          41.000  
 24  1 10  3 21 11.6000000  0  8G08G24G18G23G16G10G15G32
 128588692.701 6 100199065.554 5  24469626.786                    24469648.332  
      2808.742        2188.508          36.000          35.000  
 127993827.687 5  99735542.546 6  24356415.214                    24356436.131  
       214.262         166.832          35.000          37.000  
 113025051.547 6  88071532.734 6  21507953.927                    21507968.884  
     -1863.020       -1451.270          40.000          41.000  
 109706760.701 7  85485845.015 7  20876503.753                    20876518.534  
     -1840.625       -1434.289          45.000          44.000  
 127948398.589 6  99700177.550 3  24347778.431    24347802.005                  
     -2289.539       -1783.762          36.000          18.000  
 107495318.676 8  83762653.888 7  20455680.781                    20455696.700  
        43.836          34.379          48.000          44.000  
 127085239.528 5  99027534.453 6  24183521.160                    24183538.691  
     -3377.805       -2632.422          34.000          38.000  
 115162053.673 7  89736752.474 6  21914609.895                    21914628.739  
      2796.730        2179.410          46.000          41.000  
 24  1 10  3 21 11.7000000  0  8G08G24G18G23G16G10G15G32
 128588411.822 5 100198846.684 5  24469573.337                    24469594.882  
      2808.609        2188.562          35.000          35.000  
 127993806.265 5  99735525.801 6  24356411.138                    24356432.042  
       214.289         167.430          35.000          37.000  
 113025237.825 6  88071677.863 6  21507989.375                    21508004.326  
     -1862.918       -1451.723          40.000          41.000  
 109706944.747 7  85485988.432 7  20876538.776                    20876553.558  
     -1840.492       -1434.156          45.000          43.000  
 127948627.562 6  99700355.974 3  24347822.003    24347845.578                  
     -2289.711       -1784.234          36.000          18.000  
 107495314.268 8  83762650.458 7  20455679.942                    20455695.862  
        43.887          34.301          48.000          44.000  
 127085577.361 5  99027797.629 6  24183585.448                    24183602.961  
     -3378.012       -2631.973          34.000          38.000  
 115161773.959 7  89736534.544 6  21914556.667                    21914575.519  
      2796.887        2179.266          46.000          41.000  
 24  1 10  3 21 11.8000000  0  8G08G24G18G23G16G10G15G32
 128588130.963 5 100198627.797 5  24469519.946                    24469541.490  
      2808.676        2188.883          35.000          35.000  
 127993784.824 5  99735509.102 6  24356407.191                    24356428.425  
       214.273         167.117          35.000          37.000  
 113025424.040 6  88071823.058 6  21508024.349                    21508039.667  
     -1862.480       -1451.633          41.000          41.000  
 109707128.812 7  85486131.862 7  20876573.693                    20876588.241  
     -1840.551       -1434.168          45.000          44.000  
 127948856.540 6  99700534.402 3  24347865.505    24347889.113                  
     -2289.742       -1784.270          36.000          19.000  
 107495309.885 8  83762647.032 7  20455679.014                    20455694.799  
        43.906          34.230          48.000          44.000  
 127085915.268 5  99028060.917 6  24183650.030                    24183666.970  
     -3378.676       -2632.516          34.000          38.000  
 115161494.294 7  89736316.612 6  21914503.503                    21914522.438  
      2796.738        2179.445          46.000          41.000  
 24  1 10  3 21 11.9000000  0  8G08G24G18G23G16G10G15G32
 128587850.059 5 100198408.968 5  24469466.491                    24469488.050  
      2808.723        2188.398          35.000          35.000  
 127993763.512 5  99735492.502 6  24356403.135                    24356424.371  
       213.664         166.227          35.000          36.000  
 113025610.316 7  88071968.177 7  21508059.796                    21508075.106  
     -1862.855       -1451.629          42.000          42.000  
 109707312.896 7  85486275.296 7  20876608.722                    20876623.269  
     -1840.766       -1434.473          45.000          44.000  
 127949085.505 6  99700712.812 3  24347909.076    24347932.682                  
     -2289.719       -1784.219          36.000          19.000  
 107495305.507 8  83762643.628 7  20455678.181                    20455693.968  
        43.754          34.027          48.000          44.000  
 127086253.085 5  99028324.165 6  24183714.315                    24183731.258  
     -3378.094       -2632.672          34.000          38.000  
 115161214.642 7  89736098.690 6  21914450.287                    21914469.219  
      2796.652        2179.184          46.000          41.000  
 24  1 10  3 21 12.0000000  0  8G08G24G18G23G16G10G15G32
 128587569.229 5 100198190.116 5  24469412.528                    24469434.143  
      2808.570        2188.668          35.000          35.000  
 127993742.061 5  99735475.830 6  24356399.327                    24356420.479  
       214.266         166.625          35.000          37.000  
 113025796.639 7  88072113.346 7  21508095.838                    21508110.628  
     -1862.871       -1451.500          42.000          42.000  
 109707496.951 7  85486418.715 7  20876643.661                    20876657.981  
     -1840.562       -1434.129          45.000          43.000  
 127949314.432 6  99700891.195 3  24347952.561    24347976.253                  
     -2289.527       -1784.000          36.000          19.000  
 107495301.119 8  83762640.202 7  20455677.315                    20455693.163  
        43.875          34.406          48.000          44.000  
 127086590.872 5  99028587.372 6  24183778.375                    24183795.403  
     -3378.168       -2632.082          34.000          38.000  
 115160934.937 7  89735880.752 6  21914396.952                    21914416.200  
      2796.645        2179.207          46.000          41.000  
 24  1 10  3 21 12.1000000  0  8G08G24G18G23G16G10G15G32
 128587288.332 6 100197971.231 5  24469359.075                    24469380.689  
      2808.719        2188.336          36.000          35.000  
 127993720.597 6  99735459.132 6  24356395.242                    24356416.401  
       214.289         166.859          37.000          38.000  
 113025982.980 7  88072258.517 7  21508131.298                    21508146.081  
     -1863.172       -1451.688          42.000          42.000  
 109707681.008 7  85486562.105 7  20876678.686                    20876692.998  
     -1840.605       -1434.125          45.000          43.000  
 127949543.385 5  99701069.601 3  24347996.129    24348019.822                  
     -2289.445       -1783.906          35.000          19.000  
 107495296.744 8  83762636.780 7  20455676.482                    20455692.327  
        43.824          34.168          48.000          44.000  
 127086928.650 5  99028850.669 6  24183842.652                    24183859.702  
     -3378.016       -2632.840          34.000          38.000  
 115160655.302 7  89735662.831 6  21914343.739                    21914362.981  
      2796.594        2179.465          46.000          41.000  
 24  1 10  3 21 12.2000000  0  8G08G24G18G23G16G10G15G32
 128587007.503 6 100197752.384 5  24469305.737                    24469327.018  
      2808.535        2188.609          36.000          35.000  
 127993699.175 6  99735442.478 6  24356391.564                    24356412.561  
       214.277         166.516          39.000          38.000  
 113026169.243 7  88072403.686 7  21508167.157                    21508182.118  
     -1862.961       -1451.836          42.000          42.000  
 109707865.074 7  85486705.581 7  20876713.525                    20876727.927  
     -1840.699       -1434.680          45.000          43.000  
 127949772.408 6  99701248.058 3  24348039.782    24348063.395                  
     -2289.848       -1784.418          36.000          19.000  
 107495292.357 8  83762633.378 7  20455675.421                    20455691.324  
        43.812          34.008          48.000          45.000  
 127087266.558 5  99029113.894 6  24183906.657                    24183924.195  
     -3378.648       -2632.238          34.000          38.000  
 115160375.649 7  89735444.942 6  21914290.609                    21914309.349  
      2796.660        2178.859          46.000          41.000  
 24  1 10  3 21 12.3000000  0  8G08G24G18G23G16G10G15G32
 128586726.621 5 100197533.545 5  24469252.287                    24469273.575  
      2808.809        2188.535          35.000          35.000  
 127993677.776 6  99735425.784 6  24356387.492                    24356408.484  
       214.250         167.000          39.000          39.000  
 113026355.529 7  88072548.867 7  21508202.606                    21508217.573  
     -1862.758       -1451.633          42.000          42.000  
 109708049.108 7  85486848.945 7  20876748.546                    20876762.938  
     -1840.586       -1434.059          45.000          43.000  
 127950001.339 5  99701426.444 3  24348083.346    24348106.959                  
     -2289.617       -1784.051          35.000          19.000  
 107495287.967 8  83762629.967 7  20455674.586                    20455690.491  
        43.824          34.082          48.000          45.000  
 127087604.396 5  99029377.165 6  24183970.945                    24183988.489  
     -3378.301       -2632.559          34.000          38.000  
 115160095.985 7  89735227.015 6  21914237.390                    21914256.128  
      2796.555        2179.340          46.000          41.000  
 24  1 10  3 21 12.4000000  0  8G08G24G18G23G16G10G15G32
 128586445.734 5 100197314.674 5  24469199.328                    24469220.234  
      2808.703        2188.578          35.000          35.000  
 127993656.317 6  99735409.107 6  24356383.995                    24356404.818  
       214.293         166.805          38.000          39.000  
 113026541.851 6  88072693.992 7  21508237.780                    21508253.170  
     -1863.113       -1451.555          40.000          42.000  
 109708233.149 7  85486992.377 7  20876783.778                    20876798.200  
     -1840.367       -1433.797          45.000          43.000  
 127950230.378 5  99701604.917 3  24348127.094    24348150.598                  
     -2289.992       -1784.578          35.000          19.000  
 107495283.558 8  83762626.519 7  20455673.840                    20455689.938  
        44.012          34.477          48.000          44.000  
 127087942.144 5  99029640.336 6  24184034.880                    24184052.727  
     -3377.926       -2631.957          34.000          38.000  
 115159816.305 7  89735009.094 7  21914184.169                    21914202.988  
      2796.703        2179.051          46.000          42.000  
 24  1 10  3 21 12.5000000  0  8G08G24G18G23G16G10G15G32
 128586164.860 5 100197095.826 5  24469145.879                    24469166.789  
      2808.832        2188.484          35.000          35.000  
 127993634.865 6  99735392.354 6  24356379.912                    24356400.726  
       214.586         167.188          38.000          39.000  
 113026728.089 6  88072839.145 7  21508273.220                    21508288.618  
     -1862.551       -1451.289          40.000          42.000  
 109708417.156 7  85487135.741 7  20876818.794                    20876833.211  
     -1840.129       -1433.984          45.000          43.000  
 127950459.311 5  99701783.306 3  24348170.659    24348194.163                  
     -2289.609       -1783.945          35.000          19.000  
 107495279.125 7  83762623.075 7  20455672.997                    20455689.097  
        44.277          34.465          47.000          44.000  
 127088279.939 5  99029903.562 6  24184099.161                    24184117.009  
     -3378.098       -2631.855          33.000          38.000  
 115159536.636 7  89734791.163 7  21914130.950                    21914149.767  
      2796.793        2179.391          46.000          42.000  
 24  1 10  3 21 12.6000000  0  8G08G24G18G23G16G10G15G32
 128585884.004 5 100196876.973 5  24469092.707                    24469113.351  
      2808.535        2188.316          35.000          35.000  
 127993613.430 6  99735375.654 6  24356375.849                    24356397.632  
       214.254         166.918          37.000          39.000  
 113026914.265 6  88072984.263 7  21508307.695                    21508323.838  
     -1862.285       -1451.293          39.000          42.000  
 109708601.162 7  85487279.177 7  20876853.840                    20876868.459  
     -1840.094       -1433.992          45.000          44.000  
 127950688.312 5  99701961.743 3  24348214.369    24348237.762                  
     -2289.734       -1784.191          35.000          19.000  
 107495274.734 7  83762619.657 7  20455671.809                    20455688.208  
        44.055          34.309          47.000          45.000  
 127088617.779 5  99030166.780 6  24184163.473                    24184181.665  
     -3378.125       -2632.348          34.000          38.000  
 115159256.999 7  89734573.262 7  21914077.627                    21914096.694  
      2796.562        2179.074          46.000          42.000  
 24  1 10  3 21 12.7000000  0  8G08G24G18G23G16G10G15G32
 128585603.146 5 100196658.138 5  24469039.262                    24469059.909  
      2808.570        2188.344          35.000          35.000  
 127993592.084 6  99735358.991 6  24356371.787                    24356393.563  
       214.012         166.773          37.000          39.000  
 113027100.588 6  88073129.399 7  21508343.151                    21508359.282  
     -1862.754       -1451.660          38.000          42.000  
 109708785.177 7  85487422.523 7  20876888.857                    20876903.465  
     -1840.125       -1433.746          45.000          44.000  
 127950917.339 5  99702140.206 3  24348257.951    24348281.345                  
     -2290.199       -1784.852          35.000          19.000  
 107495270.324 7  83762616.214 7  20455670.970                    20455687.367  
        44.082          34.254          47.000          45.000  
 127088955.521 5  99030430.009 6  24184227.743                    24184245.948  
     -3377.840       -2632.109          34.000          38.000  
 115158977.356 7  89734355.349 6  21914024.413                    21914043.478  
      2796.527        2179.090          46.000          41.000  
 24  1 10  3 21 12.8000000  0  8G08G24G18G23G16G10G15G32
 128585322.260 5 100196439.262 5  24468985.889                    24469006.816  
      2808.645        2188.621          35.000          35.000  
 127993570.632 6  99735342.305 6  24356367.603                    24356389.082  
       214.293         166.672          37.000          39.000  
 113027286.913 6  88073274.556 7  21508378.077                    21508394.786  
     -1863.039       -1451.332          38.000          42.000  
 109708969.240 7  85487565.923 7  20876923.656                    20876938.501  
     -1840.473       -1434.070          45.000          44.000  
 127951146.401 5  99702318.693 3  24348301.189    24348324.910                  
     -2290.227       -1784.559          35.000          19.000  
 107495265.959 7  83762612.810 7  20455670.288                    20455686.262  
        43.777          34.156          47.000          45.000  
 127089293.318 5  99030693.215 6  24184292.032                    24184309.804  
     -3377.808       -2632.418          34.000          38.000  
 115158697.748 7  89734137.482 6  21913971.143                    21913990.280  
      2796.242        2178.781          46.000          41.000  
 24  1 10  3 21 12.9000000  0  8G08G24G18G23G16G10G15G32
 128585041.508 5 100196220.473 5  24468932.464                    24468953.386  
      2808.102        2188.230          35.000          35.000  
 127993549.110 6  99735325.586 6  24356363.508                    24356384.999  
       214.859         167.402          37.000          39.000  
 113027473.206 6  88073419.723 7  21508413.527                    21508430.237  
     -1863.133       -1451.926          37.000          42.000  
 109709153.253 7  85487709.352 7  20876958.673                    20876973.527  
     -1840.180       -1434.117          45.000          43.000  
 127951375.380 5  99702497.117 3  24348344.762    24348368.483                  
     -2290.066       -1784.395          35.000          19.000  
 107495261.575 7  83762609.379 7  20455669.454                    20455685.424  
        43.770          34.078          47.000          44.000  
 127089631.144 5  99030956.428 6  24184356.318                    24184374.083  
     -3377.953       -2631.836          34.000          38.000  
 115158418.129 7  89733919.567 6  21913917.933                    21913937.063  
      2796.160        2178.832          46.000          41.000  
 24  1 10  3 21 13.0000000  0  8G08G24G18G23G16G10G15G32
 128584760.635 5 100196001.623 5  24468878.805                    24468900.433  
      2808.465        2188.520          35.000          35.000  
 127993527.674 6  99735308.880 6  24356359.616                    24356380.630  
       214.371         166.984          36.000          39.000  
 113027659.509 6  88073564.893 7  21508447.956                    21508465.689  
     -1862.820       -1451.523          37.000          42.000  
 109709337.295 7  85487852.750 7  20876994.148                    20877008.218  
     -1840.340       -1434.043          45.000          44.000  
 127951604.494 5  99702675.647 3  24348387.775    24348412.058                  
     -2290.555       -1784.973          35.000          19.000  
 107495257.240 7  83762606.012 7  20455668.582                    20455685.125  
        43.648          33.961          47.000          44.000  
 127089968.951 5  99031219.641 6  24184420.288                    24184438.347  
     -3377.859       -2632.254          35.000          38.000  
 115158138.518 7  89733701.737 6  21913864.545                    21913883.398  
      2796.137        2178.516          46.000          41.000  
 24  1 10  3 21 13.1000000  0  8G08G24G18G23G16G10G15G32
 128584479.812 5 100195782.803 5  24468825.366                    24468846.995  
      2808.332        2188.215          35.000          35.000  
 127993506.309 6  99735292.199 6  24356355.550                    24356376.556  
       214.082         166.727          36.000          39.000  
 113027845.808 6  88073710.055 7  21508483.407                    21508501.139  
     -1863.207       -1451.594          38.000          42.000  
 109709521.311 7  85487996.135 7  20877029.165                    20877043.235  
     -1840.391       -1434.145          45.000          44.000  
 127951833.497 5  99702854.092 3  24348431.353    24348455.636                  
     -2290.410       -1784.801          34.000          18.000  
 107495252.872 8  83762602.614 7  20455667.751                    20455684.296  
        43.539          33.859          48.000          44.000  
 127090306.744 5  99031482.857 6  24184484.568                    24184502.627  
     -3377.812       -2632.230          35.000          38.000  
 115157858.943 7  89733483.864 6  21913811.344                    21913830.191  
      2795.922        2178.645          46.000          41.000  
 24  1 10  3 21 13.2000000  0  8G08G24G18G23G16G10G15G32
 128584198.970 6 100195563.937 5  24468771.665                    24468793.467  
      2808.457        2188.574          36.000          35.000  
 127993484.941 6  99735275.492 6  24356351.453                    24356372.375  
       213.910         167.090          37.000          39.000  
 113028032.173 6  88073855.202 7  21508519.371                    21508536.109  
     -1862.984       -1451.402          38.000          42.000  
 109709705.338 7  85488139.538 7  20877064.145                    20877078.646  
     -1840.105       -1433.844          45.000          44.000  
 127952062.603 5  99703032.614 3  24348474.982    24348499.202                  
     -2290.582       -1784.871          35.000          18.000  
 107495248.495 7  83762599.196 7  20455667.051                    20455683.102  
        43.723          34.164          47.000          44.000  
 127090644.476 5  99031746.015 6  24184549.078                    24184567.135  
     -3377.578       -2631.715          35.000          38.000  
 115157579.330 7  89733266.007 7  21913758.135                    21913777.058  
      2796.031        2178.551          46.000          42.000  
 24  1 10  3 21 13.3000000  0  8G08G24G18G23G16G10G15G32
 128583918.095 6 100195345.125 5  24468718.217                    24468740.031  
      2808.570        2188.391          36.000          35.000  
 127993463.559 6  99735258.796 6  24356347.384                    24356368.297  
       213.742         166.898          37.000          39.000  
 113028218.311 6  88074000.363 7  21508554.792                    21508571.559  
     -1862.461       -1451.488          39.000          42.000  
 109709889.337 7  85488282.921 7  20877099.159                    20877113.661  
     -1840.117       -1433.856          45.000          44.000  
 127952291.635 5  99703211.077 3  24348518.565    24348542.784                  
     -2290.422       -1784.617          35.000          18.000  
 107495244.114 7  83762595.783 7  20455666.217                    20455682.268  
        43.770          34.102          47.000          44.000  
 127090982.238 5  99032009.245 6  24184613.352                    24184631.418  
     -3377.953       -2632.238          35.000          38.000  
 115157299.710 7  89733048.096 6  21913704.925                    21913723.842  
      2796.051        2178.934          46.000          41.000  
 24  1 10  3 21 13.4000000  0  8G08G24G18G23G16G10G15G32
 128583637.296 5 100195126.256 5  24468664.501                    24468686.628  
      2808.395        2188.719          35.000          35.000  
 127993442.149 6  99735242.121 6  24356343.365                    24356364.397  
       214.043         166.914          38.000          39.000  
 113028404.639 6  88074145.504 7  21508590.874                    21508607.371  
     -1862.953       -1451.469          40.000          42.000  
 109710073.371 7  85488426.331 7  20877134.266                    20877149.027  
     -1840.219       -1433.945          45.000          44.000  
 127952520.725 6  99703389.587 3  24348562.347    24348586.378                  
     -2290.828       -1785.219          36.000          19.000  
 107495239.736 7  83762592.387 7  20455665.189                    20455681.423  
        43.824          34.035          47.000          44.000  
 127091320.031 5  99032272.470 6  24184678.210                    24184695.240  
     -3377.574       -2632.156          35.000          38.000  
 115157020.137 7  89732830.264 6  21913651.685                    21913670.755  
      2795.953        2178.535          46.000          41.000  
 24  1 10  3 21 13.5000000  0  8G08G24G18G23G16G10G15G32
 128583356.433 6 100194907.442 5  24468611.055                    24468633.191  
      2808.531        2188.156          36.000          34.000  
 127993420.733 6  99735225.459 6  24356339.289                    24356360.328  
       214.086         166.691          38.000          39.000  
 113028590.865 6  88074290.687 7  21508626.312                    21508642.826  
     -1862.598       -1451.543          39.000          42.000  
 109710257.362 7  85488569.708 7  20877169.278                    20877184.041  
     -1840.043       -1433.938          45.000          44.000  
 127952749.785 6  99703568.077 3  24348605.936    24348629.967                  
     -2290.652       -1784.926          36.000          19.000  
 107495235.369 7  83762588.975 7  20455664.358                    20455680.590  
        43.727          34.082          47.000          44.000  
 127091657.804 5  99032535.662 6  24184742.486                    24184759.514  
     -3377.863       -2632.117          34.000          38.000  
 115156740.553 7  89732612.405 6  21913598.482                    21913617.552  
      2795.977        2178.715          46.000          41.000  
 24  1 10  3 21 13.6000000  0  8G08G24G18G23G16G10G15G32
 128583075.637 6 100194688.623 5  24468557.449                    24468579.980  
      2808.172        2188.379          36.000          35.000  
 127993399.325 6  99735208.769 6  24356335.458                    24356355.783  
       214.039         166.969          37.000          39.000  
 113028777.107 6  88074435.781 7  21508662.135                    21508678.189  
     -1862.559       -1451.473          40.000          42.000  
 109710441.357 7  85488713.059 7  20877204.268                    20877219.471  
     -1839.930       -1433.434          45.000          44.000  
 127952978.845 5  99703746.570 3  24348649.626    24348673.565                  
     -2290.617       -1784.914          35.000          18.000  
 107495230.972 7  83762585.564 7  20455663.583                    20455679.835  
        43.828          34.145          47.000          44.000  
 127091995.646 5  99032798.846 6  24184806.815                    24184823.661  
     -3378.020       -2631.883          35.000          38.000  
 115156460.934 7  89732394.529 6  21913545.968                    21913564.531  
      2795.992        2178.621          46.000          41.000  
 24  1 10  3 21 13.7000000  0  8G08G24G18G23G16G10G15G32
 128582794.802 6 100194469.772 5  24468504.008                    24468526.535  
      2808.172        2188.371          36.000          35.000  
 127993377.910 6  99735192.063 6  24356331.383                    24356351.704  
       214.129         167.051          37.000          39.000  
 113028963.427 6  88074580.946 7  21508697.591                    21508713.640  
     -1862.918       -1451.223          40.000          42.000  
 109710625.346 7  85488856.445 7  20877239.280                    20877254.487  
     -1839.969       -1433.742          45.000          43.000  
 127953207.892 5  99703925.043 3  24348693.212    24348717.150                  
     -2290.555       -1784.824          35.000          19.000  
 107495226.586 7  83762582.113 7  20455662.749                    20455678.992  
        43.832          34.352          47.000          44.000  
 127092333.276 5  99033062.056 6  24184871.063                    24184887.939  
     -3377.144       -2631.855          34.000          38.000  
 115156181.334 7  89732176.651 6  21913492.762                    21913511.324  
      2796.000        2178.969          46.000          41.000  
 24  1 10  3 21 13.8000000  0  8G08G24G18G23G16G10G15G32
 128582513.976 6 100194250.963 5  24468450.662                    24468473.599  
      2808.156        2188.207          36.000          35.000  
 127993356.508 6  99735175.383 6  24356327.482                    24356347.646  
       214.145         166.852          38.000          39.000  
 113029149.710 6  88074726.053 7  21508733.657                    21508748.991  
     -1862.871       -1451.449          41.000          42.000  
 109710809.363 7  85488999.798 7  20877274.258                    20877289.074  
     -1839.965       -1433.680          45.000          43.000  
 127953437.018 5  99704103.576 3  24348737.024    24348760.781                  
     -2290.871       -1785.191          34.000          19.000  
 107495222.249 7  83762578.769 7  20455662.095                    20455678.207  
        43.758          33.875          47.000          44.000  
 127092671.073 5  99033325.237 6  24184935.063                    24184952.313  
     -3377.668       -2631.945          34.000          38.000  
 115155901.796 7  89731958.807 6  21913439.403                    21913457.788  
      2795.785        2178.508          46.000          41.000  
 24  1 10  3 21 13.9000000  0  8G08G24G18G23G16G10G15G32
 128582233.216 6 100194032.184 5  24468397.236                    24468420.171  
      2807.977        2188.070          36.000          35.000  
 127993335.096 6  99735158.728 6  24356323.407                    24356343.578  
       214.145         166.527          38.000          39.000  
 113029335.975 6  88074871.255 6  21508769.102                    21508784.450  
     -1862.605       -1451.656          41.000          41.000  
 109710993.384 7  85489143.222 7  20877309.276                    20877324.099  
     -1840.230       -1434.035          45.000          43.000  
 127953666.106 5  99704282.085 3  24348780.618    24348804.374                  
     -2290.992       -1785.266          34.000          19.000  
 107495217.910 7  83762575.373 7  20455661.270                    20455677.378  
        43.406          33.715          47.000          44.000  
 127093008.924 5  99033588.457 6  24184999.354                    24185016.594  
     -3377.898       -2632.168          35.000          38.000  
 115155622.216 7  89731740.979 6  21913386.201                    21913404.592  
      2795.688        2178.309          46.000          41.000  
 24  1 10  3 21 14.0000000  0  8G08G24G18G23G16G10G15G32
 128581952.358 5 100193813.392 5  24468344.048                    24468366.419  
      2808.109        2187.992          35.000          35.000  
 127993313.629 6  99735142.038 6  24356319.330                    24356339.534  
       214.266         166.812          38.000          39.000  
 113029522.254 6  88075016.437 7  21508805.229                    21508819.874  
     -1862.484       -1451.606          41.000          42.000  
 109711177.421 7  85489286.607 7  20877344.039                    20877359.053  
     -1840.289       -1433.969          45.000          43.000  
 127953895.179 5  99704460.576 3  24348824.326    24348847.948                  
     -2290.902       -1785.094          34.000          19.000  
 107495213.601 7  83762571.997 7  20455660.465                    20455676.436  
        43.258          33.664          47.000          44.000  
 127093346.634 5  99033851.671 6  24185063.375                    24185081.217  
     -3377.473       -2631.891          35.000          38.000  
 115155342.647 7  89731523.116 6  21913332.946                    21913351.442  
      2795.633        2178.379          46.000          41.000  
 24  1 10  3 21 14.1000000  0  8G08G24G18G23G16G10G15G32
 128581671.641 5 100193594.607 5  24468290.629                    24468312.990  
      2807.906        2187.949          35.000          35.000  
 127993292.307 6  99735125.362 6  24356315.273                    24356335.462  
       213.746         166.895          38.000          39.000  
 113029708.571 6  88075161.579 7  21508840.684                    21508855.319  
     -1863.309       -1451.871          41.000          42.000  
 109711361.483 7  85489430.055 7  20877379.065                    20877394.084  
     -1840.582       -1434.578          45.000          43.000  
 127954124.378 5  99704639.170 3  24348867.942    24348891.563                  
     -2291.320       -1785.586          35.000          19.000  
 107495209.317 7  83762568.683 7  20455659.650                    20455675.627  
        42.965          33.219          47.000          44.000  
 127093684.414 5  99034114.812 6  24185127.653                    24185145.478  
     -3377.840       -2631.578          35.000          38.000  
 115155063.165 7  89731305.341 6  21913279.763                    21913298.259  
      2795.414        2177.922          46.000          41.000  
 24  1 10  3 21 14.2000000  0  8G08G24G18G23G16G10G15G32
 128581390.885 5 100193375.839 5  24468237.031                    24468259.471  
      2807.641        2187.625          35.000          35.000  
 127993270.861 6  99735108.700 6  24356310.746                    24356331.182  
       214.219         166.727          38.000          39.000  
 113029894.940 7  88075306.847 7  21508876.750                    21508891.068  
     -1863.191       -1452.207          42.000          42.000  
 109711545.586 7  85489573.511 7  20877414.177                    20877428.883  
     -1840.754       -1434.359          45.000          44.000  
 127954353.472 5  99704817.689 3  24348911.505    24348935.151                  
     -2291.359       -1785.676          35.000          19.000  
 107495205.080 7  83762565.377 7  20455658.594                    20455674.968  
        42.652          32.980          47.000          44.000  
 127094022.289 5  99034378.079 6  24185192.019                    24185209.506  
     -3378.242       -2632.469          35.000          38.000  
 115154783.639 7  89731087.563 6  21913226.719                    21913245.412  
      2795.152        2177.746          46.000          41.000  
 24  1 10  3 21 14.3000000  0  8G08G24G18G23G16G10G15G32
 128581110.125 5 100193157.034 5  24468183.604                    24468206.036  
      2807.695        2188.016          35.000          35.000  
 127993249.443 6  99735092.065 6  24356306.671                    24356327.119  
       214.086         166.453          38.000          39.000  
 113030081.300 7  88075452.044 7  21508912.214                    21508926.527  
     -1863.500       -1452.508          42.000          42.000  
 109711729.731 7  85489716.974 7  20877449.218                    20877463.918  
     -1841.121       -1434.629          45.000          44.000  
 127954582.666 5  99704996.273 3  24348955.120    24348978.763                  
     -2291.449       -1785.523          35.000          19.000  
 107495200.873 7  83762562.092 7  20455657.793                    20455674.165  
        42.395          33.000          47.000          44.000  
 127094360.057 5  99034641.282 6  24185256.294                    24185273.782  
     -3377.938       -2631.953          35.000          38.000  
 115154504.175 7  89730869.776 6  21913173.539                    21913192.226  
      2794.906        2177.742          46.000          41.000  
 24  1 10  3 21 14.4000000  0  8G08G24G18G23G16G10G15G32
 128580829.393 5 100192938.315 5  24468130.011                    24468152.545  
      2807.449        2187.320          35.000          35.000  
 127993228.119 6  99735075.394 6  24356302.355                    24356322.696  
       213.621         166.637          38.000          40.000  
 113030267.610 7  88075597.248 7  21508948.183                    21508961.925  
     -1863.344       -1451.988          42.000          42.000  
 109711913.825 7  85489860.417 7  20877484.133                    20877499.910  
     -1841.184       -1434.613          45.000          44.000  
 127954811.807 5  99705174.819 3  24348998.544    24349022.405                  
     -2291.559       -1785.691          35.000          19.000  
 107495196.633 7  83762558.784 7  20455657.151                    20455673.225  
        42.285          32.910          47.000          44.000  
 127094697.842 5  99034904.496 6  24185320.596                    24185338.156  
     -3377.844       -2632.293          34.000          38.000  
 115154224.681 7  89730651.976 6  21913120.103                    21913139.420  
      2794.809        2177.695          46.000          41.000  
 24  1 10  3 21 14.5000000  0  8G08G24G18G23G16G10G15G32
 128580548.618 5 100192719.563 5  24468076.581                    24468099.123  
      2807.598        2187.633          35.000          35.000  
 127993206.754 6  99735058.752 6  24356298.289                    24356318.632  
       213.723         166.230          38.000          40.000  
 113030453.999 6  88075742.478 7  21508983.651                    21508997.391  
     -1863.527       -1451.941          41.000          42.000  
 109712097.916 7  85490003.875 7  20877519.164                    20877534.943  
     -1840.797       -1434.484          45.000          44.000  
 127955040.934 5  99705353.361 3  24349042.145    24349066.007                  
     -2291.383       -1785.438          35.000          19.000  
 107495192.380 7  83762555.480 7  20455656.341                    20455672.418  
        42.531          33.191          47.000          44.000  
 127095035.585 5  99035167.735 6  24185384.866                    24185402.441  
     -3377.637       -2632.355          34.000          38.000  
 115153945.165 7  89730434.197 6  21913066.913                    21913086.236  
      2795.148        2178.086          46.000          41.000  
 24  1 10  3 21 14.6000000  0  8G08G24G18G23G16G10G15G32
 128580267.953 5 100192500.768 5  24468023.212                    24468045.160  
      2807.180        2187.523          34.000          35.000  
 127993185.451 6  99735042.094 6  24356294.095                    24356315.377  
       213.227         166.609          37.000          40.000  
 113030640.335 6  88075887.639 7  21509018.524                    21509032.896  
     -1863.547       -1452.332          41.000          42.000  
 109712281.996 7  85490147.348 7  20877554.006                    20877569.755  
     -1840.902       -1434.672          45.000          44.000  
 127955270.091 6  99705531.923 3  24349085.784    24349109.621                  
     -2291.527       -1785.691          36.000          18.000  
 107495188.124 7  83762552.165 7  20455655.344                    20455672.023  
        42.516          33.117          47.000          44.000  
 127095373.521 5  99035430.960 6  24185449.267                    24185467.270  
     -3378.488       -2632.242          34.000          38.000  
 115153665.689 7  89730216.408 6  21913013.957                    21913033.057  
      2794.949        2177.793          46.000          41.000  
 24  1 10  3 21 14.7000000  0  8G08G24G18G23G16G10G15G32
 128579987.205 5 100192282.020 5  24467969.787                    24467991.740  
      2807.289        2187.617          35.000          35.000  
 127993164.013 6  99735025.432 6  24356290.015                    24356311.308  
       213.855         166.547          36.000          41.000  
 113030826.734 6  88076032.891 7  21509053.995                    21509068.368  
     -1863.789       -1451.902          41.000          42.000  
 109712466.115 7  85490290.765 7  20877589.043                    20877604.779  
     -1841.031       -1434.633          45.000          44.000  
 127955499.217 6  99705710.460 3  24349129.385    24349153.222                  
     -2291.375       -1785.453          36.000          19.000  
 107495183.895 7  83762548.869 7  20455654.539                    20455671.217  
        42.445          33.137          47.000          44.000  
 127095711.250 5  99035694.175 6  24185513.534                    24185531.550  
     -3377.894       -2632.184          34.000          38.000  
 115153386.176 7  89729998.623 6  21912960.767                    21912979.872  
      2794.984        2177.668          46.000          41.000  
 24  1 10  3 21 14.8000000  0  8G08G24G18G23G16G10G15G32
 128579706.424 5 100192063.288 5  24467916.145                    24467938.206  
      2807.496        2187.414          35.000          35.000  
 127993142.771 6  99735008.826 6  24356285.458                    24356308.237  
       213.031         166.219          37.000          41.000  
 113031013.080 6  88076178.074 7  21509088.744                    21509104.065  
     -1863.648       -1452.531          40.000          42.000  
 109712650.205 7  85490434.254 7  20877624.402                    20877639.601  
     -1840.922       -1434.414          45.000          44.000  
 127955728.375 6  99705889.024 3  24349173.266    24349196.837                  
     -2291.398       -1785.449          36.000          19.000  
 107495179.637 8  83762545.550 7  20455654.065                    20455670.149  
        42.453          33.082          48.000          44.000  
 127096049.124 5  99035957.450 6  24185577.892                    24185595.790  
     -3378.266       -2632.562          34.000          38.000  
 115153106.679 7  89729780.828 6  21912907.409                    21912926.614  
      2794.945        2178.012          46.000          41.000  
 24  1 10  3 21 14.9000000  0  8G08G24G18G23G16G10G15G32
 128579425.683 5 100191844.538 5  24467862.722                    24467884.785  
      2807.430        2187.602          35.000          35.000  
 127993121.461 6  99734992.172 6  24356281.402                    24356304.170  
       213.176         166.457          38.000          40.000  
 113031199.489 6  88076323.330 7  21509124.217                    21509139.538  
     -1863.727       -1452.121          40.000          42.000  
 109712834.349 7  85490577.680 7  20877659.444                    20877674.627  
     -1841.145       -1434.457          45.000          44.000  
 127955957.521 5  99706067.579 3  24349216.871    24349240.442                  
     -2291.426       -1785.523          35.000          19.000  
 107495175.395 7  83762542.228 7  20455653.257                    20455669.338  
        42.398          33.090          47.000          44.000  
 127096386.888 5  99036220.689 6  24185642.167                    24185660.076  
     -3378.106       -2632.480          34.000          38.000  
 115152827.219 7  89729563.032 6  21912854.229                    21912873.426  
      2794.902        2177.941          46.000          41.000  
 24  1 10  3 21 15.0000000  0  8G08G24G18G23G16G10G15G32
 128579144.982 5 100191625.749 5  24467809.408                    24467831.229  
      2807.332        2187.758          35.000          35.000  
 127993100.105 6  99734975.596 6  24356277.292                    24356300.028  
       213.355         165.996          38.000          40.000  
 113031385.858 6  88076468.540 7  21509159.306                    21509174.852  
     -1863.820       -1452.395          40.000          42.000  
 109713018.460 7  85490721.177 7  20877694.651                    20877709.507  
     -1841.121       -1434.645          45.000          44.000  
 127956186.634 5  99706246.104 3  24349260.282    24349284.055                  
     -2291.367       -1785.508          35.000          18.000  
 107495171.176 7  83762538.966 7  20455652.501                    20455668.737  
        42.449          33.039          47.000          44.000  
 127096724.870 5  99036483.947 6  24185706.553                    24185724.061  
     -3378.922       -2632.375          35.000          38.000  
 115152547.738 7  89729345.294 6  21912800.874                    21912820.221  
      2794.812        2177.609          46.000          41.000  
 24  1 10  3 21 15.1000000  0  8G08G24G18G23G16G10G15G32
 128578864.311 5 100191407.048 5  24467755.998                    24467777.820  
      2807.008        2186.836          35.000          35.000  
 127993078.909 6  99734959.034 6  24356273.258                    24356295.983  
       212.582         165.594          37.000          40.000  
 113031572.283 6  88076613.873 7  21509194.782                    21509210.344  
     -1864.113       -1452.961          40.000          42.000  
 109713202.607 7  85490864.659 7  20877729.693                    20877744.546  
     -1841.406       -1435.293          45.000          44.000  
 127956415.839 5  99706424.702 3  24349303.898    24349327.670                  
     -2291.805       -1786.031          35.000          18.000  
 107495166.961 7  83762535.657 7  20455651.699                    20455667.929  
        42.082          32.637          47.000          44.000  
 127097062.745 5  99036747.202 6  24185770.848                    24185788.351  
     -3378.715       -2632.754          35.000          38.000  
 115152268.283 7  89729127.524 6  21912747.695                    21912767.039  
      2794.609        2177.469          46.000          41.000  
 24  1 10  3 21 15.2000000  0  8G08G24G18G23G16G10G15G32
 128578583.518 5 100191188.322 5  24467702.698                    24467723.882  
      2807.344        2187.301          35.000          35.000  
 127993057.660 6  99734942.513 6  24356269.168                    24356291.027  
       212.621         165.527          37.000          39.000  
 113031758.671 6  88076759.114 6  21509230.242                    21509245.704  
     -1863.938       -1452.496          40.000          41.000  
 109713386.726 7  85491008.166 7  20877764.440                    20877779.616  
     -1841.203       -1434.871          45.000          44.000  
 127956644.963 5  99706603.235 3  24349347.515    24349371.239                  
     -2291.316       -1785.152          35.000          19.000  
 107495162.729 7  83762532.397 7  20455650.777                    20455667.039  
        42.285          32.906          47.000          44.000  
 127097400.518 5  99037010.494 6  24185835.210                    24185852.306  
     -3378.324       -2632.785          34.000          38.000  
 115151988.786 7  89728909.741 6  21912694.556                    21912713.776  
      2794.805        2177.934          46.000          41.000  
 24  1 10  3 21 15.3000000  0  8G08G24G18G23G16G10G15G32
 128578302.841 5 100190969.544 5  24467649.287                    24467670.454  
      2807.055        2187.418          35.000          35.000  
 127993036.320 6  99734925.852 6  24356265.107                    24356286.958  
       213.016         165.844          36.000          39.000  
 113031945.108 6  88076904.340 6  21509265.720                    21509281.169  
     -1864.281       -1452.395          40.000          41.000  
 109713570.884 7  85491151.649 7  20877799.484                    20877814.656  
     -1841.309       -1434.734          45.000          43.000  
 127956874.048 5  99706781.739 3  24349391.108    24349414.831                  
     -2291.152       -1785.137          35.000          19.000  
 107495158.493 7  83762529.070 7  20455649.971                    20455666.226  
        42.371          33.039          47.000          44.000  
 127097738.411 5  99037273.743 6  24185899.509                    24185916.594  
     -3378.520       -2632.621          34.000          38.000  
 115151709.313 7  89728691.961 6  21912641.374                    21912660.592  
      2794.926        2177.648          46.000          41.000  
 24  1 10  3 21 15.4000000  0  8G08G24G18G23G16G10G15G32
 128578022.142 5 100190750.825 5  24467595.801                    24467617.361  
      2806.879        2186.699          35.000          35.000  
 127993014.949 5  99734909.291 6  24356260.813                    24356282.320  
       213.309         165.930          35.000          38.000  
 113032131.565 6  88077049.598 6  21509300.780                    21509315.674  
     -1864.230       -1452.715          40.000          41.000  
 109713754.995 7  85491295.119 7  20877834.473                    20877849.364  
     -1841.355       -1434.836          45.000          43.000  
 127957103.210 5  99706960.302 3  24349434.537    24349458.391                  
     -2291.406       -1785.570          35.000          19.000  
 107495154.279 7  83762525.799 7  20455649.200                    20455665.029  
        42.129          32.746          47.000          44.000  
 127098076.240 5  99037537.063 6  24185963.936                    24185981.220  
     -3378.430       -2633.051          35.000          38.000  
 115151429.836 7  89728474.205 6  21912587.980                    21912607.398  
      2794.742        2177.680          46.000          41.000  
 24  1 10  3 21 15.5000000  0  8G08G24G18G23G16G10G15G32
 128577741.441 5 100190532.123 5  24467542.386                    24467563.952  
      2807.090        2187.367          35.000          35.000  
 127992993.630 6  99734892.682 6  24356256.757                    24356278.264  
       213.254         166.020          36.000          38.000  
 113032317.889 6  88077194.870 6  21509336.236                    21509351.151  
     -1863.875       -1452.676          41.000          41.000  
 109713939.136 7  85491438.621 7  20877869.513                    20877884.409  
     -1841.266       -1434.754          45.000          43.000  
 127957332.361 6  99707138.857 3  24349478.143    24349501.996                  
     -2291.434       -1785.543          36.000          19.000  
 107495150.057 7  83762522.513 7  20455648.397                    20455664.226  
        42.371          32.957          47.000          44.000  
 127098414.109 5  99037800.335 6  24186028.231                    24186045.513  
     -3378.641       -2632.754          35.000          38.000  
 115151150.320 7  89728256.396 6  21912534.790                    21912554.207  
      2795.039        2177.992          46.000          41.000  
 24  1 10  3 21 15.6000000  0  8G08G24G18G23G16G10G15G32
 128577460.695 5 100190313.365 5  24467488.985                    24467510.521  
      2807.074        2187.352          35.000          35.000  
 127992972.458 6  99734876.066 6  24356252.431                    24356273.901  
       212.422         166.090          36.000          38.000  
 113032504.251 6  88077340.077 6  21509372.122                    21509386.729  
     -1863.641       -1452.117          41.000          41.000  
 109714123.248 7  85491582.070 7  20877904.705                    20877919.902  
     -1841.184       -1434.777          45.000          43.000  
 127957561.450 6  99707317.365 3  24349521.893    24349545.676                  
     -2291.188       -1785.227          36.000          19.000  
 107495145.797 7  83762519.180 7  20455647.406                    20455662.897  
        42.484          33.258          47.000          44.000  
 127098752.085 5  99038063.608 6  24186092.655                    24186109.612  
     -3379.086       -2632.742          35.000          38.000  
 115150870.819 7  89728038.606 6  21912481.454                    21912501.193  
      2795.051        2178.227          46.000          41.000  
 24  1 10  3 21 15.7000000  0  8G08G24G18G23G16G10G15G32
 128577179.993 5 100190094.667 5  24467435.569                    24467457.113  
      2807.168        2187.059          35.000          35.000  
 127992951.123 6  99734859.464 6  24356248.371                    24356269.847  
       213.070         165.930          36.000          38.000  
 113032690.714 6  88077485.387 7  21509407.604                    21509422.215  
     -1864.035       -1452.648          41.000          42.000  
 109714307.391 7  85491725.564 7  20877939.746                    20877954.944  
     -1841.406       -1434.906          45.000          44.000  
 127957790.531 5  99707495.875 3  24349565.486    24349589.270                  
     -2290.980       -1785.090          35.000          19.000  
 107495141.587 7  83762515.918 7  20455646.605                    20455662.100  
        42.312          32.711          47.000          44.000  
 127099089.856 5  99038326.880 6  24186156.931                    24186173.905  
     -3378.363       -2632.941          35.000          38.000  
 115150591.277 7  89727820.778 6  21912428.259                    21912447.997  
      2795.145        2177.918          46.000          41.000  
 24  1 10  3 21 15.8000000  0  8G08G24G18G23G16G10G15G32
 128576899.307 5 100189875.913 5  24467382.250                    24467403.589  
      2806.996        2187.336          35.000          35.000  
 127992929.794 6  99734842.909 6  24356244.281                    24356265.898  
       212.906         165.508          36.000          38.000  
 113032877.076 6  88077630.533 7  21509443.568                    21509458.560  
     -1864.113       -1452.281          41.000          42.000  
 109714491.535 7  85491869.035 7  20877974.671                    20877989.974  
     -1841.391       -1434.715          45.000          44.000  
 127958019.668 5  99707674.423 3  24349609.136    24349632.873                  
     -2291.184       -1785.441          35.000          20.000  
 107495137.346 7  83762512.609 7  20455645.783                    20455661.534  
        42.301          33.055          47.000          44.000  
 127099427.759 5  99038590.189 6  24186221.325                    24186238.115  
     -3378.969       -2632.898          35.000          38.000  
 115150311.759 7  89727602.982 6  21912374.936                    21912394.645  
      2795.176        2178.152          46.000          41.000  
 24  1 10  3 21 15.9000000  0  8G08G24G18G23G16G10G15G32
 128576618.642 5 100189657.203 5  24467328.841                    24467350.178  
      2806.918        2187.145          35.000          35.000  
 127992908.652 6  99734826.349 6  24356240.258                    24356261.853  
       212.277         165.473          36.000          38.000  
 113033063.461 6  88077775.830 7  21509479.036                    21509494.043  
     -1863.793       -1452.555          41.000          42.000  
 109714675.655 7  85492012.501 7  20878009.707                    20878025.010  
     -1841.270       -1434.789          45.000          43.000  
 127958248.758 5  99707852.933 3  24349652.730    24349676.467                  
     -2291.141       -1785.387          35.000          20.000  
 107495133.107 7  83762509.300 7  20455644.976                    20455660.726  
        42.422          33.082          47.000          44.000  
 127099765.697 5  99038853.449 6  24186285.633                    24186302.405  
     -3378.918       -2632.863          35.000          38.000  
 115150032.213 7  89727385.165 6  21912321.740                    21912341.451  
      2795.348        2178.156          46.000          41.000  
 24  1 10  3 21 16.0000000  0  8G08G24G18G23G16G10G15G32
 128576337.970 5 100189438.500 5  24467276.126                    24467296.518  
      2806.875        2187.277          35.000          35.000  
 127992887.358 6  99734809.783 6  24356236.370                    24356258.324  
       212.664         165.516          37.000          38.000  
 113033249.870 6  88077921.076 7  21509514.407                    21509529.365  
     -1863.910       -1452.418          41.000          42.000  
 109714859.798 7  85492155.993 7  20878045.116                    20878059.442  
     -1841.414       -1434.902          45.000          43.000  
 127958477.852 5  99708031.449 3  24349696.396    24349720.039                  
     -2291.000       -1785.152          35.000          20.000  
 107495128.865 7  83762505.970 7  20455644.333                    20455659.991  
        42.402          33.062          47.000          44.000  
 127100103.590 5  99039116.773 6  24186349.806                    24186366.774  
     -3379.113       -2633.016          35.000          39.000  
 115149752.677 7  89727167.327 6  21912268.671                    21912287.886  
      2795.363        2178.539          46.000          41.000  
 24  1 10  3 21 16.1000000  0  8G08G24G18G23G16G10G15G32
 128576057.303 5 100189219.795 5  24467222.717                    24467243.108  
      2806.762        2186.691          35.000          35.000  
 127992866.062 6  99734793.229 6  24356232.317                    24356254.281  
       212.785         165.750          38.000          38.000  
 113033436.290 6  88078066.327 7  21509549.881                    21509564.837  
     -1864.027       -1452.316          41.000          42.000  
 109715043.955 7  85492299.486 7  20878080.160                    20878094.485  
     -1841.453       -1434.902          45.000          43.000  
 127958706.979 6  99708209.984 3  24349739.997    24349763.639                  
     -2291.176       -1785.410          36.000          20.000  
 107495124.637 7  83762502.696 7  20455643.528                    20455659.192  
        42.301          32.754          47.000          44.000  
 127100441.531 5  99039380.053 6  24186414.115                    24186431.070  
     -3379.262       -2633.016          35.000          38.000  
 115149473.141 7  89726949.485 6  21912215.477                    21912234.687  
      2795.273        2177.957          46.000          41.000  
 24  1 10  3 21 16.2000000  0  8G08G24G18G23G16G10G15G32
 128575776.629 5 100189001.108 5  24467169.557                    24467190.031  
      2806.707        2187.141          35.000          35.000  
 127992844.818 6  99734776.682 6  24356228.720                    24356250.060  
       212.660         165.406          38.000          38.000  
 113033622.631 6  88078211.463 7  21509584.974                    21509600.374  
     -1864.148       -1452.508          40.000          42.000  
 109715228.084 7  85492442.993 7  20878115.019                    20878129.375  
     -1841.328       -1434.820          45.000          43.000  
 127958936.083 6  99708388.503 3  24349783.501    24349807.274                  
     -2291.051       -1785.152          36.000          19.000  
 107495120.408 7  83762499.399 7  20455642.684                    20455658.683  
        42.332          33.090          47.000          44.000  
 127100779.373 5  99039643.383 6  24186478.169                    24186495.464  
     -3378.672       -2632.977          34.000          38.000  
 115149193.600 7  89726731.690 6  21912162.243                    21912181.444  
      2795.445        2178.250          46.000          41.000  
 24  1 10  3 21 16.3000000  0  8G08G24G18G23G16G10G15G32
 128575495.925 5 100188782.435 5  24467116.140                    24467136.629  
      2806.855        2186.656          35.000          35.000  
 127992823.445 6  99734760.157 6  24356224.653                    24356246.025  
       213.215         165.473          38.000          38.000  
 113033809.037 6  88078356.775 7  21509620.446                    21509635.861  
     -1863.844       -1451.984          40.000          42.000  
 109715412.218 7  85492586.427 7  20878150.058                    20878164.402  
     -1841.375       -1434.641          45.000          43.000  
 127959165.156 5  99708567.003 3  24349827.092    24349850.866                  
     -2290.848       -1784.949          35.000          19.000  
 107495116.158 7  83762496.088 7  20455641.876                    20455657.875  
        42.434          33.184          47.000          44.000  
 127101117.224 5  99039906.698 6  24186542.460                    24186559.768  
     -3378.781       -2633.266          34.000          39.000  
 115148914.050 7  89726513.833 6  21912109.047                    21912128.241  
      2795.539        2178.367          46.000          41.000  
 24  1 10  3 21 16.4000000  0  8G08G24G18G23G16G10G15G32
 128575215.308 5 100188563.714 5  24467062.733                    24467083.543  
      2806.520        2187.023          35.000          35.000  
 127992802.192 6  99734743.587 6  24356221.038                    24356241.502  
       212.695         165.488          38.000          39.000  
 113033995.433 6  88078501.969 7  21509655.876                    21509671.639  
     -1863.859       -1452.340          40.000          42.000  
 109715596.323 7  85492729.914 7  20878185.381                    20878199.975  
     -1841.281       -1434.859          45.000          43.000  
 127959394.262 5  99708745.526 3  24349870.759    24349894.494                  
     -2291.008       -1785.270          35.000          19.000  
 107495111.918 7  83762492.787 7  20455641.124                    20455657.506  
        42.414          32.945          47.000          45.000  
 127101455.229 5  99040169.974 6  24186606.812                    24186624.453  
     -3379.480       -2632.875          34.000          38.000  
 115148634.481 7  89726296.007 6  21912055.995                    21912074.984  
      2795.613        2178.332          46.000          41.000  
 24  1 10  3 21 16.5000000  0  8G08G24G18G23G16G10G15G32
 128574934.670 5 100188345.032 5  24467009.329                    24467030.139  
      2806.445        2186.746          35.000          35.000  
 127992781.002 6  99734726.986 6  24356217.006                    24356237.448  
       212.340         165.945          39.000          39.000  
 113034181.802 6  88078647.216 7  21509691.341                    21509707.110  
     -1863.664       -1452.414          40.000          42.000  
 109715780.468 7  85492873.425 7  20878220.423                    20878235.022  
     -1841.219       -1434.859          45.000          43.000  
 127959623.391 5  99708924.071 3  24349914.361    24349938.097                  
     -2291.164       -1785.430          35.000          19.000  
 107495107.685 7  83762489.506 7  20455640.318                    20455656.705  
        42.332          32.938          47.000          45.000  
 127101793.081 5  99040433.243 6  24186671.103                    24186688.746  
     -3378.938       -2632.699          35.000          38.000  
 115148354.935 7  89726078.162 6  21912002.799                    21912021.784  
      2795.492        2178.387          46.000          41.000  
 24  1 10  3 21 16.6000000  0  8G08G24G18G23G16G10G15G32
 128574654.048 5 100188126.362 5  24466956.085                    24466976.675  
      2806.289        2186.789          35.000          35.000  
 127992759.813 6  99734710.411 6  24356213.661                    24356233.493  
       212.137         165.793          39.000          39.000  
 113034368.143 6  88078792.442 7  21509726.731                    21509742.677  
     -1863.887       -1452.613          40.000          42.000  
 109715964.614 7  85493016.876 7  20878255.160                    20878269.851  
     -1841.492       -1434.758          45.000          43.000  
 127959852.527 6  99709102.619 3  24349957.980    24349981.668                  
     -2291.258       -1785.473          36.000          19.000  
 107495103.482 7  83762486.181 7  20455639.471                    20455655.455  
        42.137          33.004          47.000          44.000  
 127102131.013 5  99040696.596 6  24186735.526                    24186753.028  
     -3379.152       -2633.543          35.000          38.000  
 115148075.406 7  89725860.355 6  21911949.778                    21911968.726  
      2795.344        2177.895          46.000          41.000  
 24  1 10  3 21 16.7000000  0  8G08G24G18G23G16G10G15G32
 128574373.403 5 100187907.720 5  24466902.680                    24466923.280  
      2806.402        2186.578          35.000          35.000  
 127992738.560 6  99734693.839 6  24356209.617                    24356229.446  
       212.363         165.734          39.000          39.000  
 113034554.643 6  88078937.723 7  21509762.220                    21509778.156  
     -1864.160       -1452.137          41.000          42.000  
 109716148.758 7  85493160.380 7  20878290.202                    20878304.896  
     -1841.391       -1434.961          45.000          44.000  
 127960081.726 6  99709281.218 3  24350001.595    24350025.284                  
     -2291.605       -1785.852          36.000          18.000  
 107495099.290 7  83762482.924 7  20455638.674                    20455654.660  
        42.094          32.641          47.000          44.000  
 127102468.917 5  99040959.857 6  24186799.827                    24186817.320  
     -3379.113       -2632.766          34.000          38.000  
 115147795.911 7  89725642.565 6  21911896.592                    21911915.539  
      2795.145        2178.062          46.000          41.000  
 24  1 10  3 21 16.8000000  0  8G08G24G18G23G16G10G15G32
 128574092.836 5 100187689.070 5  24466849.079                    24466869.954  
      2806.047        2186.422          35.000          35.000  
 127992717.276 6  99734677.312 6  24356205.520                    24356225.340  
       212.680         165.410          38.000          39.000  
 113034740.925 6  88079082.890 7  21509797.919                    21509813.654  
     -1863.668       -1452.258          40.000          42.000  
 109716332.898 7  85493303.846 7  20878325.242                    20878339.815  
     -1841.586       -1434.941          45.000          43.000  
 127960310.867 5  99709459.777 3  24350045.309    24350068.890                  
     -2291.496       -1785.621          35.000          18.000  
 107495095.089 8  83762479.666 7  20455637.866                    20455653.880  
        41.961          32.621          48.000          44.000  
 127102806.829 5  99041223.154 6  24186863.856                    24186881.596  
     -3379.055       -2633.105          35.000          38.000  
 115147516.391 7  89725424.738 6  21911843.550                    21911861.898  
      2795.102        2177.961          46.000          41.000  
 24  1 10  3 21 16.9000000  0  8G08G24G18G23G16G10G15G32
 128573812.190 5 100187470.412 5  24466795.674                    24466816.555  
      2806.328        2186.621          35.000          35.000  
 127992695.896 6  99734660.697 6  24356201.451                    24356221.283  
       213.277         165.988          37.000          39.000  
 113034927.267 6  88079228.123 7  21509833.378                    21509849.122  
     -1863.344       -1451.867          41.000          42.000  
 109716516.967 7  85493447.297 7  20878360.269                    20878374.847  
     -1840.871       -1434.441          45.000          43.000  
 127960540.048 6  99709638.359 3  24350088.920    24350112.502                  
     -2291.566       -1785.621          36.000          18.000  
 107495090.839 7  83762476.358 7  20455637.058                    20455653.072  
        42.324          33.082          47.000          44.000  
 127103144.682 5  99041486.448 6  24186928.148                    24186945.895  
     -3378.766       -2632.668          35.000          38.000  
 115147236.880 7  89725206.954 6  21911790.361                    21911808.713  
      2795.223        2178.137          46.000          41.000  
 24  1 10  3 21 17.0000000  0  8G08G24G18G23G16G10G15G32
 128573531.595 5 100187251.765 5  24466742.208                    24466763.198  
      2806.020        2186.527          35.000          35.000  
 127992674.517 6  99734644.147 6  24356196.602                    24356217.796  
       213.316         165.402          37.000          40.000  
 113035113.554 6  88079373.265 7  21509869.093                    21509884.254  
     -1863.391       -1452.047          41.000          42.000  
 109716701.080 7  85493590.772 7  20878395.391                    20878409.783  
     -1840.926       -1434.359          45.000          44.000  
 127960769.281 5  99709816.981 3  24350132.276    24350156.162                  
     -2292.113       -1786.383          35.000          18.000  
 107495086.633 8  83762473.055 7  20455636.374                    20455652.469  
        42.203          33.016          48.000          44.000  
 127103482.559 5  99041749.708 6  24186992.404                    24187010.131  
     -3378.746       -2632.727          35.000          38.000  
 115146957.367 7  89724989.144 6  21911737.046                    21911755.491  
      2795.090        2177.914          46.000          41.000  
 24  1 10  3 21 17.1000000  0  8G08G24G18G23G16G10G15G32
 128573250.974 5 100187033.089 5  24466688.808                    24466709.796  
      2806.207        2186.680          35.000          35.000  
 127992653.353 6  99734627.586 6  24356192.574                    24356213.751  
       212.547         165.742          37.000          40.000  
 113035299.988 6  88079518.572 7  21509904.570                    21509919.740  
     -1863.551       -1451.867          40.000          42.000  
 109716885.158 7  85493734.164 7  20878430.420                    20878444.801  
     -1840.988       -1434.348          45.000          44.000  
 127960998.452 5  99709995.560 3  24350175.886    24350199.773                  
     -2291.797       -1785.762          35.000          19.000  
 107495082.404 8  83762469.783 7  20455635.570                    20455651.670  
        42.266          32.785          48.000          44.000  
 127103820.412 5  99042012.976 6  24187056.696                    24187074.424  
     -3378.480       -2632.688          35.000          38.000  
 115146677.877 7  89724771.386 6  21911683.861                    21911702.312  
      2795.133        2177.738          46.000          41.000  
 24  1 10  3 21 17.2000000  0  8G08G24G18G23G16G10G15G32
 128572970.363 5 100186814.415 5  24466635.550                    24466656.213  
      2806.207        2186.578          35.000          35.000  
 127992632.090 6  99734610.969 6  24356188.364                    24356210.052  
       212.602         166.004          37.000          39.000  
 113035486.298 6  88079663.711 7  21509939.938                    21509955.137  
     -1863.547       -1452.219          40.000          42.000  
 109717069.246 7  85493877.624 7  20878465.466                    20878479.945  
     -1840.938       -1434.731          45.000          44.000  
 127961227.673 5  99710174.174 3  24350219.740    24350243.439                  
     -2292.176       -1786.336          35.000          18.000  
 107495078.204 8  83762466.510 7  20455634.403                    20455650.956  
        42.113          32.770          48.000          44.000  
 127104158.212 6  99042276.204 6  24187120.735                    24187138.527  
     -3378.426       -2632.414          36.000          38.000  
 115146398.413 7  89724553.577 6  21911630.603                    21911649.355  
      2794.754        2177.656          46.000          41.000  
 24  1 10  3 21 17.3000000  0  8G08G24G18G23G16G10G15G32
 128572689.805 5 100186595.790 5  24466582.161                    24466602.823  
      2805.762        2186.324          35.000          35.000  
 127992610.865 6  99734594.351 6  24356184.325                    24356205.994  
       212.438         166.254          37.000          39.000  
 113035672.681 6  88079808.976 7  21509975.405                    21509990.612  
     -1863.465       -1452.266          41.000          42.000  
 109717253.363 7  85494021.118 7  20878500.502                    20878514.987  
     -1841.066       -1434.633          45.000          44.000  
 127961456.992 5  99710352.866 3  24350263.378    24350287.078                  
     -2292.469       -1786.430          35.000          18.000  
 107495074.045 8  83762463.258 7  20455633.612                    20455650.162  
        41.789          32.387          48.000          44.000  
 127104496.083 5  99042539.486 6  24187185.029                    24187202.823  
     -3378.558       -2632.828          35.000          38.000  
 115146118.986 7  89724335.854 6  21911577.429                    21911596.185  
      2794.402        2177.086          46.000          41.000  
 24  1 10  3 21 17.4000000  0  8G08G24G18G23G16G10G15G32
 128572409.226 5 100186377.102 5  24466528.949                    24466549.511  
      2805.898        2187.000          35.000          35.000  
 127992589.629 6  99734577.791 6  24356180.331                    24356201.239  
       212.465         165.684          37.000          38.000  
 113035859.104 6  88079954.235 7  21510011.357                    21510026.031  
     -1864.039       -1452.723          41.000          42.000  
 109717437.476 7  85494164.533 7  20878535.155                    20878550.417  
     -1841.102       -1434.570          45.000          44.000  
 127961686.246 5  99710531.510 2  24350306.964    24350330.681                  
     -2292.574       -1786.539          35.000          17.000  
 107495069.875 8  83762460.014 7  20455633.021                    20455649.237  
        41.730          32.340          48.000          44.000  
 127104833.896 5  99042802.756 6  24187249.024                    24187267.319  
     -3378.270       -2632.508          35.000          38.000  
 115145839.563 7  89724118.132 6  21911524.234                    21911543.062  
      2794.227        2177.094          46.000          41.000  
 24  1 10  3 21 17.5000000  0  8G08G24G18G23G16G10G15G32
 128572128.571 5 100186158.467 5  24466475.542                    24466496.118  
      2806.219        2186.379          35.000          35.000  
 127992568.294 6  99734561.244 6  24356176.271                    24356197.198  
       212.961         165.746          37.000          38.000  
 113036045.457 6  88080099.446 7  21510046.819                    21510061.493  
     -1863.828       -1452.348          41.000          42.000  
 109717621.590 7  85494308.048 7  20878570.191                    20878585.465  
     -1841.133       -1434.789          45.000          44.000  
 127961915.512 5  99710710.149 2  24350350.592    24350374.306                  
     -2292.637       -1786.496          35.000          17.000  
 107495065.720 8  83762456.770 7  20455632.231                    20455648.445  
        41.625          32.383          48.000          44.000  
 127105171.761 6  99043065.969 6  24187313.318                    24187331.599  
     -3378.524       -2632.180          36.000          38.000  
 115145560.189 7  89723900.450 6  21911471.070                    21911489.902  
      2794.035        2177.086          46.000          41.000  
 24  1 10  3 21 17.6000000  0  8G08G24G18G23G16G10G15G32
 128571847.988 5 100185939.814 6  24466422.305                    24466442.440  
      2806.078        2186.539          35.000          36.000  
 127992546.922 6  99734544.587 6  24356171.571                    24356192.333  
       213.309         166.445          37.000          38.000  
 113036231.859 6  88080244.680 7  21510082.806                    21510096.789  
     -1863.926       -1452.410          41.000          42.000  
 109717805.677 7  85494451.479 7  20878605.518                    20878620.328  
     -1840.930       -1434.477          45.000          44.000  
 127962144.835 5  99710888.839 3  24350394.035    24350417.944                  
     -2292.910       -1786.727          35.000          18.000  
 107495061.554 8  83762453.536 7  20455631.633                    20455647.553  
        41.570          32.336          48.000          44.000  
 127105509.543 5  99043329.189 6  24187377.603                    24187395.919  
     -3378.106       -2632.172          35.000          38.000  
 115145280.814 7  89723682.748 6  21911417.798                    21911436.823  
      2793.957        2177.125          46.000          41.000  
 24  1 10  3 21 17.7000000  0  8G08G24G18G23G16G10G15G32
 128571567.344 5 100185721.137 6  24466368.900                    24466389.036  
      2806.199        2186.750          35.000          36.000  
 127992525.597 6  99734527.974 6  24356167.513                    24356188.276  
       213.336         166.160          37.000          38.000  
 113036418.230 6  88080389.904 7  21510118.271                    21510132.255  
     -1863.707       -1452.047          41.000          42.000  
 109717989.770 7  85494594.942 7  20878640.550                    20878655.363  
     -1840.926       -1434.547          45.000          44.000  
 127962374.062 5  99711067.460 2  24350437.656    24350461.565                  
     -2292.691       -1786.547          35.000          17.000  
 107495057.384 8  83762450.290 7  20455630.840                    20455646.761  
        41.715          32.469          48.000          45.000  
 127105847.382 6  99043592.394 6  24187441.892                    24187460.196  
     -3378.308       -2632.074          36.000          38.000  
 115145001.414 7  89723465.056 6  21911364.630                    21911383.660  
      2793.855        2176.773          46.000          41.000  
 24  1 10  3 21 17.8000000  0  8G08G24G18G23G16G10G15G32
 128571286.760 5 100185502.472 6  24466315.343                    24466335.988  
      2806.172        2186.703          35.000          36.000  
 127992504.356 6  99734511.358 6  24356163.362                    24356184.812  
       212.684         165.840          38.000          38.000  
 113036604.680 6  88080535.147 7  21510153.790                    21510167.443  
     -1864.227       -1452.660          41.000          42.000  
 109718173.866 7  85494738.385 7  20878675.645                    20878690.745  
     -1840.996       -1434.543          45.000          44.000  
 127962603.413 5  99711246.173 2  24350481.425    24350505.193                  
     -2292.992       -1786.887          35.000          17.000  
 107495053.249 8  83762447.059 7  20455629.998                    20455646.253  
        41.535          32.465          48.000          44.000  
 127106185.185 5  99043855.659 6  24187506.431                    24187524.332  
     -3378.270       -2632.438          35.000          38.000  
 115144722.075 7  89723247.371 6  21911311.551                    21911330.577  
      2793.594        2176.852          46.000          41.000  
 24  1 10  3 21 17.9000000  0  8G08G24G18G23G16G10G15G32
 128571006.109 5 100185283.821 6  24466261.937                    24466282.591  
      2806.242        2186.551          35.000          36.000  
 127992483.100 6  99734494.793 6  24356159.317                    24356180.767  
       212.723         165.867          38.000          38.000  
 113036791.066 6  88080680.454 7  21510189.258                    21510202.928  
     -1863.977       -1452.629          41.000          42.000  
 109718357.947 7  85494881.837 7  20878710.674                    20878725.778  
     -1840.805       -1434.344          45.000          44.000  
 127962832.711 5  99711424.845 3  24350525.059    24350548.827                  
     -2292.957       -1786.676          35.000          18.000  
 107495049.062 8  83762443.802 7  20455629.202                    20455645.458  
        41.672          32.461          48.000          45.000  
 127106522.895 5  99044118.859 6  24187570.695                    24187588.608  
     -3377.609       -2632.281          34.000          38.000  
 115144442.723 7  89723029.688 6  21911258.392                    21911277.417  
      2793.609        2176.695          46.000          41.000  
 24  1 10  3 21 18.0000000  0  8G08G24G18G23G16G10G15G32
 128570725.479 5 100185065.142 6  24466208.730                    24466229.687  
      2806.449        2186.750          35.000          36.000  
 127992461.811 6  99734478.234 6  24356155.516                    24356176.645  
       212.797         165.512          39.000          37.000  
 113036977.405 6  88080825.602 7  21510224.092                    21510238.109  
     -1863.828       -1451.859          41.000          42.000  
 109718542.015 7  85495025.246 7  20878745.600                    20878760.768  
     -1840.719       -1434.023          45.000          44.000  
 127963061.990 5  99711603.494 3  24350568.494    24350592.455                  
     -2292.832       -1786.457          35.000          18.000  
 107495044.856 8  83762440.517 7  20455628.300                    20455644.687  
        41.879          32.758          48.000          44.000  
 127106860.735 5  99044382.065 6  24187635.188                    24187652.472  
     -3378.121       -2631.906          35.000          38.000  
 115144163.320 7  89722811.994 6  21911205.302                    21911224.472  
      2793.863        2177.156          46.000          41.000  
 24  1 10  3 21 18.1000000  0  8G08G24G18G23G16G10G15G32
 128570444.820 5 100184846.472 6  24466155.322                    24466176.286  
      2806.328        2186.625          34.000          36.000  
 127992440.534 6  99734461.635 6  24356151.467                    24356172.591  
       212.844         166.008          39.000          38.000  
 113037163.750 6  88080970.869 7  21510259.553                    21510273.585  
     -1863.359       -1452.231          41.000          42.000  
 109718726.053 7  85495168.685 7  20878780.621                    20878795.798  
     -1840.496       -1434.523          45.000          44.000  
 127963291.206 5  99711782.091 3  24350612.112    24350636.070                  
     -2292.473       -1786.035          35.000          18.000  
 107495040.658 8  83762437.268 7  20455627.501                    20455643.893  
        41.957          32.770          48.000          44.000  
 127107198.524 5  99044645.271 6  24187699.467                    24187716.749  
     -3377.754       -2632.141          35.000          38.000  
 115143883.926 7  89722594.269 6  21911152.135                    21911171.302  
      2793.891        2177.262          46.000          41.000  
 24  1 10  3 21 18.2000000  0  8G08G24G18G23G16G10G15G32
 128570164.229 5 100184627.762 6  24466101.771                    24466123.031  
      2806.242        2186.980          34.000          36.000  
 127992419.226 6  99734445.025 6  24356147.709                    24356168.465  
       213.078         166.062          38.000          38.000  
 113037350.155 6  88081116.046 7  21510294.462                    21510308.781  
     -1863.973       -1451.926          40.000          42.000  
 109718910.098 7  85495312.055 7  20878815.784                    20878830.333  
     -1840.582       -1433.934          45.000          43.000  
 127963520.488 5  99711960.744 3  24350655.423    24350679.714                  
     -2292.746       -1786.535          35.000          18.000  
 107495036.448 7  83762433.980 7  20455626.785                    20455642.949  
        42.168          32.863          47.000          44.000  
 127107536.284 5  99044908.492 6  24187763.951                    24187781.163  
     -3377.758       -2632.332          34.000          38.000  
 115143604.512 7  89722376.564 6  21911098.972                    21911118.448  
      2794.105        2177.172          46.000          41.000  
 24  1 10  3 21 18.3000000  0  8G08G24G18G23G16G10G15G32
 128569883.602 5 100184409.145 6  24466048.370                    24466069.642  
      2806.301        2186.312          34.000          36.000  
 127992397.903 6  99734428.426 6  24356143.651                    24356164.411  
       213.242         165.770          36.000          38.000  
 113037536.477 6  88081261.272 7  21510329.918                    21510344.247  
     -1863.309       -1451.961          40.000          42.000  
 109719094.163 7  85495455.483 7  20878850.811                    20878865.360  
     -1840.574       -1434.199          45.000          43.000  
 127963749.806 5  99712139.422 2  24350699.061    24350723.349                  
     -2293.023       -1786.910          35.000          17.000  
 107495032.276 7  83762430.730 7  20455625.992                    20455642.156  
        41.930          32.531          47.000          44.000  
 127107874.078 5  99045171.684 6  24187828.231                    24187845.437  
     -3377.660       -2632.043          34.000          38.000  
 115143325.115 7  89722158.857 6  21911045.805                    21911065.282  
      2794.016        2176.957          46.000          41.000  
 24  1 10  3 21 18.4000000  0  8G08G24G18G23G16G10G15G32
 128569602.978 5 100184190.481 6  24465994.781                    24466016.399  
      2806.211        2186.734          34.000          36.000  
 127992376.607 6  99734411.848 6  24356139.279                    24356160.316  
       212.809         165.770          36.000          38.000  
 113037722.897 6  88081406.532 7  21510364.924                    21510379.932  
     -1863.836       -1452.598          40.000          42.000  
 109719278.281 7  85495598.984 7  20878885.761                    20878899.662  
     -1840.801       -1434.875          45.000          43.000  
 127963979.049 5  99712318.049 3  24350742.653    24350766.972                  
     -2292.516       -1786.055          35.000          18.000  
 107495028.108 7  83762427.487 7  20455624.847                    20455640.926  
        41.719          32.387          47.000          44.000  
 127108211.900 5  99045434.937 6  24187892.321                    24187909.828  
     -3378.125       -2632.352          35.000          37.000  
 115143045.734 7  89721941.142 6  21910992.742                    21911011.864  
      2793.832        2177.020          46.000          41.000  
 24  1 10  3 21 18.5000000  0  8G08G24G18G23G16G10G15G32
 128569322.464 5 100183971.850 6  24465941.401                    24465963.006  
      2805.551        2186.160          35.000          36.000  
 127992355.440 6  99734395.316 6  24356135.251                    24356156.278  
       212.328         165.512          37.000          38.000  
 113037909.328 6  88081551.802 7  21510400.400                    21510415.408  
     -1864.387       -1452.887          40.000          42.000  
 109719462.449 7  85495742.489 7  20878920.807                    20878934.708  
     -1841.375       -1435.027          45.000          43.000  
 127964208.360 6  99712496.731 3  24350786.289    24350810.608                  
     -2293.086       -1787.078          36.000          18.000  
 107495024.036 7  83762424.312 7  20455624.072                    20455640.151  
        41.152          31.715          47.000          44.000  
 127108549.785 5  99045698.216 6  24187956.619                    24187974.124  
     -3378.500       -2632.715          34.000          37.000  
 115142766.397 7  89721723.487 6  21910939.586                    21910958.710  
      2793.555        2176.637          46.000          41.000  
 24  1 10  3 21 18.6000000  0  8G08G24G18G23G16G10G15G32
 128569041.887 5 100183753.258 6  24465887.759                    24465908.991  
      2805.883        2186.426          35.000          36.000  
 127992334.231 6  99734378.781 6  24356130.808                    24356152.037  
       212.324         165.348          37.000          38.000  
 113038095.757 6  88081697.120 7  21510436.111                    21510451.115  
     -1864.141       -1452.926          41.000          42.000  
 109719646.579 7  85495885.939 7  20878955.830                    20878969.825  
     -1841.551       -1434.902          45.000          43.000  
 127964437.676 6  99712675.414 3  24350830.075    24350854.275                  
     -2292.930       -1786.605          36.000          18.000  
 107495019.909 7  83762421.071 7  20455623.349                    20455639.602  
        41.012          32.062          47.000          44.000  
 127108887.655 5  99045961.477 6  24188020.483                    24188038.196  
     -3378.590       -2632.586          34.000          38.000  
 115142487.034 7  89721505.790 6  21910886.432                    21910905.507  
      2793.594        2176.938          46.000          41.000  
 24  1 10  3 21 18.7000000  0  8G08G24G18G23G16G10G15G32
 128568761.292 5 100183534.616 6  24465834.364                    24465855.597  
      2805.816        2186.004          35.000          36.000  
 127992312.980 6  99734362.192 6  24356126.765                    24356147.986  
       212.297         165.809          37.000          38.000  
 113038282.226 6  88081842.373 7  21510471.595                    21510486.587  
     -1864.566       -1452.754          40.000          42.000  
 109719830.750 7  85496029.462 7  20878990.877                    20879004.875  
     -1841.355       -1434.848          45.000          43.000  
 127964666.909 6  99712854.039 3  24350873.697    24350897.897                  
     -2292.641       -1786.344          36.000          18.000  
 107495015.799 8  83762417.897 7  20455622.567                    20455638.827  
        41.273          32.055          48.000          44.000  
 127109225.520 5  99046224.752 6  24188084.777                    24188102.490  
     -3378.558       -2632.742          34.000          38.000  
 115142207.671 7  89721288.100 6  21910833.272                    21910852.345  
      2793.656        2176.668          46.000          41.000  
 24  1 10  3 21 18.8000000  0  8G08G24G18G23G16G10G15G32
 128568480.771 5 100183315.981 6  24465781.037                    24465802.352  
      2804.988        2186.094          35.000          36.000  
 127992291.810 6  99734345.686 6  24356122.923                    24356143.932  
       211.742         165.160          37.000          38.000  
 113038468.731 6  88081987.716 7  21510507.117                    21510522.691  
     -1864.820       -1453.285          40.000          42.000  
 109720014.953 7  85496172.979 7  20879025.641                    20879040.150  
     -1842.055       -1435.359          45.000          43.000  
 127964896.195 6  99713032.706 3  24350917.258    24350941.561                  
     -2292.684       -1786.531          36.000          18.000  
 107495011.738 8  83762414.735 7  20455621.990                    20455638.265  
        40.594          31.641          48.000          44.000  
 127109563.411 5  99046488.031 6  24188148.919                    24188166.833  
     -3379.090       -2632.820          33.000          38.000  
 115141928.366 7  89721070.491 6  21910780.090                    21910798.781  
      2793.086        2176.453          46.000          41.000  
 24  1 10  3 21 18.9000000  0  8G08G24G18G23G16G10G15G32
 128568200.242 5 100183097.424 6  24465727.654                    24465748.978  
      2805.328        2185.551          35.000          36.000  
 127992270.738 6  99734329.230 6  24356118.914                    24356139.913  
       211.148         164.883          38.000          38.000  
 113038655.289 6  88082133.049 7  21510542.618                    21510558.183  
     -1865.656       -1453.641          41.000          42.000  
 109720199.228 7  85496316.607 7  20879060.707                    20879075.226  
     -1842.605       -1435.949          45.000          43.000  
 127965125.537 6  99713211.419 3  24350960.900    24350985.204                  
     -2293.324       -1787.074          36.000          18.000  
 107495007.715 8  83762411.585 7  20455621.224                    20455637.496  
        40.129          31.270          48.000          44.000  
 127109901.342 5  99046751.385 6  24188213.225                    24188231.146  
     -3379.367       -2633.242          33.000          38.000  
 115141649.103 7  89720852.859 6  21910726.948                    21910745.633  
      2792.699        2176.125          46.000          41.000  
 24  1 10  3 21 19.0000000  0  8G08G24G18G23G16G10G15G32
 128567919.711 5 100182878.836 5  24465674.568                    24465695.425  
      2805.410        2185.703          35.000          35.000  
 127992249.524 6  99734312.794 6  24356115.400                    24356136.290  
       211.797         164.223          39.000          37.000  
 113038841.879 6  88082278.475 7  21510578.539                    21510593.994  
     -1865.422       -1453.859          41.000          42.000  
 109720383.471 7  85496460.136 7  20879095.791                    20879110.425  
     -1842.445       -1435.777          45.000          43.000  
 127965354.882 5  99713390.142 3  24351004.535    24351028.835                  
     -2293.113       -1786.855          35.000          18.000  
 107495003.716 8  83762408.453 7  20455620.276                    20455636.606  
        40.184          31.254          48.000          44.000  
 127110239.298 5  99047014.713 6  24188277.263                    24188296.047  
     -3379.344       -2633.277          34.000          38.000  
 115141369.834 7  89720635.227 6  21910673.774                    21910692.555  
      2792.805        2175.914          46.000          41.000  
 24  1 10  3 21 19.1000000  0  8G08G24G18G23G16G10G15G32
 128567639.206 5 100182660.229 5  24465621.189                    24465642.039  
      2805.160        2186.133          35.000          35.000  
 127992228.415 6  99734296.369 6  24356111.383                    24356132.279  
       211.316         164.469          39.000          37.000  
 113039028.463 6  88082423.798 7  21510614.044                    21510629.484  
     -1866.031       -1454.039          41.000          42.000  
 109720567.793 7  85496603.768 7  20879130.866                    20879145.502  
     -1842.840       -1436.109          45.000          44.000  
 127965584.148 6  99713568.789 3  24351048.163    24351072.462                  
     -2292.906       -1786.613          36.000          18.000  
 107494999.730 8  83762405.367 7  20455619.517                    20455635.853  
        40.062          31.020          48.000          44.000  
 127110577.250 5  99047278.073 6  24188341.573                    24188360.363  
     -3379.484       -2633.629          34.000          38.000  
 115141090.573 7  89720417.635 6  21910620.632                    21910639.417  
      2792.605        2176.164          46.000          41.000  
 24  1 10  3 21 19.2000000  0  8G08G24G18G23G16G10G15G32
 128567358.681 6 100182441.658 5  24465567.424                    24465588.451  
      2805.254        2185.879          36.000          35.000  
 127992207.361 6  99734279.971 6  24356108.166                    24356128.266  
       210.930         164.039          39.000          37.000  
 113039215.039 6  88082569.248 7  21510649.673                    21510664.598  
     -1865.707       -1454.070          41.000          42.000  
 109720752.093 7  85496747.408 7  20879165.968                    20879180.635  
     -1842.836       -1436.191          45.000          44.000  
 127965813.479 6  99713747.492 2  24351091.726    24351116.119                  
     -2293.172       -1787.016          36.000          17.000  
 107494995.777 8  83762402.276 7  20455618.788                    20455634.918  
        39.723          30.863          48.000          44.000  
 127110915.199 5  99047541.398 6  24188406.344                    24188425.091  
     -3379.445       -2633.301          34.000          38.000  
 115140811.329 7  89720200.039 6  21910567.892                    21910586.270  
      2792.422        2175.848          46.000          41.000  
 24  1 10  3 21 19.3000000  0  8G08G24G18G23G16G10G15G32
 128567078.120 6 100182223.041 5  24465514.035                    24465535.062  
      2805.438        2186.004          36.000          35.000  
 127992186.294 6  99734263.555 6  24356104.157                    24356124.257  
       210.883         164.117          38.000          37.000  
 113039401.792 6  88082714.720 7  21510685.211                    21510700.123  
     -1866.652       -1454.340          41.000          42.000  
 109720936.397 7  85496891.018 7  20879201.040                    20879215.706  
     -1842.992       -1436.180          45.000          44.000  
 127966042.684 6  99713926.097 3  24351135.342    24351159.736                  
     -2292.641       -1786.328          36.000          18.000  
 107494991.788 8  83762399.164 7  20455618.029                    20455634.158  
        39.793          30.918          48.000          44.000  
 127111253.153 5  99047804.719 6  24188470.654                    24188489.397  
     -3379.633       -2633.234          34.000          38.000  
 115140532.107 7  89719982.476 6  21910514.758                    21910533.139  
      2792.520        2175.777          46.000          41.000  
 24  1 10  3 21 19.4000000  0  8G08G24G18G23G16G10G15G32
 128566797.589 6 100182004.436 5  24465460.496                    24465481.856  
      2805.391        2185.938          36.000          35.000  
 127992165.176 6  99734247.111 6  24356100.146                    24356120.038  
       210.965         164.500          37.000          38.000  
 113039588.351 6  88082860.079 7  21510720.361                    21510735.778  
     -1866.039       -1453.977          40.000          42.000  
 109721120.706 7  85497034.617 7  20879236.199                    20879251.024  
     -1843.062       -1436.090          45.000          44.000  
 127966272.039 6  99714104.810 3  24351179.330    24351203.356                  
     -2292.930       -1786.688          36.000          18.000  
 107494987.820 7  83762396.087 7  20455617.212                    20455633.454  
        39.789          30.938          47.000          44.000  
 127111591.139 5  99048068.117 6  24188535.306                    24188553.932  
     -3379.777       -2633.836          34.000          38.000  
 115140252.883 7  89719764.921 6  21910461.460                    21910480.338  
      2792.395        2175.676          46.000          41.000  
 24  1 10  3 21 19.5000000  0  8G08G24G18G23G16G10G15G32
 128566517.058 6 100181785.887 5  24465407.113                    24465428.485  
      2805.184        2185.766          36.000          35.000  
 127992144.177 6  99734230.691 6  24356096.150                    24356116.029  
       210.457         164.203          37.000          39.000  
 113039774.998 6  88083005.574 7  21510755.879                    21510771.309  
     -1866.340       -1454.672          41.000          42.000  
 109721305.033 7  85497178.224 7  20879271.275                    20879286.094  
     -1843.176       -1436.242          45.000          44.000  
 127966501.307 6  99714283.456 3  24351222.958    24351246.983                  
     -2292.918       -1786.680          36.000          18.000  
 107494983.873 8  83762393.017 7  20455616.461                    20455632.704  
        39.633          30.840          48.000          44.000  
 127111929.079 5  99048331.466 6  24188599.614                    24188618.245  
     -3379.254       -2633.766          34.000          38.000  
 115139973.659 7  89719547.323 6  21910408.325                    21910427.198  
      2792.285        2175.926          46.000          41.000  
 24  1 10  3 21 19.6000000  0  8G08G24G18G23G16G10G15G32
 128566236.523 5 100181567.260 5  24465353.432                    24465374.898  
      2805.359        2186.062          35.000          35.000  
 127992123.121 6  99734214.265 6  24356091.721                    24356112.540  
       210.555         164.266          37.000          39.000  
 113039961.676 6  88083150.986 7  21510791.480                    21510806.390  
     -1866.500       -1454.039          41.000          42.000  
 109721489.347 7  85497321.883 7  20879306.583                    20879321.162  
     -1843.164       -1436.445          45.000          43.000  
 127966730.583 6  99714462.109 2  24351266.151    24351290.534                  
     -2292.750       -1786.402          36.000          17.000  
 107494979.885 8  83762389.916 7  20455615.998                    20455632.087  
        39.746          30.965          48.000          44.000  
 127112267.134 5  99048594.854 6  24188663.866                    24188682.090  
     -3380.125       -2633.793          34.000          38.000  
 115139694.401 7  89719329.715 6  21910354.981                    21910374.103  
      2792.414        2175.871          46.000          41.000  
 24  1 10  3 21 19.7000000  0  8G08G24G18G23G16G10G15G32
 128565956.028 5 100181348.700 5  24465300.055                    24465321.524  
      2805.129        2186.266          35.000          35.000  
 127992102.006 6  99734197.846 6  24356087.703                    24356108.531  
       210.793         164.270          38.000          39.000  
 113040148.156 6  88083296.362 7  21510826.966                    21510841.893  
     -1865.594       -1453.785          41.000          42.000  
 109721673.588 7  85497465.466 7  20879341.643                    20879356.226  
     -1842.695       -1435.789          45.000          43.000  
 127966959.907 6  99714640.790 2  24351309.790    24351334.170                  
     -2293.043       -1786.812          36.000          17.000  
 107494975.856 7  83762386.770 7  20455615.232                    20455631.319  
        40.129          31.590          47.000          44.000  
 127112605.085 5  99048858.181 6  24188728.176                    24188746.397  
     -3379.680       -2633.164          34.000          37.000  
 115139415.089 7  89719112.096 6  21910301.830                    21910320.959  
      2792.773        2176.332          46.000          41.000  
 24  1 10  3 21 19.8000000  0  8G08G24G18G23G16G10G15G32
 128565675.487 5 100181130.101 5  24465246.381                    24465268.108  
      2805.301        2185.816          35.000          35.000  
 127992080.946 6  99734181.396 6  24356083.540                    24356105.139  
       210.754         164.285          38.000          39.000  
 113040334.741 6  88083441.743 7  21510862.808                    21510877.623  
     -1865.781       -1453.867          41.000          42.000  
 109721857.848 7  85497608.993 7  20879376.379                    20879391.238  
     -1842.617       -1435.551          45.000          44.000  
 127967189.161 6  99714819.421 2  24351353.470    24351377.739                  
     -2292.746       -1786.363          36.000          17.000  
 107494971.797 7  83762383.599 7  20455614.405                    20455630.615  
        40.383          31.633          47.000          44.000  
 127112943.115 5  99049121.525 6  24188792.649                    24188810.513  
     -3379.942       -2633.480          35.000          37.000  
 115139135.784 7  89718894.443 6  21910248.531                    21910267.673  
      2792.961        2176.402          46.000          41.000  
 24  1 10  3 21 19.9000000  0  8G08G24G18G23G16G10G15G32
 128565394.941 5 100180911.506 5  24465192.995                    24465214.725  
      2805.488        2185.773          35.000          35.000  
 127992059.883 6  99734164.990 6  24356079.531                    24356101.132  
       210.664         164.254          38.000          39.000  
 113040521.331 6  88083587.118 7  21510898.315                    21510913.125  
     -1865.824       -1453.520          41.000          42.000  
 109722042.062 7  85497752.576 7  20879411.433                    20879426.302  
     -1842.250       -1435.512          45.000          44.000  
 127967418.372 6  99714998.019 3  24351397.087    24351421.354                  
     -2292.402       -1786.039          36.000          18.000  
 107494967.727 7  83762380.435 7  20455613.630                    20455629.842  
        40.652          31.828          47.000          44.000  
 127113280.982 5  99049384.888 6  24188856.943                    24188874.829  
     -3379.442       -2633.578          34.000          37.000  
 115138856.482 7  89718676.784 6  21910195.382                    21910214.518  
      2793.168        2176.941          46.000          41.000  
 24  1 10  3 21 20.0000000  0  8G08G24G18G23G16G10G15G32
 128565114.437 5 100180692.915 5  24465139.960                    24465161.523  
      2805.211        2185.738          35.000          35.000  
 127992038.856 6  99734148.577 6  24356075.835                    24356097.264  
       210.516         164.059          37.000          39.000  
 113040707.837 6  88083732.477 7  21510934.150                    21510948.865  
     -1865.363       -1453.695          41.000          42.000  
 109722226.314 7  85497896.129 7  20879446.574                    20879461.477  
     -1842.566       -1435.719          45.000          44.000  
 127967647.689 6  99715176.701 2  24351440.694    24351464.990                  
     -2292.914       -1786.859          36.000          17.000  
 107494963.686 7  83762377.278 7  20455612.635                    20455629.024  
        40.465          31.445          47.000          44.000  
 127113619.020 5  99049648.203 6  24188921.410                    24188939.399  
     -3379.938       -2633.461          35.000          37.000  
 115138577.148 7  89718459.134 6  21910142.133                    21910161.327  
      2793.113        2176.305          46.000          41.000  
 24  1 10  3 21 20.1000000  0  8G08G24G18G23G16G10G15G32
 128564833.913 6 100180474.326 5  24465086.579                    24465108.141  
      2805.293        2186.023          36.000          35.000  
 127992017.659 6  99734132.195 6  24356071.801                    24356093.264  
       211.309         163.922          38.000          39.000  
 113040894.460 6  88083877.857 7  21510969.663                    21510984.368  
     -1866.008       -1453.828          41.000          42.000  
 109722410.598 7  85498039.724 7  20879481.642                    20879496.544  
     -1842.633       -1435.727          45.000          44.000  
 127967876.907 6  99715355.301 3  24351484.313    24351508.606                  
     -2292.578       -1786.305          36.000          18.000  
 107494959.623 8  83762374.116 7  20455611.862                    20455628.252  
        40.465          31.496          48.000          44.000  
 127113956.984 5  99049911.599 6  24188985.723                    24189003.723  
     -3379.524       -2633.684          35.000          38.000  
 115138297.848 7  89718241.486 6  21910088.984                    21910108.175  
      2793.062        2176.516          46.000          41.000  
 24  1 10  3 21 20.2000000  0  8G08G24G18G23G16G10G15G32
 128564553.361 6 100180255.759 5  24465033.488                    24465054.882  
      2805.379        2185.523          36.000          35.000  
 127991996.581 6  99734115.733 6  24356067.759                    24356089.228  
       210.867         164.504          38.000          39.000  
 113041081.175 6  88084023.253 7  21511004.647                    21511019.774  
     -1866.461       -1453.969          40.000          42.000  
 109722594.816 7  85498183.244 7  20879516.470                    20879531.929  
     -1842.367       -1435.387          45.000          44.000  
 127968106.159 6  99715533.930 3  24351527.899    24351552.221                  
     -2292.434       -1786.098          36.000          18.000  
 107494955.586 8  83762370.959 7  20455611.046                    20455627.567  
        40.449          31.488          48.000          44.000  
 127114294.964 5  99050174.967 6  24189049.429                    24189067.197  
     -3379.770       -2633.754          35.000          38.000  
 115138018.535 7  89718023.842 6  21910035.754                    21910054.907  
      2793.074        2176.441          46.000          41.000  
 24  1 10  3 21 20.3000000  0  8G08G24G18G23G16G10G15G32
 128564272.850 6 100180037.141 5  24464980.109                    24465001.493  
      2805.344        2186.117          36.000          35.000  
 127991975.516 6  99734099.341 6  24356063.750                    24356085.225  
       210.875         163.910          38.000          39.000  
 113041267.606 6  88084168.558 7  21511040.123                    21511055.259  
     -1865.402       -1453.445          40.000          42.000  
 109722779.026 7  85498326.796 7  20879551.525                    20879566.986  
     -1842.383       -1435.832          45.000          44.000  
 127968335.442 6  99715712.592 3  24351571.530    24351595.852                  
     -2292.633       -1786.496          36.000          18.000  
 107494951.485 8  83762367.757 7  20455610.266                    20455626.785  
        40.707          31.879          48.000          44.000  
 127114632.946 5  99050438.305 6  24189113.745                    24189131.506  
     -3379.762       -2633.211          35.000          38.000  
 115137739.202 7  89717806.187 6  21909982.599                    21910001.753  
      2793.172        2176.402          46.000          41.000  
 24  1 10  3 21 20.4000000  0  8G08G24G18G23G16G10G15G32
 128563992.275 6 100179818.495 5  24464926.506                    24464947.895  
      2805.477        2186.465          36.000          35.000  
 127991954.446 6  99734082.910 6  24356059.850                    24356080.673  
       210.805         164.289          38.000          39.000  
 113041454.089 6  88084313.988 7  21511075.641                    21511090.509  
     -1864.875       -1453.555          41.000          42.000  
 109722963.226 7  85498470.404 7  20879586.913                    20879601.931  
     -1841.965       -1435.434          45.000          44.000  
 127968564.661 6  99715891.207 3  24351615.094    24351639.417                  
     -2292.457       -1786.336          36.000          18.000  
 107494947.395 8  83762364.583 7  20455609.910                    20455625.799  
        40.848          31.980          48.000          44.000  
 127114970.812 5  99050701.628 6  24189177.742                    24189196.000  
     -3379.301       -2633.387          35.000          38.000  
 115137459.886 7  89717588.515 6  21909929.337                    21909948.673  
      2793.230        2176.859          46.000          41.000  
 24  1 10  3 21 20.5000000  0  8G08G24G18G23G16G10G15G32
 128563711.743 5 100179599.891 5  24464873.123                    24464894.509  
      2805.270        2185.926          35.000          35.000  
 127991933.377 6  99734066.521 6  24356055.841                    24356076.671  
       210.590         164.129          38.000          39.000  
 113041640.641 6  88084459.370 7  21511111.141                    21511126.013  
     -1865.191       -1453.578          40.000          42.000  
 109723147.417 7  85498613.879 7  20879621.963                    20879636.969  
     -1841.977       -1435.094          45.000          44.000  
 127968793.930 6  99716069.865 3  24351658.722    24351683.047                  
     -2292.645       -1786.660          36.000          18.000  
 107494943.302 8  83762361.389 7  20455609.131                    20455625.019  
        40.879          31.672          48.000          45.000  
 127115308.834 5  99050964.975 6  24189242.065                    24189260.312  
     -3379.762       -2633.355          35.000          38.000  
 115137180.574 7  89717370.875 6  21909876.186                    21909895.524  
      2793.105        2176.281          46.000          41.000  
 24  1 10  3 21 20.6000000  0  8G08G24G18G23G16G10G15G32
 128563431.214 5 100179381.310 5  24464820.216                    24464840.825  
      2805.414        2186.000          35.000          35.000  
 127991912.312 6  99734050.115 6  24356051.512                    24356072.344  
       210.703         163.941          38.000          39.000  
 113041827.225 6  88084604.645 7  21511146.678                    21511161.639  
     -1865.848       -1453.598          40.000          42.000  
 109723331.620 7  85498757.371 7  20879656.781                    20879672.215  
     -1842.023       -1434.977          45.000          44.000  
 127969023.216 6  99716248.535 3  24351702.885    24351726.634                  
     -2292.570       -1786.387          36.000          18.000  
 107494939.201 8  83762358.195 7  20455608.405                    20455624.364  
        41.047          32.184          48.000          44.000  
 127115646.749 5  99051228.295 6  24189306.368                    24189324.750  
     -3379.504       -2633.250          34.000          38.000  
 115136901.262 7  89717153.255 6  21909823.363                    21909842.527  
      2793.105        2176.320          46.000          41.000  
 24  1 10  3 21 20.7000000  0  8G08G24G18G23G16G10G15G32
 128563150.631 5 100179162.639 5  24464766.823                    24464787.423  
      2805.672        2186.691          35.000          35.000  
 127991891.275 6  99734033.688 6  24356047.509                    24356068.332  
       210.535         164.387          37.000          39.000  
 113042013.715 6  88084750.018 7  21511182.166                    21511197.140  
     -1865.348       -1453.477          41.000          42.000  
 109723515.774 7  85498900.879 7  20879691.825                    20879707.261  
     -1841.738       -1435.117          45.000          44.000  
 127969252.466 5  99716427.174 3  24351746.510    24351770.259                  
     -2292.645       -1786.555          35.000          18.000  
 107494935.080 8  83762354.994 7  20455607.621                    20455623.582  
        41.094          32.055          48.000          44.000  
 127115984.631 5  99051491.620 6  24189370.665                    24189389.057  
     -3379.156       -2633.105          34.000          38.000  
 115136621.980 7  89716935.616 6  21909770.217                    21909789.377  
      2793.016        2176.383          46.000          41.000  
 24  1 10  3 21 20.8000000  0  8G08G24G18G23G16G10G15G32
 128562870.044 6 100178944.027 5  24464713.679                    24464733.927  
      2805.676        2186.117          36.000          35.000  
 127991870.214 6  99734017.233 6  24356043.337                    24356064.580  
       210.789         164.391          37.000          39.000  
 113042200.240 6  88084895.361 7  21511217.895                    21511232.799  
     -1865.023       -1453.098          41.000          42.000  
 109723699.872 7  85499044.359 7  20879727.099                    20879742.152  
     -1841.379       -1434.793          45.000          44.000  
 127969481.743 5  99716605.833 2  24351790.382    24351813.913                  
     -2292.711       -1786.617          35.000          17.000  
 107494930.933 8  83762351.735 7  20455606.464                    20455622.825  
        41.223          32.434          48.000          44.000  
 127116322.587 5  99051754.900 6  24189434.663                    24189452.962  
     -3379.402       -2632.883          33.000          38.000  
 115136342.671 7  89716717.956 6  21909717.238                    21909736.269  
      2793.082        2176.488          46.000          41.000  
 24  1 10  3 21 20.9000000  0  8G08G24G18G23G16G10G15G32
 128562589.472 5 100178725.410 5  24464660.288                    24464680.538  
      2805.691        2186.477          35.000          35.000  
 127991849.024 6  99734000.777 6  24356039.305                    24356060.561  
       211.238         164.551          36.000          39.000  
 113042386.752 6  88085040.663 7  21511253.387                    21511268.283  
     -1865.219       -1453.156          41.000          42.000  
 109723884.013 7  85499187.880 7  20879762.140                    20879777.201  
     -1841.297       -1435.012          45.000          44.000  
 127969711.056 5  99716784.517 2  24351834.019    24351857.549                  
     -2292.820       -1786.582          35.000          17.000  
 107494926.774 8  83762348.517 7  20455605.673                    20455622.039  
        41.469          32.227          48.000          44.000  
 127116660.444 5  99052018.187 6  24189498.955                    24189517.259  
     -3378.914       -2632.898          33.000          38.000  
 115136063.353 7  89716500.317 6  21909664.086                    21909683.120  
      2793.156        2176.336          46.000          41.000  
 24  1 10  3 21 21.0000000  0  8G08G24G18G23G16G10G15G32
 128562308.888 5 100178506.796 5  24464606.996                    24464627.181  
      2806.152        2186.184          35.000          35.000  
 127991827.943 6  99733984.286 6  24356034.863                    24356056.830  
       211.105         164.926          36.000          39.000  
 113042573.175 6  88085185.987 7  21511288.963                    21511304.077  
     -1864.141       -1453.102          41.000          42.000  
 109724068.071 7  85499331.258 7  20879797.415                    20879811.934  
     -1840.750       -1433.856          45.000          43.000  
 127969940.323 5  99716963.163 3  24351877.827    24351901.247                  
     -2293.051       -1786.770          35.000          18.000  
 107494922.583 8  83762345.259 7  20455604.641                    20455621.041  
        41.945          32.598          48.000          44.000  
 127116998.343 5  99052281.475 6  24189563.146                    24189582.080  
     -3378.629       -2632.805          34.000          38.000  
 115135784.005 7  89716282.650 6  21909610.771                    21909629.541  
      2793.512        2176.582          46.000          41.000  
 24  1 10  3 21 21.1000000  0  8G08G24G18G23G16G10G15G32
 128562028.292 5 100178288.135 5  24464553.601                    24464573.782  
      2805.586        2186.195          35.000          35.000  
 127991806.824 6  99733967.871 6  24356030.845                    24356052.822  
       211.398         164.145          36.000          39.000  
 113042759.624 6  88085331.232 7  21511324.443                    21511339.548  
     -1864.508       -1452.621          41.000          42.000  
 109724252.112 7  85499474.671 7  20879832.437                    20879846.957  
     -1840.438       -1434.137          45.000          43.000  
 127970169.584 5  99717141.811 2  24351921.454    24351944.874                  
     -2292.301       -1786.223          35.000          17.000  
 107494918.364 8  83762341.946 7  20455603.838                    20455620.232  
        42.328          32.969          48.000          44.000  
 127117336.164 5  99052544.742 6  24189627.431                    24189646.373  
     -3378.367       -2632.648          34.000          38.000  
 115135504.655 7  89716064.984 6  21909557.613                    21909576.385  
      2793.461        2176.738          46.000          41.000  
 24  1 10  3 21 21.2000000  0  8G08G24G18G23G16G10G15G32
 128561747.732 5 100178069.496 5  24464500.056                    24464520.271  
      2805.867        2186.445          35.000          35.000  
 127991785.717 6  99733951.469 6  24356026.234                    24356049.214  
       210.980         164.172          36.000          40.000  
 113042945.997 6  88085476.434 7  21511359.893                    21511374.898  
     -1864.461       -1452.715          41.000          42.000  
 109724436.153 7  85499618.101 7  20879867.764                    20879882.070  
     -1840.484       -1434.188          45.000          44.000  
 127970398.936 5  99717320.526 2  24351965.035    24351988.550                  
     -2293.113       -1787.039          35.000          17.000  
 107494914.151 7  83762338.677 7  20455603.701                    20455619.590  
        42.078          32.812          47.000          44.000  
 127117674.011 5  99052807.974 6  24189691.799                    24189710.540  
     -3378.644       -2632.340          34.000          38.000  
 115135225.354 7  89715847.317 6  21909504.010                    21909523.276  
      2793.289        2176.605          46.000          41.000  
 24  1 10  3 21 21.3000000  0  8G08G24G18G23G16G10G15G32
 128561467.130 5 100177850.878 5  24464446.659                    24464466.882  
      2805.723        2186.207          35.000          35.000  
 127991764.586 6  99733935.031 6  24356022.213                    24356045.200  
       211.324         164.387          36.000          40.000  
 113043132.531 6  88085621.811 7  21511395.390                    21511410.401  
     -1864.582       -1452.895          41.000          42.000  
 109724620.230 7  85499761.524 7  20879902.793                    20879917.095  
     -1840.793       -1434.629          45.000          44.000  
 127970628.264 5  99717499.230 2  24352008.675    24352032.191                  
     -2293.164       -1786.977          35.000          17.000  
 107494909.984 8  83762335.427 7  20455602.908                    20455618.796  
        41.801          32.512          48.000          44.000  
 127118011.893 5  99053071.263 6  24189756.096                    24189774.837  
     -3378.664       -2632.867          34.000          38.000  
 115134946.062 7  89715629.708 6  21909450.863                    21909470.133  
      2793.102        2176.281          46.000          41.000  
 24  1 10  3 21 21.4000000  0  8G08G24G18G23G16G10G15G32
 128561186.611 6 100177632.268 5  24464393.489                    24464413.831  
      2805.488        2186.242          36.000          35.000  
 127991743.426 6  99733918.568 6  24356018.101                    24356042.008  
       211.195         164.488          36.000          40.000  
 113043319.009 6  88085767.088 7  21511430.875                    21511445.504  
     -1864.805       -1453.309          41.000          42.000  
 109724804.339 7  85499904.984 7  20879937.874                    20879952.231  
     -1840.910       -1434.148          45.000          44.000  
 127970857.589 5  99717677.928 2  24352052.080    24352075.909                  
     -2293.234       -1787.062          35.000          17.000  
 107494905.863 8  83762332.202 7  20455601.662                    20455618.110  
        41.426          32.191          48.000          44.000  
 127118349.784 5  99053334.560 6  24189820.207                    24189838.825  
     -3378.789       -2632.754          35.000          38.000  
 115134666.763 7  89715412.075 6  21909397.652                    21909416.797  
      2792.855        2176.195          46.000          41.000  
 24  1 10  3 21 21.5000000  0  8G08G24G18G23G16G10G15G32
 128560906.058 6 100177413.679 5  24464340.101                    24464360.450  
      2805.656        2186.438          36.000          35.000  
 127991722.474 6  99733902.110 6  24356014.114                    24356037.989  
       210.449         164.473          36.000          40.000  
 113043505.517 6  88085912.510 7  21511466.366                    21511481.017  
     -1864.992       -1453.481          40.000          42.000  
 109724988.448 7  85500048.401 7  20879972.909                    20879987.255  
     -1841.051       -1434.551          46.000          44.000  
 127971086.936 5  99717856.656 2  24352095.723    24352119.556                  
     -2293.246       -1787.047          35.000          17.000  
 107494901.720 8  83762328.998 7  20455600.874                    20455617.327  
        41.418          31.879          48.000          44.000  
 127118687.525 5  99053597.797 6  24189884.477                    24189903.110  
     -3378.082       -2632.594          34.000          38.000  
 115134387.499 7  89715194.474 6  21909344.509                    21909363.657  
      2792.723        2176.039          46.000          41.000  
 24  1 10  3 21 21.6000000  0  8G08G24G18G23G16G10G15G32
 128560625.544 5 100177195.047 5  24464286.456                    24464307.128  
      2805.457        2186.125          35.000          35.000  
 127991701.376 6  99733885.654 6  24356010.372                    24356033.861  
       210.758         164.441          36.000          39.000  
 113043692.041 6  88086057.791 7  21511501.400                    21511516.285  
     -1865.082       -1453.023          40.000          42.000  
 109725172.560 7  85500191.878 7  20880007.843                    20880022.005  
     -1841.098       -1434.898          45.000          44.000  
 127971316.245 5  99718035.354 2  24352139.234    24352163.188                  
     -2293.277       -1787.180          35.000          17.000  
 107494897.609 8  83762325.801 7  20455600.037                    20455616.383  
        41.234          32.156          48.000          44.000  
 127119025.491 5  99053861.069 6  24189948.712                    24189967.271  
     -3379.094       -2632.660          34.000          38.000  
 115134108.250 7  89714976.880 6  21909291.456                    21909310.636  
      2792.613        2175.867          46.000          41.000  
 24  1 10  3 21 21.7000000  0  8G08G24G18G23G16G10G15G32
 128560344.987 5 100176976.470 5  24464233.068                    24464253.749  
      2805.410        2185.793          35.000          35.000  
 127991680.334 6  99733869.257 6  24356006.368                    24356029.856  
       210.422         163.996          36.000          39.000  
 113043878.558 6  88086203.117 7  21511536.893                    21511551.776  
     -1865.277       -1453.648          41.000          42.000  
 109725356.709 7  85500335.438 7  20880042.885                    20880057.064  
     -1841.270       -1434.922          45.000          44.000  
 127971545.606 5  99718214.075 2  24352182.880    24352206.834                  
     -2293.387       -1787.094          35.000          17.000  
 107494893.539 7  83762322.608 7  20455599.263                    20455615.603  
        40.938          31.715          47.000          44.000  
 127119363.366 5  99054124.381 6  24190013.007                    24190031.574  
     -3378.918       -2633.102          35.000          38.000  
 115133829.018 7  89714759.317 6  21909238.320                    21909257.504  
      2792.453        2175.738          46.000          41.000  
 24  1 10  3 21 21.8000000  0  8G08G24G18G23G16G10G15G32
 128560064.466 5 100176757.911 5  24464179.702                    24464200.727  
      2805.156        2185.738          35.000          35.000  
 127991659.349 6  99733852.843 6  24356002.234                    24356024.668  
       210.242         164.184          36.000          38.000  
 113044065.143 6  88086348.521 7  21511572.664                    21511587.347  
     -1865.574       -1453.856          41.000          42.000  
 109725540.895 7  85500478.894 7  20880077.403                    20880092.222  
     -1841.746       -1435.293          45.000          44.000  
 127971775.022 5  99718392.835 2  24352226.490    24352250.450                  
     -2293.855       -1787.617          35.000          17.000  
 107494889.485 7  83762319.473 7  20455598.335                    20455614.431  
        40.656          31.629          47.000          44.000  
 127119701.278 5  99054387.683 6  24190077.615                    24190096.461  
     -3379.012       -2633.211          35.000          38.000  
 115133549.826 7  89714541.746 6  21909185.301                    21909204.067  
      2792.129        2175.656          46.000          41.000  
 24  1 10  3 21 21.9000000  0  8G08G24G18G23G16G10G15G32
 128559783.986 5 100176539.311 5  24464126.328                    24464147.342  
      2805.051        2185.750          35.000          35.000  
 127991638.207 5  99733836.448 6  24355998.211                    24356020.664  
       211.004         164.211          34.000          38.000  
 113044251.691 6  88086493.926 7  21511608.163                    21511622.857  
     -1865.266       -1453.758          40.000          42.000  
 109725725.066 7  85500622.460 7  20880112.450                    20880127.282  
     -1841.609       -1435.453          45.000          44.000  
 127972004.337 5  99718571.521 3  24352270.127    24352294.087                  
     -2293.438       -1786.953          35.000          18.000  
 107494885.437 7  83762316.305 7  20455597.565                    20455613.657  
        40.574          31.582          47.000          44.000  
 127120039.250 5  99054651.033 6  24190141.929                    24190160.774  
     -3379.285       -2633.402          35.000          38.000  
 115133270.601 7  89714324.192 6  21909132.166                    21909150.938  
      2792.293        2175.660          46.000          41.000  
 24  1 10  3 21 22.0000000  0  8G08G24G18G23G16G10G15G32
 128559503.450 5 100176320.744 5  24464072.928                    24464093.880  
      2805.289        2185.750          35.000          35.000  
 127991617.084 5  99733819.940 6  24355994.074                    24356015.524  
       211.105         164.535          32.000          38.000  
 113044438.208 6  88086639.264 7  21511643.305                    21511659.248  
     -1865.422       -1453.672          40.000          42.000  
 109725909.260 7  85500765.998 7  20880147.751                    20880162.758  
     -1841.691       -1435.242          45.000          44.000  
 127972233.721 5  99718750.255 3  24352313.910    24352337.720                  
     -2293.535       -1787.102          35.000          18.000  
 107494881.349 7  83762313.137 7  20455596.974                    20455613.470  
        40.793          31.723          47.000          44.000  
 127120377.146 5  99054914.332 6  24190206.127                    24190225.574  
     -3379.137       -2632.988          34.000          38.000  
 115132991.352 7  89714106.594 6  21909079.128                    21909097.829  
      2792.367        2175.809          46.000          41.000  
 24  1 10  3 21 22.1000000  0  8G08G24G18G23G16G10G15G32
 128559222.969 5 100176102.194 5  24464019.555                    24464040.508  
      2804.855        2185.371          35.000          35.000  
 127991595.933 5  99733803.612 6  24355990.049                    24356011.536  
       211.078         163.504          30.000          38.000  
 113044624.916 6  88086784.694 7  21511678.834                    21511694.763  
     -1866.160       -1453.977          40.000          42.000  
 109726093.463 7  85500909.531 7  20880182.803                    20880197.810  
     -1842.008       -1435.602          45.000          44.000  
 127972463.021 6  99718928.926 3  24352357.544    24352381.353                  
     -2293.301       -1786.793          36.000          18.000  
 107494877.323 7  83762309.999 7  20455596.208                    20455612.703  
        40.508          31.469          47.000          44.000  
 127120715.199 5  99055177.673 6  24190270.456                    24190289.885  
     -3379.961       -2633.582          34.000          38.000  
 115132712.138 7  89713889.012 6  21909025.996                    21909044.694  
      2792.246        2175.820          46.000          41.000  
 24  1 10  3 21 22.2000000  0  8G08G24G18G23G16G10G15G32
 128558942.530 5 100175883.638 5  24463965.861                    24463987.236  
      2804.598        2185.613          34.000          35.000  
 127991575.004 5  99733787.290 6  24355985.403                    24356007.620  
       210.133         163.277          31.000          38.000  
 113044811.456 6  88086930.052 7  21511714.589                    21511730.090  
     -1865.918       -1454.215          41.000          42.000  
 109726277.716 7  85501053.067 7  20880217.787                    20880232.410  
     -1842.188       -1435.113          45.000          43.000  
 127972692.375 6  99719107.632 3  24352401.431    24352424.971                  
     -2293.520       -1787.207          36.000          18.000  
 107494873.273 7  83762306.843 7  20455595.406                    20455611.636  
        40.469          31.543          47.000          44.000  
 127121053.119 5  99055441.050 6  24190334.494                    24190354.368  
     -3379.238       -2633.699          33.000          38.000  
 115132432.907 7  89713671.433 6  21908972.766                    21908992.051  
      2792.289        2175.668          46.000          41.000  
 24  1 10  3 21 22.3000000  0  8G08G24G18G23G16G10G15G32
 128558662.071 5 100175665.110 5  24463912.491                    24463933.869  
      2804.684        2185.340          34.000          35.000  
 127991554.082 5  99733770.961 6  24355981.421                    24356003.633  
       209.641         163.332          32.000          38.000  
 113044998.040 6  88087075.496 7  21511750.095                    21511765.608  
     -1865.730       -1453.969          41.000          42.000  
 109726461.880 7  85501196.586 7  20880252.833                    20880267.458  
     -1841.898       -1435.215          45.000          43.000  
 127972921.669 6  99719286.301 3  24352445.064    24352468.604                  
     -2293.203       -1786.777          36.000          18.000  
 107494869.175 7  83762303.645 7  20455594.626                    20455610.855  
        40.734          31.844          47.000          44.000  
 127121391.062 5  99055704.444 6  24190398.803                    24190418.692  
     -3379.774       -2633.770          32.000          38.000  
 115132153.638 7  89713453.826 6  21908919.623                    21908938.909  
      2792.664        2176.387          46.000          41.000  
 24  1 10  3 21 22.4000000  0  8G08G24G18G23G16G10G15G32
 128558381.575 5 100175446.545 5  24463859.036                    24463879.899  
      2804.734        2185.562          34.000          35.000  
 127991533.277 5  99733754.639 6  24355977.626                    24356000.162  
       208.883         163.254          34.000          38.000  
 113045184.696 6  88087220.910 7  21511785.497                    21511800.737  
     -1866.059       -1454.000          41.000          42.000  
 109726646.163 7  85501340.146 7  20880287.815                    20880302.189  
     -1842.336       -1435.219          45.000          43.000  
 127973150.981 6  99719464.979 3  24352489.045    24352512.271                  
     -2293.070       -1786.668          36.000          18.000  
 107494865.161 7  83762300.507 7  20455593.769                    20455609.979  
        40.492          31.594          47.000          44.000  
 127121729.098 5  99055967.789 6  24190462.801                    24190483.425  
     -3379.863       -2633.492          33.000          38.000  
 115131874.328 7  89713236.178 6  21908866.597                    21908885.765  
      2792.789        2176.066          46.000          41.000  
 24  1 10  3 21 22.5000000  0  8G08G24G18G23G16G10G15G32
 128558101.124 5 100175227.981 5  24463805.668                    24463826.524  
      2804.766        2185.559          34.000          35.000  
 127991512.340 5  99733738.354 6  24355973.642                    24355996.185  
       209.281         162.969          34.000          38.000  
 113045371.261 6  88087366.285 7  21511821.000                    21511836.239  
     -1866.129       -1454.406          41.000          42.000  
 109726830.398 7  85501483.731 7  20880322.874                    20880337.254  
     -1842.461       -1436.340          45.000          43.000  
 127973380.218 6  99719643.612 3  24352532.667    24352555.894                  
     -2292.785       -1786.473          36.000          18.000  
 107494861.124 7  83762297.363 7  20455593.001                    20455609.211  
        40.414          31.406          47.000          44.000  
 127122067.199 5  99056231.233 6  24190527.139                    24190547.761  
     -3380.531       -2634.316          34.000          38.000  
 115131595.061 7  89713018.604 6  21908813.454                    21908832.631  
      2792.738        2176.266          46.000          41.000  
 24  1 10  3 21 22.6000000  0  8G08G24G18G23G16G10G15G32
 128557820.706 5 100175009.508 5  24463752.080                    24463773.217  
      2804.281        2184.945          34.000          35.000  
 127991491.342 5  99733722.086 6  24355969.631                    24355992.228  
       209.559         162.676          34.000          39.000  
 113045557.989 6  88087511.796 7  21511855.986                    21511871.798  
     -1866.816       -1454.609          40.000          42.000  
 109727014.727 7  85501627.387 7  20880357.817                    20880372.688  
     -1843.238       -1436.219          45.000          43.000  
 127973609.498 6  99719822.273 3  24352576.134    24352599.533                  
     -2292.688       -1786.516          36.000          18.000  
 107494857.146 7  83762294.280 7  20455592.329                    20455608.560  
        39.836          31.055          47.000          44.000  
 127122405.250 5  99056494.680 6  24190591.812                    24190611.777  
     -3381.078       -2634.613          35.000          38.000  
 115131315.802 7  89712800.953 6  21908760.665                    21908779.104  
      2792.574        2176.059          46.000          41.000  
 24  1 10  3 21 22.7000000  0  8G08G24G18G23G16G10G15G32
 128557540.305 5 100174790.995 5  24463698.721                    24463719.854  
      2804.176        2184.930          34.000          35.000  
 127991470.493 6  99733705.824 6  24355965.663                    24355988.257  
       208.461         162.684          36.000          39.000  
 113045744.662 6  88087657.243 7  21511891.508                    21511907.318  
     -1866.820       -1454.523          40.000          42.000  
 109727199.016 7  85501770.979 7  20880392.886                    20880407.755  
     -1842.949       -1436.117          45.000          43.000  
 127973838.843 6  99720000.973 3  24352619.776    24352643.173                  
     -2293.180       -1786.848          36.000          18.000  
 107494853.125 7  83762291.136 7  20455591.564                    20455607.792  
        39.988          31.188          47.000          44.000  
 127122743.410 5  99056758.144 6  24190656.162                    24190676.118  
     -3381.106       -2634.473          35.000          38.000  
 115131036.536 7  89712583.356 6  21908707.522                    21908725.964  
      2792.578        2176.172          46.000          41.000  
 24  1 10  3 21 22.8000000  0  8G08G24G18G23G16G10G15G32
 128557259.903 5 100174572.508 5  24463645.550                    24463666.630  
      2804.133        2185.148          34.000          35.000  
 127991449.674 6  99733689.567 6  24355961.920                    24355984.662  
       208.652         162.438          36.000          39.000  
 113045931.348 6  88087802.694 7  21511926.768                    21511942.924  
     -1866.781       -1454.676          41.000          42.000  
 109727383.363 7  85501914.645 7  20880428.060                    20880443.144  
     -1843.188       -1436.371          45.000          43.000  
 127974068.020 5  99720179.543 3  24352663.278    24352686.829                  
     -2292.492       -1786.148          35.000          18.000  
 107494849.155 7  83762288.043 7  20455590.731                    20455607.318  
        40.023          31.074          47.000          44.000  
 127123081.567 5  99057021.612 6  24190720.487                    24190739.952  
     -3381.226       -2634.773          35.000          38.000  
 115130757.263 7  89712365.732 6  21908654.191                    21908672.951  
      2792.785        2176.340          46.000          41.000  
 24  1 10  3 21 22.9000000  0  8G08G24G18G23G16G10G15G32
 128556979.499 5 100174353.946 5  24463592.191                    24463613.255  
      2804.133        2185.195          34.000          35.000  
 127991428.777 5  99733673.302 6  24355957.944                    24355980.690  
       208.727         162.559          35.000          39.000  
 113046118.090 6  88087948.194 7  21511962.304                    21511978.457  
     -1867.137       -1454.867          41.000          42.000  
 109727567.711 7  85502058.269 7  20880463.140                    20880478.218  
     -1843.441       -1436.551          45.000          43.000  
 127974297.293 5  99720358.198 3  24352706.907    24352730.458                  
     -2292.621       -1786.461          35.000          18.000  
 107494845.192 7  83762284.957 7  20455589.977                    20455606.564  
        39.688          30.859          47.000          44.000  
 127123419.626 5  99057285.090 6  24190784.818                    24190804.296  
     -3380.992       -2634.598          35.000          38.000  
 115130478.013 7  89712148.142 6  21908601.051                    21908619.813  
      2792.594        2176.055          46.000          41.000  
 24  1 10  3 21 23.0000000  0  8G08G24G18G23G16G10G15G32
 128556699.066 5 100174135.519 5  24463538.530                    24463560.054  
      2804.172        2184.867          35.000          35.000  
 127991407.938 5  99733657.067 6  24355953.924                    24355976.811  
       208.645         162.613          35.000          39.000  
 113046304.791 6  88088093.703 7  21511998.301                    21512013.007  
     -1867.066       -1455.066          41.000          42.000  
 109727752.108 7  85502201.932 7  20880498.113                    20880513.248  
     -1843.668       -1436.453          45.000          43.000  
 127974526.589 5  99720536.868 3  24352750.556    24352774.107                  
     -2292.812       -1786.707          35.000          18.000  
 107494841.240 7  83762281.871 7  20455589.350                    20455605.561  
        39.602          30.742          47.000          44.000  
 127123757.759 5  99057548.572 6  24190849.045                    24190868.289  
     -3381.109       -2634.918          34.000          38.000  
 115130198.743 7  89711930.504 6  21908548.049                    21908566.844  
      2792.582        2176.094          46.000          41.000  
 24  1 10  3 21 23.1000000  0  8G08G24G18G23G16G10G15G32
 128556418.747 5 100173917.035 5  24463485.187                    24463506.698  
      2803.676        2184.617          35.000          35.000  
 127991387.096 5  99733640.864 6  24355949.957                    24355972.854  
       208.508         161.809          35.000          39.000  
 113046491.503 6  88088239.203 7  21512033.831                    21512048.540  
     -1867.078       -1455.172          41.000          42.000  
 109727936.483 7  85502345.585 7  20880533.198                    20880548.329  
     -1843.758       -1436.664          45.000          43.000  
 127974755.848 5  99720715.516 3  24352794.183    24352817.735                  
     -2292.582       -1786.316          35.000          18.000  
 107494837.315 7  83762278.831 7  20455588.603                    20455604.818  
        39.480          30.637          47.000          44.000  
 127124095.929 5  99057812.103 6  24190913.397                    24190932.646  
     -3381.652       -2635.121          34.000          38.000  
 115129919.504 7  89711712.943 6  21908494.911                    21908513.713  
      2792.504        2175.957          46.000          41.000  
 24  1 10  3 21 23.2000000  0  8G08G24G18G23G16G10G15G32
 128556138.298 5 100173698.499 5  24463431.749                    24463453.360  
      2804.109        2185.215          35.000          35.000  
 127991366.271 6  99733624.615 6  24355946.283                    24355969.362  
       208.293         162.480          36.000          39.000  
 113046678.247 7  88088384.682 7  21512069.929                    21512084.458  
     -1867.441       -1454.992          42.000          42.000  
 109728120.867 7  85502489.277 7  20880567.926                    20880583.412  
     -1843.707       -1436.641          45.000          44.000  
 127974985.064 5  99720894.122 3  24352838.005    24352861.383                  
     -2292.453       -1786.309          35.000          18.000  
 107494833.384 8  83762275.728 7  20455588.097                    20455603.771  
        39.406          30.910          48.000          44.000  
 127124434.127 5  99058075.552 6  24190978.222                    24190997.092  
     -3381.660       -2634.891          35.000          38.000  
 115129640.278 7  89711495.324 6  21908441.948                    21908460.373  
      2792.488        2175.926          46.000          41.000  
 24  1 10  3 21 23.3000000  0  8G08G24G18G23G16G10G15G32
 128555857.909 5 100173480.028 5  24463378.393                    24463400.008  
      2804.035        2184.711          35.000          35.000  
 127991345.451 6  99733608.363 6  24355942.322                    24355965.393  
       208.371         162.375          37.000          39.000  
 113046864.987 7  88088530.195 7  21512105.465                    21512119.994  
     -1867.465       -1455.242          42.000          42.000  
 109728305.266 7  85502632.966 7  20880603.016                    20880618.503  
     -1843.820       -1436.969          45.000          43.000  
 127975214.367 5  99721072.807 3  24352881.639    24352905.020                  
     -2292.777       -1786.738          35.000          18.000  
 107494829.440 8  83762272.651 7  20455587.346                    20455603.020  
        39.379          30.613          48.000          44.000  
 127124772.207 5  99058339.086 6  24191042.557                    24191061.450  
     -3381.180       -2635.039          34.000          38.000  
 115129361.029 7  89711277.753 6  21908388.809                    21908407.240  
      2792.438        2175.824          46.000          41.000  
 24  1 10  3 21 23.4000000  0  8G08G24G18G23G16G10G15G32
 128555577.501 5 100173261.529 5  24463325.236                    24463346.788  
      2803.977        2184.988          35.000          35.000  
 127991324.549 6  99733592.165 6  24355938.789                    24355961.219  
       208.641         162.180          36.000          39.000  
 113047051.791 7  88088675.788 7  21512141.372                    21512155.713  
     -1867.449       -1455.352          42.000          42.000  
 109728489.662 7  85502776.654 7  20880638.168                    20880653.249  
     -1843.992       -1436.824          45.000          44.000  
 127975443.582 5  99721251.416 3  24352925.023    24352948.638                  
     -2292.383       -1786.152          35.000          18.000  
 107494825.522 7  83762269.615 7  20455586.616                    20455601.896  
        39.270          30.371          47.000          44.000  
 127125110.371 5  99058602.570 6  24191107.368                    24191125.733  
     -3381.558       -2634.820          35.000          38.000  
 115129081.825 7  89711060.181 6  21908335.561                    21908353.997  
      2792.168        2175.926          46.000          41.000  
 24  1 10  3 21 23.5000000  0  8G08G24G18G23G16G10G15G32
 128555297.062 6 100173043.056 5  24463271.870                    24463293.435  
      2804.281        2184.715          36.000          35.000  
 127991303.726 6  99733575.904 6  24355934.827                    24355957.248  
       208.418         162.660          36.000          39.000  
 113047238.470 7  88088821.203 7  21512176.896                    21512191.225  
     -1867.449       -1454.996          42.000          42.000  
 109728674.025 7  85502920.339 7  20880673.251                    20880688.339  
     -1843.715       -1436.641          45.000          44.000  
 127975672.855 5  99721430.062 3  24352968.652    24352992.265                  
     -2292.730       -1786.629          35.000          18.000  
 107494821.581 7  83762266.572 7  20455585.866                    20455601.153  
        39.441          30.676          47.000          44.000  
 127125448.506 5  99058866.022 6  24191171.713                    24191190.071  
     -3381.297       -2634.559          35.000          38.000  
 115128802.582 7  89710842.600 6  21908282.423                    21908300.862  
      2792.293        2175.574          46.000          41.000  
 24  1 10  3 21 23.6000000  0  8G08G24G18G23G16G10G15G32
 128555016.653 6 100172824.534 5  24463218.487                    24463240.406  
      2804.156        2185.137          36.000          35.000  
 127991282.963 6  99733559.634 6  24355931.384                    24355953.009  
       208.090         162.453          37.000          39.000  
 113047425.228 7  88088966.831 7  21512212.810                    21512226.609  
     -1867.023       -1455.227          42.000          42.000  
 109728858.379 7  85503063.966 7  20880708.551                    20880723.593  
     -1843.574       -1436.520          45.000          44.000  
 127975902.190 5  99721608.747 2  24353012.333    24353035.879                  
     -2292.809       -1786.445          35.000          17.000  
 107494817.648 8  83762263.473 7  20455584.930                    20455600.185  
        39.352          30.840          48.000          44.000  
 127125786.599 5  99059129.490 6  24191236.370                    24191254.670  
     -3381.148       -2634.750          35.000          38.000  
 115128523.348 7  89710625.031 6  21908229.231                    21908248.081  
      2792.289        2175.875          46.000          41.000  
 24  1 10  3 21 23.7000000  0  8G08G24G18G23G16G10G15G32
 128554736.285 6 100172606.025 5  24463165.134                    24463187.044  
      2803.816        2185.051          36.000          35.000  
 127991262.086 6  99733543.410 6  24355927.411                    24355949.047  
       208.355         162.293          38.000          38.000  
 113047611.977 6  88089112.302 7  21512248.347                    21512262.134  
     -1867.387       -1455.051          41.000          42.000  
 109729042.691 7  85503207.613 7  20880743.624                    20880758.673  
     -1843.465       -1436.660          45.000          44.000  
 127976131.474 5  99721787.412 2  24353055.964    24353079.510                  
     -2292.863       -1786.656          35.000          17.000  
 107494813.691 7  83762260.387 7  20455584.178                    20455599.431  
        39.422          30.789          47.000          44.000  
 127126124.763 5  99059392.975 6  24191300.721                    24191319.016  
     -3381.394       -2634.836          34.000          39.000  
 115128244.128 7  89710407.423 6  21908176.098                    21908194.938  
      2792.211        2175.934          46.000          41.000  
 24  1 10  3 21 23.8000000  0  8G08G24G18G23G16G10G15G32
 128554455.845 6 100172387.550 5  24463111.854                    24463133.744  
      2804.262        2184.840          36.000          35.000  
 127991241.269 6  99733527.182 6  24355923.926                    24355944.818  
       208.371         162.309          38.000          39.000  
 113047798.668 6  88089257.777 7  21512283.849                    21512297.591  
     -1867.086       -1454.555          41.000          42.000  
 109729227.034 7  85503351.276 7  20880778.915                    20880793.343  
     -1843.273       -1436.191          45.000          44.000  
 127976360.702 5  99721966.038 2  24353100.092    24353123.133                  
     -2292.820       -1786.812          35.000          17.000  
 107494809.723 7  83762257.324 7  20455583.500                    20455598.886  
        39.617          30.738          47.000          44.000  
 127126462.795 5  99059656.382 6  24191364.960                    24191383.452  
     -3380.848       -2634.340          34.000          38.000  
 115127964.904 7  89710189.866 6  21908122.862                    21908141.762  
      2792.312        2175.875          46.000          41.000  
 24  1 10  3 21 23.9000000  0  8G08G24G18G23G16G10G15G32
 128554175.445 5 100172169.094 5  24463058.496                    24463080.395  
      2803.969        2184.500          35.000          35.000  
 127991220.371 6  99733510.940 6  24355919.949                    24355940.852  
       208.668         162.348          39.000          39.000  
 113047985.414 6  88089403.220 7  21512319.386                    21512333.109  
     -1867.477       -1455.289          41.000          42.000  
 109729411.420 7  85503494.899 7  20880814.002                    20880828.418  
     -1843.641       -1436.426          45.000          43.000  
 127976590.066 5  99722144.762 2  24353143.739    24353166.779                  
     -2293.195       -1787.109          35.000          17.000  
 107494805.805 7  83762254.270 7  20455582.755                    20455598.141  
        39.430          30.684          47.000          44.000  
 127126800.920 5  99059919.863 6  24191429.303                    24191447.797  
     -3380.918       -2634.586          34.000          38.000  
 115127685.719 7  89709972.321 6  21908069.734                    21908088.635  
      2792.047        2175.477          46.000          41.000  
 24  1 10  3 21 24.0000000  0  8G08G24G18G23G16G10G15G32
 128553895.063 5 100171950.569 5  24463005.102                    24463027.100  
      2803.906        2185.199          35.000          35.000  
 127991199.530 6  99733494.727 6  24355916.179                    24355936.986  
       208.602         162.195          38.000          39.000  
 113048172.134 6  88089548.797 7  21512354.535                    21512368.801  
     -1867.266       -1455.438          40.000          42.000  
 109729595.770 7  85503638.538 7  20880849.114                    20880863.347  
     -1843.676       -1436.562          45.000          43.000  
 127976819.372 5  99722323.437 2  24353187.327    24353210.374                  
     -2293.152       -1786.938          35.000          17.000  
 107494801.910 8  83762251.220 7  20455581.795                    20455597.943  
        39.023          30.289          48.000          44.000  
 127127138.993 5  99060183.347 6  24191493.660                    24191512.134  
     -3380.859       -2634.926          34.000          38.000  
 115127406.565 7  89709754.798 6  21908016.847                    21908035.209  
      2791.848        2175.160          46.000          41.000  
 24  1 10  3 21 24.1000000  0  8G08G24G18G23G16G10G15G32
 128553614.731 5 100171732.139 5  24462951.757                    24462973.757  
      2803.754        2184.402          35.000          35.000  
 127991178.679 6  99733478.507 6  24355912.211                    24355933.025  
       208.480         162.051          38.000          39.000  
 113048358.904 6  88089694.298 7  21512390.076                    21512404.334  
     -1867.465       -1455.176          41.000          42.000  
 109729780.184 7  85503782.219 7  20880884.207                    20880898.436  
     -1843.902       -1437.039          45.000          43.000  
 127977048.725 5  99722502.156 2  24353230.972    24353254.019                  
     -2293.375       -1787.242          35.000          17.000  
 107494798.051 8  83762248.195 7  20455581.061                    20455597.204  
        38.793          30.137          48.000          44.000  
 127127477.161 5  99060446.826 6  24191558.011                    24191576.479  
     -3381.242       -2634.992          34.000          38.000  
 115127127.408 7  89709537.281 6  21907963.726                    21907982.089  
      2791.527        2175.172          46.000          41.000  
 24  1 10  3 21 24.2000000  0  8G08G24G18G23G16G10G15G32
 128553334.405 5 100171513.646 5  24462898.295                    24462920.094  
      2803.418        2184.887          35.000          35.000  
 127991157.915 6  99733462.257 6  24355908.018                    24355929.299  
       208.102         162.816          37.000          38.000  
 113048545.675 6  88089839.832 7  21512425.633                    21512439.899  
     -1867.785       -1455.312          41.000          42.000  
 109729964.553 7  85503925.962 7  20880919.315                    20880933.687  
     -1843.766       -1437.004          45.000          43.000  
 127977278.140 5  99722680.927 2  24353274.378    24353297.661                  
     -2293.750       -1787.602          35.000          17.000  
 107494794.213 8  83762245.193 7  20455580.885                    20455596.166  
        38.559          30.031          48.000          44.000  
 127127815.315 5  99060710.242 6  24191621.852                    24191641.057  
     -3381.371       -2634.152          35.000          38.000  
 115126848.303 7  89709319.778 6  21907910.739                    21907929.223  
      2791.258        2174.891          46.000          41.000  
