     2.11           OBSERVATION DATA    M (MIXED)           RINEX VERSION / TYPE
GPP.DLL V3.2.21                         18 - MAR - 24 07:42 PGM / RUN BY / DATE 
                                                            MARKER NAME         
                                                            MARKER NUMBER       
                                                            OBSERVER / AGENCY   
6028C00128          APX-15v3 AV         5.50                REC # / TYPE / VERS 
                    E                                       ANT # / TYPE        
 -4667809.4757  2554590.8630 -3504920.4774                  APPROX POSITION XYZ 
        0.0000       -0.0000       -0.0000                  ANTENNA: DELTA H/E/N
     1     1                                                WAVELENGTH FACT L1/2
     8    L1    L2    C1    C2    D1    D2    S1    S2      # / TYPES OF OBSERV 
     0.100                                                  INTERVAL            
  2024     1    10     3    19    0.0000000     GPS         TIME OF FIRST OBS   
  2024     1    10     3    19   59.9000000     GPS         TIME OF LAST OBS    
    18                                                      LEAP SECONDS        
     7                                                      # OF SATELLITES     
   G08   600   600   600   600   600   600   600   600      PRN / # OF OBS      
   G10   600   600   600   600   600   600   600   600      PRN / # OF OBS      
   G15   600   600   600   600   600   600   600   600      PRN / # OF OBS      
   G18   600   600   600   600   600   600   600   600      PRN / # OF OBS      
   G23   600   600   600   600   600   600   600   600      PRN / # OF OBS      
   G24   600   600   600   600   600   600   600   600      PRN / # OF OBS      
   G32   600   600   600   600   600   600   600   600      PRN / # OF OBS      
                                                            END OF HEADER       
 24  1 10  3 19  0.0000000  0  7G08G24G18G23G10G32G15
 130532108.108 6 101713413.106 6  24839447.301    24839468.253        2817.605  
      2195.539          39.000          40.000  
 129603789.007 6 100990057.526 7  24662780.636    24662802.721         302.738  
       235.633          39.000          42.000  
 114361107.658 7  89112615.740 7  21762196.912    21762212.526       -1784.363  
     -1390.109          44.000          46.000  
 111040986.802 7  86525501.942 7  21130398.819    21130412.593       -1812.902  
     -1412.633          44.000          42.000  
 109078160.568 7  84996037.209 7  20756885.312    20756901.637          87.160  
        67.898          42.000          44.000  
 117112765.044 7  91256786.773 7  22285818.200    22285837.484        2895.402  
      2256.180          45.000          43.000  
 128216983.032 6  99909413.061 6  24398882.976    24398901.938       -3354.637  
     -2614.133          41.000          40.000  
 24  1 10  3 19  0.1000000  0  7G08G24G18G23G10G32G15
 130531826.358 6 101713193.575 6  24839393.686    24839414.641        2817.531  
      2195.406          39.000          40.000  
 129603758.836 6 100990033.984 7  24662774.895    24662796.972         302.156  
       235.453          39.000          42.000  
 114361286.015 7  89112754.759 7  21762230.853    21762246.476       -1783.934  
     -1390.266          43.000          46.000  
 111041168.102 7  86525643.235 7  21130433.319    21130447.098       -1812.895  
     -1412.875          44.000          43.000  
 109078151.853 7  84996030.387 7  20756883.654    20756899.971          87.086  
        67.879          42.000          44.000  
 117112475.502 7  91256561.169 7  22285763.102    22285782.389        2895.262  
      2256.039          45.000          43.000  
 128217318.504 7  99909674.465 6  24398946.814    24398965.776       -3354.711  
     -2613.965          42.000          40.000  
 24  1 10  3 19  0.2000000  0  7G08G24G18G23G10G32G15
 130531544.594 6 101712974.033 6  24839339.677    24839360.948        2817.625  
      2195.387          39.000          40.000  
 129603728.647 6 100990010.463 7  24662769.212    24662790.954         302.121  
       235.238          39.000          42.000  
 114361464.462 7  89112893.803 7  21762264.841    21762279.830       -1784.043  
     -1390.012          43.000          46.000  
 111041349.362 7  86525784.494 7  21130467.867    21130481.665       -1812.738  
     -1412.719          44.000          43.000  
 109078143.148 7  84996023.614 7  20756882.099    20756897.716          87.188  
        67.930          42.000          44.000  
 117112185.948 7  91256335.544 7  22285707.822    22285727.258        2895.488  
      2256.176          45.000          43.000  
 128217653.972 7  99909935.920 6  24399010.948    24399029.681       -3354.727  
     -2614.492          42.000          40.000  
 24  1 10  3 19  0.3000000  0  7G08G24G18G23G10G32G15
 130531262.898 6 101712754.521 6  24839286.073    24839307.341        2817.121  
      2195.090          38.000          41.000  
 129603698.456 6 100989987.010 7  24662763.467    24662785.227         301.887  
       234.695          40.000          42.000  
 114361642.941 7  89113032.889 7  21762298.805    21762313.796       -1784.527  
     -1391.117          43.000          46.000  
 111041530.797 7  86525925.864 7  21130502.393    21130516.189       -1813.625  
     -1413.242          44.000          43.000  
 109078134.534 7  84996016.920 7  20756880.460    20756896.081          86.504  
        66.895          42.000          44.000  
 117111896.505 7  91256109.995 7  22285652.743    22285672.176        2894.922  
      2255.398          45.000          43.000  
 128217989.552 7  99910197.380 6  24399074.807    24399093.532       -3355.191  
     -2614.574          42.000          40.000  
 24  1 10  3 19  0.4000000  0  7G08G24G18G23G10G32G15
 130530981.191 6 101712535.020 6  24839231.794    24839253.830        2817.242  
      2195.152          38.000          41.000  
 129603668.350 6 100989963.508 6  24662757.730    24662778.995         301.648  
       235.105          40.000          41.000  
 114361821.488 7  89113172.032 7  21762333.164    21762347.675       -1785.074  
     -1391.254          44.000          46.000  
 111041712.180 7  86526067.195 7  21130536.737    21130551.274       -1813.875  
     -1413.520          44.000          43.000  
 109078125.945 7  84996010.198 7  20756878.552    20756894.853          86.125  
        66.992          42.000          44.000  
 117111607.035 7  91255884.429 7  22285597.510    22285617.169        2894.703  
      2255.492          45.000          43.000  
 128218325.086 7  99910458.828 6  24399138.852    24399156.989       -3355.391  
     -2614.320          42.000          40.000  
 24  1 10  3 19  0.5000000  0  7G08G24G18G23G10G32G15
 130530699.474 6 101712315.510 6  24839178.185    24839200.224        2817.188  
      2194.902          38.000          41.000  
 129603638.191 6 100989939.974 6  24662751.991    24662773.248         301.512  
       235.094          40.000          41.000  
 114362000.031 7  89113311.119 7  21762367.139    21762381.641       -1785.281  
     -1391.188          43.000          46.000  
 111041893.603 7  86526208.576 7  21130571.260    21130585.801       -1813.898  
     -1413.613          44.000          42.000  
 109078117.376 7  84996003.524 7  20756876.921    20756893.223          85.926  
        66.855          42.000          44.000  
 117111317.602 7  91255658.913 7  22285542.432    22285562.096        2894.625  
      2255.469          45.000          43.000  
 128218660.667 7  99910720.293 6  24399202.711    24399220.842       -3355.738  
     -2614.906          42.000          40.000  
 24  1 10  3 19  0.6000000  0  7G08G24G18G23G10G32G15
 130530417.751 6 101712096.006 6  24839124.340    24839146.713        2816.973  
      2195.105          38.000          41.000  
 129603608.050 6 100989916.527 6  24662746.662    24662767.467         301.383  
       234.598          40.000          41.000  
 114362178.651 7  89113450.317 7  21762400.645    21762415.479       -1785.934  
     -1391.492          43.000          46.000  
 111042075.071 7  86526349.977 7  21130605.699    21130620.363       -1814.902  
     -1414.219          44.000          42.000  
 109078108.828 7  84995996.861 7  20756874.998    20756891.424          85.391  
        66.559          42.000          44.000  
 117111028.174 7  91255433.381 7  22285487.528    22285507.284        2894.031  
      2254.996          45.000          43.000  
 128218996.280 7  99910981.830 6  24399266.678    24399284.696       -3355.828  
     -2615.215          42.000          40.000  
 24  1 10  3 19  0.7000000  0  7G08G24G18G23G10G32G15
 130530136.133 6 101711876.523 6  24839070.750    24839093.113        2816.570  
      2194.852          38.000          41.000  
 129603577.958 6 100989893.110 7  24662740.935    24662761.749         301.289  
       234.445          40.000          42.000  
 114362357.265 7  89113589.477 7  21762434.635    21762449.463       -1786.316  
     -1391.914          42.000          46.000  
 111042256.579 7  86526491.366 7  21130640.239    21130654.892       -1815.055  
     -1414.106          44.000          43.000  
 109078100.356 7  84995990.270 7  20756873.386    20756889.815          84.777  
        66.074          42.000          44.000  
 117110738.785 7  91255207.898 7  22285432.459    22285452.219        2893.887  
      2254.918          45.000          43.000  
 128219331.862 7  99911243.317 6  24399330.537    24399348.554       -3356.074  
     -2615.062          43.000          40.000  
 24  1 10  3 19  0.8000000  0  7G08G24G18G23G10G32G15
 130529854.420 6 101711657.021 6  24839017.321    24839039.492        2816.910  
      2195.043          39.000          40.000  
 129603547.862 6 100989869.602 7  24662735.451    24662756.484         300.965  
       234.734          40.000          42.000  
 114362535.812 7  89113728.630 7  21762468.322    21762483.656       -1785.723  
     -1391.457          43.000          46.000  
 111042438.063 7  86526632.793 7  21130674.563    21130689.422       -1814.656  
     -1413.988          43.000          42.000  
 109078091.786 7  84995983.592 7  20756872.013    20756888.262          85.453  
        66.695          42.000          44.000  
 117110449.355 7  91254982.370 7  22285377.257    22285396.877        2894.242  
      2255.121          45.000          44.000  
 128219667.432 7  99911504.850 6  24399394.714    24399412.665       -3355.535  
     -2614.891          43.000          40.000  
 24  1 10  3 19  0.9000000  0  7G08G24G18G23G10G32G15
 130529572.720 6 101711437.522 6  24838963.716    24838985.889        2816.992  
      2194.953          39.000          40.000  
 129603517.788 6 100989846.159 7  24662729.728    24662750.759         300.828  
       234.465          39.000          43.000  
 114362714.372 7  89113867.750 7  21762502.301    21762517.631       -1785.504  
     -1391.344          43.000          46.000  
 111042619.509 7  86526774.194 7  21130709.091    21130723.954       -1814.520  
     -1413.828          44.000          43.000  
 109078083.214 7  84995976.937 7  20756870.381    20756886.637          85.809  
        66.594          42.000          44.000  
 117110159.953 7  91254756.845 7  22285322.186    22285341.801        2894.199  
      2255.422          44.000          43.000  
 128220003.007 7  99911766.312 6  24399458.572    24399476.517       -3355.758  
     -2615.012          43.000          40.000  
 24  1 10  3 19  1.0000000  0  7G08G24G18G23G10G32G15
 130529291.062 6 101711218.040 6  24838910.165    24838932.093        2816.754  
      2194.832          39.000          40.000  
 129603487.691 6 100989822.734 7  24662723.266    24662745.875         300.922  
       234.363          39.000          43.000  
 114362892.940 7  89114006.926 7  21762536.140    21762551.736       -1785.668  
     -1391.441          43.000          46.000  
 111042800.927 7  86526915.568 7  21130743.653    21130757.932       -1814.324  
     -1413.793          44.000          42.000  
 109078074.693 7  84995970.285 7  20756868.838    20756885.004          85.512  
        66.754          42.000          44.000  
 117109870.525 7  91254531.302 7  22285267.250    22285286.948        2894.172  
      2255.141          44.000          44.000  
 128220338.600 7  99912027.807 6  24399522.660    24399540.041       -3355.852  
     -2614.727          43.000          39.000  
 24  1 10  3 19  1.1000000  0  7G08G24G18G23G10G32G15
 130529009.381 6 101710998.546 6  24838856.563    24838878.491        2816.758  
      2194.961          39.000          40.000  
 129603457.585 6 100989799.285 7  24662717.537    24662740.148         300.859  
       234.414          39.000          43.000  
 114363071.502 7  89114146.027 7  21762570.120    21762585.706       -1785.867  
     -1391.418          43.000          46.000  
 111042982.384 7  86527056.992 7  21130778.183    21130792.469       -1814.383  
     -1413.723          44.000          42.000  
 109078066.098 7  84995963.567 7  20756867.202    20756883.364          85.617  
        66.762          42.000          44.000  
 117109581.093 7  91254305.796 7  22285212.173    22285231.877        2894.422  
      2255.328          45.000          44.000  
 128220674.206 7  99912289.327 6  24399586.523    24399603.907       -3355.894  
     -2615.031          43.000          39.000  
 24  1 10  3 19  1.2000000  0  7G08G24G18G23G10G32G15
 130528727.675 6 101710779.029 6  24838802.917    24838825.242        2817.266  
      2195.203          39.000          40.000  
 129603427.533 6 100989775.832 7  24662711.147    24662734.647         300.840  
       234.715          39.000          43.000  
 114363250.009 7  89114285.148 7  21762604.549    21762619.658       -1784.836  
     -1391.016          44.000          46.000  
 111043163.737 7  86527198.246 7  21130813.092    21130826.316       -1813.754  
     -1413.012          44.000          42.000  
 109078057.455 7  84995956.856 7  20756865.011    20756881.600          86.523  
        67.414          42.000          44.000  
 117109291.611 7  91254080.214 7  22285157.063    22285176.647        2894.730  
      2255.664          45.000          43.000  
 128221009.759 7  99912550.795 6  24399650.424    24399667.080       -3355.719  
     -2614.625          42.000          38.000  
 24  1 10  3 19  1.3000000  0  7G08G24G18G23G10G32G15
 130528445.907 6 101710559.487 6  24838749.298    24838771.627        2817.406  
      2195.305          39.000          40.000  
 129603397.324 6 100989752.318 7  24662705.398    24662728.905         301.941  
       234.863          39.000          42.000  
 114363428.503 7  89114424.183 7  21762638.515    21762653.611       -1784.863  
     -1390.371          44.000          46.000  
 111043345.016 7  86527339.499 7  21130847.588    21130860.812       -1812.906  
     -1412.594          44.000          42.000  
 109078048.764 7  84995950.055 7  20756863.357    20756879.939          87.004  
        67.883          42.000          44.000  
 117109002.113 7  91253854.642 7  22285101.974    22285121.560        2895.254  
      2256.035          45.000          43.000  
 128221345.323 7  99912812.246 6  24399714.280    24399730.929       -3355.496  
     -2614.594          42.000          38.000  
 24  1 10  3 19  1.4000000  0  7G08G24G18G23G10G32G15
 130528164.174 6 101710339.945 6  24838695.952    24838718.294        2817.289  
      2195.270          39.000          40.000  
 129603367.179 6 100989728.836 7  24662700.099    24662722.170         301.297  
       234.750          40.000          42.000  
 114363606.907 7  89114563.234 7  21762672.058    21762687.249       -1784.301  
     -1390.453          43.000          45.000  
 111043526.321 7  86527480.808 7  21130881.925    21130895.305       -1813.172  
     -1413.066          44.000          42.000  
 109078040.048 7  84995943.276 7  20756861.894    20756878.338          86.871  
        67.863          42.000          44.000  
 117108712.570 7  91253629.007 7  22285046.743    22285066.419        2895.055  
      2256.043          44.000          43.000  
 128221680.836 7  99913073.695 6  24399778.055    24399795.004       -3355.461  
     -2614.762          42.000          39.000  
 24  1 10  3 19  1.5000000  0  7G08G24G18G23G10G32G15
 130527882.462 6 101710120.419 6  24838642.344    24838664.684        2817.191  
      2195.359          39.000          40.000  
 129603337.111 6 100989705.358 7  24662694.377    24662716.437         301.098  
       234.879          40.000          42.000  
 114363785.391 7  89114702.345 7  21762706.023    21762721.221       -1784.602  
     -1390.652          43.000          45.000  
 111043707.636 7  86527622.127 7  21130916.428    21130929.817       -1813.035  
     -1412.793          44.000          43.000  
 109078031.334 7  84995936.478 7  20756860.235    20756876.678          87.055  
        67.895          42.000          44.000  
 117108423.091 7  91253403.450 7  22284991.656    22285011.335        2895.023  
      2255.953          45.000          43.000  
 128222016.405 7  99913335.251 6  24399841.912    24399858.879       -3355.336  
     -2614.945          42.000          39.000  
 24  1 10  3 19  1.6000000  0  7G08G24G18G23G10G32G15
 130527600.744 6 101709900.869 6  24838588.891    24838610.950        2817.273  
      2195.352          39.000          40.000  
 129603306.986 6 100989681.892 7  24662688.871    24662710.143         301.160  
       234.750          41.000          42.000  
 114363963.840 7  89114841.340 7  21762740.137    21762755.431       -1784.816  
     -1390.664          44.000          46.000  
 111043888.925 7  86527763.344 7  21130950.528    21130965.335       -1813.008  
     -1412.398          44.000          43.000  
 109078022.617 7  84995929.709 7  20756859.053    20756875.119          87.117  
        67.883          42.000          44.000  
 117108133.583 7  91253177.864 7  22284936.448    22284956.237        2895.094  
      2255.918          45.000          43.000  
 128222351.933 7  99913596.632 6  24399905.800    24399923.070       -3355.531  
     -2614.332          42.000          39.000  
 24  1 10  3 19  1.7000000  0  7G08G24G18G23G10G32G15
 130527318.975 6 101709681.375 6  24838535.272    24838557.347        2817.441  
      2195.258          38.000          40.000  
 129603276.836 6 100989658.376 7  24662683.134    24662704.401         301.289  
       235.078          41.000          42.000  
 114364142.268 7  89114980.403 7  21762774.090    21762789.391       -1784.238  
     -1390.379          44.000          46.000  
 111044070.207 7  86527904.631 7  21130985.025    21130999.838       -1812.891  
     -1412.633          44.000          42.000  
 109078013.923 7  84995922.921 7  20756857.399    20756873.461          87.105  
        67.973          43.000          44.000  
 117107844.047 7  91252952.255 7  22284881.351    22284901.141        2895.184  
      2256.039          45.000          43.000  
 128222687.464 7  99913858.024 6  24399969.649    24399986.905       -3355.355  
     -2614.156          42.000          39.000  
 24  1 10  3 19  1.8000000  0  7G08G24G18G23G10G32G15
 130527037.265 6 101709461.853 6  24838481.813    24838503.480        2817.250  
      2195.055          38.000          40.000  
 129603246.673 6 100989634.910 7  24662677.699    24662699.029         301.465  
       234.555          40.000          42.000  
 114364320.676 7  89115119.429 7  21762808.915    21762823.530       -1784.301  
     -1390.453          44.000          46.000  
 111044251.502 7  86528045.901 7  21131019.961    21131034.166       -1812.926  
     -1412.652          44.000          42.000  
 109078005.212 7  84995916.113 7  20756855.436    20756871.611          86.961  
        67.801          43.000          44.000  
 117107554.548 7  91252726.675 7  22284826.480    22284846.263        2895.184  
      2255.875          45.000          43.000  
 128223022.987 7  99914119.496 6  24400033.255    24400050.298       -3355.297  
     -2614.543          42.000          39.000  
 24  1 10  3 19  1.9000000  0  7G08G24G18G23G10G32G15
 130526755.594 6 101709242.336 6  24838428.213    24838449.872        2816.863  
      2195.070          39.000          41.000  
 129603216.606 6 100989611.465 7  24662671.977    24662693.304         301.070  
       234.492          40.000          42.000  
 114364499.187 7  89115258.583 7  21762842.885    21762857.513       -1784.438  
     -1390.777          44.000          46.000  
 111044432.859 7  86528187.161 7  21131054.473    21131068.663       -1813.469  
     -1412.895          44.000          43.000  
 109077996.553 7  84995909.366 7  20756853.789    20756869.963          86.707  
        67.438          43.000          44.000  
 117107265.057 7  91252501.085 7  22284771.391    22284791.172        2894.930  
      2255.809          45.000          43.000  
 128223358.512 7  99914380.967 6  24400097.103    24400114.152       -3355.230  
     -2614.879          43.000          39.000  
 24  1 10  3 19  2.0000000  0  7G08G24G18G23G10G32G15
 130526473.919 6 101709022.859 6  24838374.237    24838396.336        2816.922  
      2194.914          39.000          41.000  
 129603186.482 6 100989588.018 7  24662665.557    24662687.757         301.152  
       234.555          40.000          42.000  
 114364677.651 7  89115397.570 7  21762876.799    21762891.729       -1784.812  
     -1390.766          43.000          46.000  
 111044614.164 7  86528328.472 7  21131089.067    21131103.149       -1813.203  
     -1412.941          44.000          43.000  
 109077987.892 7  84995902.634 7  20756852.102    20756868.194          86.730  
        67.371          43.000          43.000  
 117106975.574 7  91252275.510 7  22284716.414    22284735.810        2894.879  
      2255.680          45.000          43.000  
 128223694.082 7  99914642.474 6  24400161.062    24400178.468       -3355.324  
     -2614.867          42.000          39.000  
 24  1 10  3 19  2.1000000  0  7G08G24G18G23G10G32G15
 130526192.263 6 101708803.411 6  24838320.639    24838342.744        2816.695  
      2194.637          39.000          41.000  
 129603156.344 6 100989564.538 7  24662659.822    24662682.024         301.293  
       234.816          40.000          42.000  
 114364856.111 7  89115536.662 7  21762910.758    21762925.696       -1784.562  
     -1390.598          43.000          46.000  
 111044795.508 7  86528469.790 7  21131123.576    21131137.661       -1813.164  
     -1413.012          44.000          42.000  
 109077979.273 7  84995895.910 7  20756850.461    20756866.552          86.387  
        67.223          43.000          43.000  
 117106686.114 7  91252049.971 7  22284661.332    22284680.732        2894.789  
      2255.637          45.000          44.000  
 128224029.680 7  99914903.947 6  24400224.924    24400242.322       -3355.938  
     -2615.031          42.000          39.000  
 24  1 10  3 19  2.2000000  0  7G08G24G18G23G10G32G15
 130525910.679 6 101708583.993 6  24838266.876    24838289.238        2815.668  
      2194.109          39.000          41.000  
 129603126.284 6 100989541.063 7  24662653.782    24662676.674         300.559  
       234.645          39.000          42.000  
 114365034.710 7  89115675.779 7  21762944.549    21762959.741       -1786.047  
     -1391.379          43.000          46.000  
 111044976.953 7  86528611.147 7  21131157.643    21131171.947       -1814.438  
     -1413.699          43.000          42.000  
 109077970.734 7  84995889.279 7  20756849.071    20756865.073          85.406  
        66.555          43.000          43.000  
 117106396.682 7  91251824.444 7  22284606.106    22284625.757        2894.148  
      2255.066          45.000          43.000  
 128224365.293 7  99915165.481 6  24400288.195    24400306.801       -3355.926  
     -2615.191          42.000          39.000  
 24  1 10  3 19  2.3000000  0  7G08G24G18G23G10G32G15
 130525629.141 6 101708364.583 6  24838213.301    24838235.656        2815.602  
      2194.027          38.000          41.000  
 129603096.252 6 100989517.648 7  24662648.067    24662670.955         300.383  
       234.219          39.000          42.000  
 114365213.212 7  89115814.920 7  21762978.517    21762993.720       -1784.949  
     -1391.027          43.000          46.000  
 111045158.341 7  86528752.519 7  21131192.160    21131206.472       -1814.094  
     -1413.723          43.000          43.000  
 109077962.181 7  84995882.581 7  20756847.443    20756863.438          85.387  
        66.602          43.000          43.000  
 117106107.258 7  91251598.924 7  22284551.031    22284570.683        2894.211  
      2255.258          45.000          43.000  
 128224700.856 7  99915427.000 6  24400352.051    24400370.666       -3355.879  
     -2615.336          42.000          39.000  
 24  1 10  3 19  2.4000000  0  7G08G24G18G23G10G32G15
 130525347.547 6 101708145.186 6  24838159.731    24838182.546        2815.887  
      2194.066          38.000          41.000  
 129603066.163 6 100989494.228 7  24662642.396    24662665.212         300.828  
       234.129          39.000          42.000  
 114365391.744 7  89115954.015 7  21763011.764    21763027.095       -1785.402  
     -1391.481          42.000          46.000  
 111045339.770 7  86528893.890 7  21131226.153    21131240.957       -1814.141  
     -1413.844          43.000          43.000  
 109077953.659 7  84995875.957 7  20756846.118    20756861.898          85.453  
        66.398          43.000          43.000  
 117105817.835 7  91251373.384 7  22284495.924    22284515.362        2894.180  
      2255.242          45.000          44.000  
 128225036.531 7  99915688.546 6  24400415.615    24400434.413       -3356.219  
     -2615.016          42.000          39.000  
 24  1 10  3 19  2.5000000  0  7G08G24G18G23G10G32G15
 130525066.001 6 101707925.773 6  24838106.155    24838128.963        2815.645  
      2194.188          39.000          41.000  
 129603036.060 6 100989470.803 7  24662636.667    24662659.492         300.895  
       234.344          39.000          43.000  
 114365570.326 7  89116093.177 7  21763045.747    21763061.080       -1785.371  
     -1390.957          42.000          46.000  
 111045521.240 7  86529035.305 7  21131260.686    21131275.492       -1814.387  
     -1413.680          43.000          42.000  
 109077945.135 7  84995869.315 7  20756844.496    20756860.276          85.312  
        66.461          43.000          43.000  
 117105528.417 7  91251147.877 7  22284440.850    22284460.290        2894.316  
      2255.203          45.000          43.000  
 128225372.117 7  99915949.945 6  24400479.475    24400498.250       -3356.230  
     -2614.668          42.000          39.000  
 24  1 10  3 19  2.6000000  0  7G08G24G18G23G10G32G15
 130524784.420 6 101707706.397 6  24838052.400    24838074.928        2815.746  
      2193.824          39.000          40.000  
 129603005.990 6 100989447.354 7  24662631.242    24662654.297         300.789  
       234.473          40.000          43.000  
 114365748.896 7  89116232.306 7  21763079.665    21763095.205       -1785.648  
     -1391.504          43.000          46.000  
 111045702.692 7  86529176.707 7  21131295.520    21131309.430       -1814.480  
     -1414.367          44.000          42.000  
 109077936.642 7  84995862.709 7  20756842.747    20756858.663          85.070  
        66.074          43.000          43.000  
 117105239.012 7  91250922.377 7  22284385.715    22284406.002        2894.215  
      2255.215          45.000          43.000  
 128225707.755 7  99916211.546 6  24400543.423    24400561.979       -3355.969  
     -2615.164          43.000          39.000  
 24  1 10  3 19  2.7000000  0  7G08G24G18G23G10G32G15
 130524502.913 6 101707487.000 6  24837998.831    24838021.349        2815.379  
      2193.891          38.000          41.000  
 129602975.926 6 100989423.905 7  24662625.521    24662648.570         300.609  
       234.367          39.000          42.000  
 114365927.411 7  89116371.396 7  21763113.636    21763129.172       -1785.559  
     -1391.348          44.000          46.000  
 111045884.175 7  86529318.081 7  21131330.055    21131343.955       -1814.734  
     -1413.789          44.000          42.000  
 109077928.173 7  84995856.103 7  20756841.136    20756857.050          84.832  
        65.926          43.000          43.000  
 117104949.605 7  91250696.844 7  22284330.643    22284350.925        2894.016  
      2254.984          45.000          44.000  
 128226043.388 7  99916473.071 6  24400607.291    24400625.846       -3356.340  
     -2615.477          43.000          39.000  
 24  1 10  3 19  2.8000000  0  7G08G24G18G23G10G32G15
 130524221.387 6 101707267.647 6  24837945.461    24837967.492        2815.297  
      2193.504          38.000          40.000  
 129602945.901 6 100989400.525 7  24662619.729    24662642.775         300.520  
       233.758          40.000          43.000  
 114366106.017 7  89116510.633 7  21763148.670    21763163.378       -1785.648  
     -1391.731          44.000          46.000  
 111046065.684 7  86529459.542 7  21131364.915    21131378.939       -1814.859  
     -1414.422          44.000          43.000  
 109077919.716 7  84995849.508 7  20756839.753    20756855.322          84.762  
        65.863          43.000          43.000  
 117104660.225 7  91250471.359 7  22284275.529    22284295.836        2893.898  
      2254.918          45.000          43.000  
 128226379.026 7  99916734.617 6  24400671.630    24400689.687       -3356.320  
     -2615.438          43.000          39.000  
 24  1 10  3 19  2.9000000  0  7G08G24G18G23G10G32G15
 130523939.873 6 101707048.277 6  24837891.891    24837913.920        2815.309  
      2193.871          38.000          41.000  
 129602915.814 6 100989377.118 7  24662614.004    24662637.058         300.621  
       234.176          40.000          42.000  
 114366284.547 7  89116649.766 7  21763182.643    21763197.356       -1785.602  
     -1391.828          43.000          46.000  
 111046247.211 7  86529600.981 7  21131399.459    21131413.479       -1815.078  
     -1414.402          44.000          43.000  
 109077911.286 7  84995842.943 7  20756838.149    20756853.719          84.570  
        65.797          43.000          43.000  
 117104370.836 7  91250245.856 7  22284220.460    22284240.765        2893.871  
      2254.949          45.000          43.000  
 128226714.684 7  99916996.209 6  24400735.504    24400753.571       -3356.438  
     -2615.789          43.000          39.000  
 24  1 10  3 19  3.0000000  0  7G08G24G18G23G10G32G15
 130523658.356 6 101706828.932 6  24837838.562    24837860.111        2815.188  
      2193.348          39.000          41.000  
 129602885.840 6 100989353.710 7  24662608.620    24662631.545         300.230  
       234.168          40.000          42.000  
 114366463.212 7  89116788.992 7  21763216.666    21763231.544       -1786.051  
     -1391.531          44.000          46.000  
 111046428.700 7  86529742.397 7  21131434.058    21131448.319       -1814.945  
     -1414.293          43.000          43.000  
 109077902.836 7  84995836.366 7  20756836.768    20756852.230          84.621  
        66.031          43.000          43.000  
 117104081.479 7  91250020.374 7  22284165.897    22284185.450        2893.902  
      2255.094          45.000          43.000  
 128227050.357 7  99917257.752 6  24400799.864    24400817.637       -3356.430  
     -2615.496          43.000          39.000  
 24  1 10  3 19  3.1000000  0  7G08G24G18G23G10G32G15
 130523376.890 6 101706609.583 6  24837785.001    24837806.544        2814.934  
      2193.375          39.000          40.000  
 129602855.895 6 100989330.353 6  24662602.922    24662625.841         299.699  
       233.496          39.000          41.000  
 114366641.869 7  89116928.133 7  21763250.663    21763265.524       -1786.547  
     -1392.195          44.000          46.000  
 111046610.242 7  86529883.867 7  21131468.604    21131482.868       -1815.207  
     -1414.691          44.000          43.000  
 109077894.426 7  84995829.800 7  20756835.167    20756850.626          84.289  
        65.336          43.000          44.000  
 117103792.140 7  91249794.944 7  22284110.838    22284130.398        2893.562  
      2254.414          45.000          43.000  
 128227386.090 7  99917519.345 6  24400863.752    24400881.521       -3357.055  
     -2616.121          42.000          39.000  
 24  1 10  3 19  3.2000000  0  7G08G24G18G23G10G32G15
 130523095.376 6 101706390.253 6  24837731.868    24837753.192        2815.125  
      2193.312          39.000          40.000  
 129602825.939 6 100989307.007 6  24662597.456    24662619.397         299.684  
       233.766          39.000          41.000  
 114366820.497 7  89117067.355 7  21763283.967    21763299.226       -1786.246  
     -1391.965          43.000          46.000  
 111046791.791 7  86530025.332 7  21131503.519    21131517.790       -1815.379  
     -1414.734          44.000          43.000  
 109077886.021 7  84995823.252 7  20756833.224    20756849.246          83.941  
        65.277          42.000          44.000  
 117103502.777 7  91249569.445 7  22284055.688    22284075.407        2893.504  
      2254.754          45.000          43.000  
 128227721.735 7  99917780.918 6  24400927.303    24400944.728       -3356.832  
     -2616.043          42.000          39.000  
 24  1 10  3 19  3.3000000  0  7G08G24G18G23G10G32G15
 130522813.882 6 101706170.872 6  24837678.302    24837699.617        2815.039  
      2193.668          39.000          41.000  
 129602795.915 6 100989283.671 6  24662591.743    24662613.699         300.051  
       233.156          40.000          41.000  
 114366999.209 7  89117206.586 7  21763317.975    21763333.228       -1786.691  
     -1392.215          43.000          46.000  
 111046973.383 7  86530166.822 7  21131538.075    21131552.343       -1815.699  
     -1414.762          44.000          43.000  
 109077877.603 7  84995816.707 7  20756831.622    20756847.648          84.168  
        65.598          42.000          44.000  
 117103213.411 7  91249343.958 7  22284000.623    22284020.341        2893.504  
      2254.738          45.000          43.000  
 128228057.430 7  99918042.506 6  24400991.184    24401008.610       -3356.758  
     -2615.758          42.000          39.000  
 24  1 10  3 19  3.4000000  0  7G08G24G18G23G10G32G15
 130522532.346 6 101705951.515 6  24837624.586    24837646.134        2815.215  
      2193.621          39.000          41.000  
 129602765.938 6 100989260.315 6  24662586.015    24662607.589         299.758  
       233.531          40.000          41.000  
 114367177.816 7  89117345.736 7  21763351.533    21763367.100       -1786.492  
     -1392.195          43.000          46.000  
 111047154.927 7  86530308.299 7  21131572.644    21131586.815       -1815.477  
     -1414.820          44.000          42.000  
 109077869.202 7  84995810.168 7  20756829.703    20756846.012          84.191  
        65.742          42.000          44.000  
 117102924.054 7  91249118.507 7  22283945.615    22283964.932        2893.598  
      2254.570          45.000          43.000  
 128228393.138 7  99918304.092 6  24401055.067    24401072.367       -3356.824  
     -2615.434          42.000          39.000  
 24  1 10  3 19  3.5000000  0  7G08G24G18G23G10G32G15
 130522250.796 6 101705732.164 6  24837571.009    24837592.566        2815.227  
      2193.496          39.000          41.000  
 129602736.013 6 100989236.978 6  24662580.320    24662601.889         299.625  
       233.406          39.000          41.000  
 114367356.546 7  89117485.074 7  21763385.544    21763401.128       -1786.633  
     -1392.203          44.000          45.000  
 111047336.482 7  86530449.791 7  21131607.193    21131621.369       -1815.500  
     -1414.773          44.000          42.000  
 109077860.791 7  84995803.581 7  20756828.102    20756844.403          84.117  
        65.676          43.000          44.000  
 117102634.724 7  91248893.052 7  22283890.558    22283909.874        2893.496  
      2254.695          45.000          43.000  
 128228728.858 6  99918565.628 6  24401118.952    24401136.237       -3357.293  
     -2615.926          41.000          38.000  
 24  1 10  3 19  3.6000000  0  7G08G24G18G23G10G32G15
 130521969.348 6 101705512.807 6  24837517.459    24837538.958        2814.906  
      2193.531          39.000          41.000  
 129602706.053 6 100989213.667 6  24662574.353    24662596.400         299.523  
       233.168          39.000          41.000  
 114367535.242 7  89117624.250 7  21763420.150    21763434.733       -1787.031  
     -1392.371          43.000          45.000  
 111047518.021 7  86530591.229 7  21131641.317    21131655.394       -1815.566  
     -1414.785          44.000          43.000  
 109077852.342 7  84995797.030 7  20756826.792    20756842.561          84.227  
        65.445          43.000          44.000  
 117102345.410 7  91248667.610 7  22283835.480    22283854.834        2893.355  
      2254.344          45.000          43.000  
 128229064.597 6  99918827.286 6  24401182.599    24401200.199       -3357.234  
     -2616.367          41.000          39.000  
 24  1 10  3 19  3.7000000  0  7G08G24G18G23G10G32G15
 130521687.813 6 101705293.438 6  24837463.885    24837485.386        2815.129  
      2193.750          40.000          41.000  
 129602676.185 6 100989190.291 6  24662568.670    24662590.691         299.086  
       233.508          39.000          41.000  
 114367713.903 7  89117763.462 7  21763454.148    21763468.730       -1786.820  
     -1392.234          43.000          45.000  
 111047699.590 7  86530732.717 7  21131675.869    21131689.947       -1815.516  
     -1414.453          44.000          43.000  
 109077843.926 7  84995790.477 7  20756825.190    20756840.961          84.199  
        65.453          43.000          44.000  
 117102056.075 7  91248442.158 7  22283780.421    22283799.776        2893.352  
      2254.520          44.000          43.000  
 128229400.339 6  99919088.953 6  24401246.489    24401264.101       -3357.328  
     -2616.340          41.000          39.000  
 24  1 10  3 19  3.8000000  0  7G08G24G18G23G10G32G15
 130521406.292 6 101705074.063 6  24837410.673    24837432.000        2815.215  
      2193.828          40.000          41.000  
 129602646.215 6 100989167.035 7  24662562.740    24662585.629         299.461  
       232.746          39.000          42.000  
 114367892.543 7  89117902.706 7  21763488.244    21763502.508       -1786.344  
     -1392.191          44.000          45.000  
 111047881.120 7  86530874.137 7  21131710.710    21131724.592       -1815.398  
     -1414.402          44.000          43.000  
 109077835.482 7  84995783.873 7  20756823.802    20756839.520          84.406  
        66.137          42.000          44.000  
 117101766.714 7  91248216.672 7  22283725.099    22283744.812        2893.543  
      2254.672          44.000          43.000  
 128229736.024 6  99919350.491 6  24401310.141    24401328.502       -3357.062  
     -2615.590          41.000          39.000  
 24  1 10  3 19  3.9000000  0  7G08G24G18G23G10G32G15
 130521124.731 6 101704854.671 6  24837357.094    24837378.422        2815.480  
      2193.852          39.000          41.000  
 129602616.263 6 100989143.742 7  24662557.040    24662579.941         299.531  
       232.980          40.000          42.000  
 114368071.191 7  89118041.940 7  21763522.240    21763536.511       -1786.566  
     -1392.285          44.000          45.000  
 111048062.597 7  86531015.557 7  21131745.243    21131759.129       -1815.055  
     -1414.316          44.000          42.000  
 109077826.990 7  84995777.239 7  20756822.186    20756837.900          84.730  
        66.258          42.000          44.000  
 117101477.358 7  91247991.206 7  22283670.037    22283689.751        2893.625  
      2254.570          44.000          43.000  
 128230071.729 7  99919612.089 6  24401374.023    24401392.387       -3356.867  
     -2615.770          42.000          39.000  
 24  1 10  3 19  4.0000000  0  7G08G24G18G23G10G32G15
 130520843.188 6 101704635.268 6  24837303.658    24837325.146        2815.410  
      2193.984          39.000          41.000  
 129602586.380 6 100989120.429 7  24662551.620    24662574.833         298.996  
       233.039          40.000          42.000  
 114368249.819 7  89118181.119 7  21763556.427    21763570.906       -1786.379  
     -1392.273          43.000          45.000  
 111048244.129 7  86531157.026 7  21131779.827    21131793.403       -1815.129  
     -1414.359          44.000          42.000  
 109077818.515 7  84995770.661 7  20756820.472    20756836.387          84.688  
        65.875          42.000          44.000  
 117101187.994 7  91247765.721 7  22283615.098    22283635.052        2893.328  
      2254.742          44.000          43.000  
 128230407.454 7  99919873.651 6  24401437.629    24401456.662       -3357.383  
     -2616.031          42.000          40.000  
 24  1 10  3 19  4.1000000  0  7G08G24G18G23G10G32G15
 130520561.569 6 101704415.860 6  24837250.068    24837271.564        2815.797  
      2194.109          39.000          41.000  
 129602556.480 6 100989097.077 7  24662545.930    24662569.130         298.969  
       233.301          40.000          43.000  
 114368428.502 7  89118320.326 7  21763590.429    21763604.902       -1786.672  
     -1392.062          43.000          45.000  
 111048425.610 7  86531298.445 7  21131814.362    21131827.939       -1814.961  
     -1414.387          44.000          42.000  
 109077809.998 7  84995764.013 7  20756818.851    20756834.764          84.879  
        66.285          42.000          44.000  
 117100898.667 7  91247540.271 7  22283560.041    22283579.995        2893.578  
      2254.820          44.000          43.000  
 128230743.170 7  99920135.234 6  24401501.513    24401520.543       -3357.133  
     -2615.445          42.000          40.000  
 24  1 10  3 19  4.2000000  0  7G08G24G18G23G10G32G15
 130520279.969 6 101704196.429 6  24837196.216    24837217.305        2815.898  
      2194.383          39.000          41.000  
 129602526.545 6 100989073.759 7  24662540.116    24662563.608         299.293  
       233.305          41.000          43.000  
 114368607.079 7  89118459.502 7  21763624.317    21763638.874       -1786.191  
     -1391.719          43.000          45.000  
 111048607.062 7  86531439.825 7  21131849.008    21131862.185       -1814.707  
     -1413.672          44.000          42.000  
 109077801.448 7  84995757.353 7  20756816.872    20756832.957          85.195  
        66.582          42.000          44.000  
 117100609.266 7  91247314.791 7  22283504.970    22283524.829        2893.750  
      2254.789          44.000          43.000  
 128231078.809 7  99920396.751 6  24401565.821    24401584.275       -3356.891  
     -2615.562          42.000          40.000  
 24  1 10  3 19  4.3000000  0  7G08G24G18G23G10G32G15
 130519998.417 6 101703977.038 6  24837142.638    24837163.728        2815.676  
      2193.812          39.000          41.000  
 129602496.638 6 100989050.442 7  24662534.425    24662557.914         299.117  
       232.945          41.000          43.000  
 114368785.821 7  89118598.734 7  21763658.331    21763672.876       -1786.898  
     -1392.246          44.000          45.000  
 111048788.525 7  86531581.214 7  21131883.539    21131896.713       -1814.664  
     -1414.043          44.000          42.000  
 109077792.953 7  84995750.745 7  20756815.256    20756831.344          85.273  
        66.441          42.000          44.000  
 117100319.922 7  91247089.315 7  22283449.909    22283469.765        2893.574  
      2254.785          44.000          43.000  
 128231414.522 7  99920658.425 6  24401629.705    24401648.179       -3356.734  
     -2616.004          42.000          40.000  
 24  1 10  3 19  4.4000000  0  7G08G24G18G23G10G32G15
 130519716.842 6 101703757.618 6  24837088.790    24837110.167        2815.754  
      2194.105          39.000          41.000  
 129602466.766 6 100989027.209 7  24662528.553    24662552.357         299.078  
       232.949          40.000          43.000  
 114368964.470 7  89118737.944 7  21763692.647    21763707.091       -1786.641  
     -1392.277          44.000          46.000  
 111048970.013 7  86531722.662 7  21131917.349    21131930.928       -1814.809  
     -1414.027          44.000          42.000  
 109077784.427 7  84995744.091 7  20756813.383    20756829.914          85.020  
        66.109          43.000          44.000  
 117100030.577 7  91246863.844 7  22283394.966    22283414.726        2893.484  
      2254.426          44.000          43.000  
 128231750.205 7  99920919.981 6  24401693.864    24401712.483       -3356.965  
     -2615.953          42.000          39.000  
 24  1 10  3 19  4.5000000  0  7G08G24G18G23G10G32G15
 130519435.240 6 101703538.216 6  24837035.203    24837056.586        2815.840  
      2194.055          39.000          41.000  
 129602436.929 6 100989003.914 7  24662522.875    24662546.668         298.586  
       232.785          41.000          43.000  
 114369143.146 7  89118877.217 7  21763726.648    21763741.104       -1786.555  
     -1392.289          44.000          46.000  
 111049151.451 7  86531864.048 7  21131951.875    21131965.456       -1814.621  
     -1413.996          43.000          42.000  
 109077775.913 7  84995737.454 7  20756811.763    20756828.293          85.109  
        66.320          43.000          44.000  
 117099741.266 7  91246638.414 7  22283339.912    22283359.674        2893.340  
      2254.461          45.000          43.000  
 128232085.924 6  99921181.530 6  24401757.750    24401776.356       -3357.117  
     -2615.848          41.000          39.000  
 24  1 10  3 19  4.6000000  0  7G08G24G18G23G10G32G15
 130519153.699 6 101703318.815 6  24836981.808    24837002.756        2815.691  
      2193.926          40.000          41.000  
 129602407.057 6 100988980.632 7  24662517.410    24662540.092         298.512  
       232.402          41.000          43.000  
 114369321.821 7  89119016.415 7  21763760.930    21763774.948       -1786.844  
     -1392.356          44.000          46.000  
 111049332.943 7  86532005.469 7  21131985.904    21131999.813       -1814.863  
     -1414.430          43.000          42.000  
 109077767.443 7  84995730.859 7  20756810.370    20756826.597          85.047  
        66.355          42.000          44.000  
 117099451.957 7  91246412.989 7  22283284.819    22283304.248        2893.148  
      2254.328          45.000          43.000  
 128232421.629 7  99921443.177 6  24401821.210    24401839.675       -3357.078  
     -2616.242          42.000          39.000  
 24  1 10  3 19  4.7000000  0  7G08G24G18G23G10G32G15
 130518872.163 6 101703099.420 6  24836928.233    24836949.178        2815.449  
      2193.938          39.000          41.000  
 129602377.227 6 100988957.481 7  24662511.733    24662534.438         298.641  
       232.137          41.000          43.000  
 114369500.521 7  89119155.670 7  21763794.935    21763808.956       -1786.980  
     -1392.457          45.000          46.000  
 111049514.452 7  86532146.907 7  21132020.444    21132034.353       -1814.879  
     -1414.207          44.000          42.000  
 109077758.949 7  84995724.217 7  20756808.754    20756824.975          84.773  
        66.016          43.000          44.000  
 117099162.667 7  91246187.553 7  22283229.769    22283249.194        2892.977  
      2254.207          45.000          43.000  
 128232757.361 6  99921704.787 6  24401885.098    24401903.563       -3357.156  
     -2616.117          41.000          39.000  
 24  1 10  3 19  4.8000000  0  7G08G24G18G23G10G32G15
 130518590.584 6 101702879.997 6  24836874.682    24836895.749        2815.582  
      2194.016          39.000          41.000  
 129602347.319 6 100988934.132 7  24662506.464    24662528.759         298.668  
       232.895          41.000          43.000  
 114369679.203 7  89119294.901 7  21763829.172    21763842.958       -1786.754  
     -1392.324          44.000          46.000  
 111049695.937 7  86532288.297 7  21132055.347    21132069.195       -1814.938  
     -1414.008          44.000          42.000  
 109077750.484 7  84995717.654 7  20756806.979    20756823.262          84.805  
        65.934          43.000          44.000  
 117098873.373 7  91245962.129 7  22283174.577    22283194.253        2893.027  
      2254.320          45.000          43.000  
 128233093.070 6  99921966.378 6  24401948.903    24401967.454       -3357.051  
     -2615.730          41.000          39.000  
 24  1 10  3 19  4.9000000  0  7G08G24G18G23G10G32G15
 130518309.009 6 101702660.622 6  24836821.100    24836842.175        2815.719  
      2193.828          39.000          41.000  
 129602317.473 6 100988910.886 7  24662500.784    24662523.083         298.715  
       232.871          40.000          43.000  
 114369857.933 7  89119434.192 7  21763863.183    21763876.974       -1787.062  
     -1392.481          43.000          46.000  
 111049877.457 7  86532429.725 7  21132089.889    21132103.733       -1815.016  
     -1414.426          44.000          42.000  
 109077741.967 7  84995711.000 7  20756805.358    20756821.637          84.879  
        66.242          43.000          44.000  
 117098584.055 7  91245736.690 7  22283119.522    22283139.198        2893.035  
      2254.184          45.000          43.000  
 128233428.776 6  99922227.987 6  24402012.786    24402031.341       -3357.062  
     -2615.910          41.000          39.000  
 24  1 10  3 19  5.0000000  0  7G08G24G18G23G10G32G15
 130518027.481 6 101702441.239 6  24836767.425    24836788.850        2815.395  
      2193.594          39.000          41.000  
 129602287.606 6 100988887.611 7  24662495.202    24662516.883         298.703  
       232.684          40.000          43.000  
 114370036.637 7  89119573.388 7  21763896.431    21763910.975       -1787.207  
     -1392.555          43.000          46.000  
 111050058.976 7  86532571.197 7  21132125.251    21132138.735       -1815.102  
     -1414.535          44.000          43.000  
 109077733.555 7  84995704.445 7  20756803.507    20756820.256          84.582  
        65.699          42.000          44.000  
 117098294.802 7  91245511.295 7  22283064.503    22283083.631        2892.801  
      2254.078          45.000          43.000  
 128233764.548 6  99922489.543 6  24402076.462    24402095.052       -3357.527  
     -2615.891          41.000          39.000  
 24  1 10  3 19  5.1000000  0  7G08G24G18G23G10G32G15
 130517745.953 6 101702221.895 6  24836713.852    24836735.283        2815.402  
      2193.781          39.000          41.000  
 129602257.729 6 100988864.308 7  24662489.517    24662511.192         298.684  
       232.906          40.000          42.000  
 114370215.367 7  89119712.672 7  21763930.443    21763944.989       -1787.152  
     -1392.648          44.000          46.000  
 111050240.502 7  86532712.654 7  21132159.794    21132173.280       -1815.180  
     -1414.430          45.000          43.000  
 109077725.096 7  84995697.867 7  20756801.898    20756818.649          84.523  
        65.891          43.000          44.000  
 117098005.531 7  91245285.897 7  22283009.456    22283028.587        2892.668  
      2254.051          45.000          43.000  
 128234100.269 7  99922751.175 6  24402140.348    24402158.945       -3357.184  
     -2616.281          42.000          39.000  
 24  1 10  3 19  5.2000000  0  7G08G24G18G23G10G32G15
 130517464.427 6 101702002.474 6  24836660.178    24836681.855        2815.293  
      2193.914          39.000          41.000  
 129602227.905 6 100988841.055 7  24662483.349    24662505.146         298.520  
       232.371          39.000          42.000  
 114370393.993 7  89119851.914 7  21763964.340    21763979.189       -1786.656  
     -1392.621          43.000          46.000  
 111050422.040 7  86532854.095 7  21132194.895    21132208.454       -1815.352  
     -1414.617          45.000          43.000  
 109077716.703 7  84995691.327 7  20756800.308    20756817.044          84.387  
        65.621          43.000          44.000  
 117097716.279 7  91245060.505 7  22282954.390    22282973.966        2892.625  
      2253.973          45.000          43.000  
 128234435.994 7  99923012.799 6  24402204.648    24402222.157       -3357.164  
     -2616.254          42.000          39.000  
 24  1 10  3 19  5.3000000  0  7G08G24G18G23G10G32G15
 130517182.955 6 101701783.168 6  24836606.616    24836628.298        2814.992  
      2193.312          39.000          41.000  
 129602198.067 6 100988817.823 7  24662477.671    24662499.473         298.480  
       232.352          39.000          42.000  
 114370572.875 7  89119991.285 7  21763998.380    21764013.225       -1787.691  
     -1392.902          42.000          46.000  
 111050603.600 7  86532995.575 7  21132229.444    21132243.005       -1815.508  
     -1414.723          45.000          43.000  
 109077708.327 7  84995684.784 7  20756798.714    20756815.446          83.809  
        65.230          42.000          44.000  
 117097427.058 7  91244835.147 7  22282899.353    22282918.931        2892.355  
      2253.633          45.000          43.000  
 128234771.735 7  99923274.389 6  24402268.538    24402286.040       -3357.488  
     -2616.289          42.000          39.000  
 24  1 10  3 19  5.4000000  0  7G08G24G18G23G10G32G15
 130516901.476 6 101701563.837 6  24836552.982    24836574.524        2814.895  
      2193.164          39.000          41.000  
 129602168.217 6 100988794.600 7  24662471.546    24662494.255         298.465  
       232.355          39.000          42.000  
 114370751.579 7  89120130.468 7  21764031.707    21764047.223       -1787.688  
     -1392.871          43.000          46.000  
 111050785.168 7  86533137.041 7  21132263.972    21132277.935       -1815.703  
     -1414.832          45.000          43.000  
 109077699.930 7  84995678.269 7  20756797.179    20756813.902          83.977  
        65.254          42.000          44.000  
 117097137.827 7  91244609.754 7  22282844.494    22282864.278        2892.305  
      2253.672          45.000          43.000  
 128235107.485 7  99923536.034 6  24402332.749    24402349.850       -3357.336  
     -2616.145          43.000          39.000  
 24  1 10  3 19  5.5000000  0  7G08G24G18G23G10G32G15
 130516619.984 6 101701344.495 6  24836499.416    24836520.959        2814.945  
      2193.602          39.000          41.000  
 129602138.391 6 100988771.360 7  24662465.870    24662488.579         298.379  
       232.461          39.000          42.000  
 114370930.322 7  89120269.824 7  21764065.720    21764081.255       -1787.133  
     -1392.738          43.000          46.000  
 111050966.731 7  86533278.511 7  21132298.522    21132312.484       -1815.543  
     -1414.715          44.000          43.000  
 109077691.553 7  84995671.737 7  20756795.585    20756812.307          83.848  
        65.473          42.000          44.000  
 117096848.594 7  91244384.385 7  22282789.455    22282809.241        2892.258  
      2253.793          45.000          43.000  
 128235443.171 7  99923797.596 6  24402396.628    24402413.726       -3357.262  
     -2615.984          43.000          39.000  
 24  1 10  3 19  5.6000000  0  7G08G24G18G23G10G32G15
 130516338.564 6 101701125.196 6  24836445.832    24836467.529        2814.410  
      2192.945          39.000          41.000  
 129602108.550 6 100988748.129 6  24662459.949    24662482.179         298.285  
       232.246          39.000          41.000  
 114371109.139 7  89120409.077 7  21764100.170    21764115.394       -1788.613  
     -1393.277          44.000          46.000  
 111051148.359 7  86533420.076 7  21132332.663    21132346.680       -1816.008  
     -1415.211          44.000          43.000  
 109077683.239 7  84995665.236 7  20756794.026    20756810.821          83.109  
        64.820          43.000          44.000  
 117096559.408 7  91244159.045 7  22282734.456    22282753.585        2891.914  
      2253.496          45.000          43.000  
 128235778.989 7  99924059.283 6  24402461.040    24402477.664       -3357.836  
     -2616.141          43.000          39.000  
 24  1 10  3 19  5.7000000  0  7G08G24G18G23G10G32G15
 130516057.110 6 101700905.865 6  24836392.273    24836413.966        2814.559  
      2193.289          38.000          41.000  
 129602078.751 6 100988724.841 6  24662454.279    24662476.492         298.242  
       232.941          39.000          41.000  
 114371287.884 7  89120548.416 7  21764134.184    21764149.423       -1786.953  
     -1392.898          44.000          46.000  
 111051329.948 7  86533561.540 7  21132367.218    21132381.227       -1816.098  
     -1414.863          45.000          43.000  
 109077674.878 7  84995658.717 7  20756792.435    20756809.229          83.371  
        65.074          42.000          44.000  
 117096270.204 7  91243933.692 7  22282679.422    22282698.552        2892.000  
      2253.512          45.000          43.000  
 128236114.700 7  99924320.857 6  24402524.923    24402541.543       -3357.422  
     -2616.535          43.000          39.000  
 24  1 10  3 19  5.8000000  0  7G08G24G18G23G10G32G15
 130515775.642 6 101700686.569 6  24836338.703    24836360.169        2814.684  
      2193.094          38.000          41.000  
 129602048.894 6 100988701.550 6  24662448.769    24662469.914         298.516  
       232.805          39.000          40.000  
 114371466.583 7  89120687.644 7  21764168.580    21764183.213       -1787.238  
     -1392.586          43.000          46.000  
 111051511.492 7  86533703.030 7  21132401.335    21132415.804       -1815.547  
     -1414.703          45.000          43.000  
 109077666.569 7  84995652.242 7  20756790.815    20756807.140          83.492  
        65.121          42.000          43.000  
 117095981.002 7  91243708.357 7  22282624.209    22282643.398        2892.242  
      2253.805          45.000          43.000  
 128236450.419 7  99924582.454 6  24402589.129    24402605.818       -3357.254  
     -2615.625          43.000          39.000  
 24  1 10  3 19  5.9000000  0  7G08G24G18G23G10G32G15
 130515494.204 6 101700467.262 6  24836285.148    24836306.612        2814.449  
      2193.176          38.000          41.000  
 129602019.025 6 100988678.344 6  24662443.085    24662464.247         298.547  
       232.156          40.000          40.000  
 114371645.311 7  89120826.960 7  21764202.591    21764217.235       -1787.148  
     -1392.707          43.000          46.000  
 111051693.094 7  86533844.505 7  21132435.893    21132450.354       -1815.699  
     -1414.770          44.000          43.000  
 109077658.197 7  84995645.726 7  20756789.222    20756805.548          83.617  
        64.984          42.000          43.000  
 117095691.781 7  91243482.980 7  22282569.172    22282588.358        2892.191  
      2253.578          45.000          43.000  
 128236786.172 7  99924844.002 6  24402653.021    24402669.691       -3357.324  
     -2615.625          42.000          39.000  
 24  1 10  3 19  6.0000000  0  7G08G24G18G23G10G32G15
 130515212.807 6 101700247.980 6  24836231.365    24836252.616        2814.176  
      2192.816          38.000          41.000  
 129601989.189 6 100988655.107 6  24662437.509    24662458.322         298.523  
       232.457          40.000          40.000  
 114371824.070 7  89120966.210 7  21764236.100    21764251.374       -1787.594  
     -1392.781          44.000          45.000  
 111051874.681 7  86533985.978 7  21132470.846    21132484.700       -1815.922  
     -1415.000          44.000          43.000  
 109077649.889 7  84995639.268 7  20756787.915    20756804.050          83.289  
        64.820          42.000          43.000  
 117095402.593 7  91243257.639 7  22282514.204    22282533.687        2891.953  
      2253.367          45.000          43.000  
 128237121.944 7  99925105.671 6  24402716.119    24402733.921       -3357.555  
     -2616.512          42.000          39.000  
 24  1 10  3 19  6.1000000  0  7G08G24G18G23G10G32G15
 130514931.451 6 101700028.736 6  24836177.825    24836199.075        2813.887  
      2192.484          39.000          41.000  
 129601959.399 6 100988631.863 6  24662431.840    24662452.645         298.109  
       232.582          40.000          40.000  
 114372002.819 7  89121105.557 7  21764270.114    21764285.404       -1787.359  
     -1393.406          43.000          46.000  
 111052056.261 7  86534127.542 7  21132505.400    21132519.271       -1815.855  
     -1415.551          45.000          43.000  
 109077641.601 7  84995632.802 7  20756786.337    20756802.471          83.066  
        64.465          42.000          43.000  
 117095113.449 7  91243032.327 7  22282459.181    22282478.664        2891.746  
      2253.172          45.000          43.000  
 128237457.681 7  99925367.343 6  24402780.008    24402797.825       -3357.531  
     -2616.734          42.000          40.000  
 24  1 10  3 19  6.2000000  0  7G08G24G18G23G10G32G15
 130514650.066 6 101699809.478 6  24836124.584    24836145.646        2813.840  
      2192.512          39.000          41.000  
 129601929.538 6 100988608.585 6  24662426.541    24662446.922         298.281  
       232.496          40.000          41.000  
 114372181.651 7  89121244.907 7  21764303.841    21764319.458       -1787.883  
     -1393.016          43.000          46.000  
 111052237.881 7  86534269.041 7  21132540.078    21132553.584       -1816.082  
     -1415.117          45.000          43.000  
 109077633.299 7  84995626.321 7  20756784.406    20756801.247          82.875  
        64.648          42.000          44.000  
 117094824.281 7  91242806.996 7  22282404.209    22282423.636        2891.668  
      2253.227          45.000          43.000  
 128237793.460 7  99925628.960 6  24402843.865    24402862.261       -3357.664  
     -2616.230          42.000          40.000  
 24  1 10  3 19  6.3000000  0  7G08G24G18G23G10G32G15
 130514368.691 6 101699590.233 6  24836071.040    24836092.105        2813.727  
      2192.289          39.000          41.000  
 129601899.776 6 100988585.391 6  24662420.877    24662441.257         298.012  
       231.953          40.000          41.000  
 114372360.490 7  89121384.152 7  21764337.872    21764353.463       -1788.445  
     -1393.293          44.000          46.000  
 111052419.541 7  86534410.587 7  21132574.647    21132588.151       -1816.379  
     -1415.406          45.000          43.000  
 109077625.072 7  84995619.923 7  20756782.840    20756799.685          82.641  
        64.188          42.000          44.000  
 117094535.158 7  91242581.719 7  22282349.191    22282368.621        2891.410  
      2252.789          45.000          43.000  
 128238129.255 7  99925890.647 6  24402907.765    24402926.167       -3357.754  
     -2616.688          42.000          40.000  
 24  1 10  3 19  6.4000000  0  7G08G24G18G23G10G32G15
 130514087.369 6 101699371.000 6  24836017.514    24836038.683        2813.566  
      2192.320          39.000          41.000  
 129601870.013 6 100988562.172 6  24662415.206    24662436.587         297.625  
       231.828          40.000          41.000  
 114372539.290 7  89121523.506 7  21764373.405    21764387.346       -1788.199  
     -1393.422          45.000          45.000  
 111052601.212 7  86534552.180 7  21132609.460    21132623.191       -1816.594  
     -1415.922          44.000          43.000  
 109077616.838 7  84995613.502 7  20756781.211    20756798.460          82.309  
        64.195          42.000          44.000  
 117094246.034 7  91242356.426 7  22282294.235    22282313.414        2891.238  
      2252.809          45.000          43.000  
 128238465.028 7  99926152.292 6  24402971.801    24402990.423       -3357.812  
     -2616.539          42.000          40.000  
 24  1 10  3 19  6.5000000  0  7G08G24G18G23G10G32G15
 130513806.007 6 101699151.781 6  24835963.972    24835985.148        2813.527  
      2192.305          39.000          41.000  
 129601840.210 6 100988539.000 7  24662409.534    24662430.928         297.898  
       232.148          40.000          42.000  
 114372718.072 7  89121662.826 7  21764407.426    21764421.370       -1788.055  
     -1393.352          45.000          45.000  
 111052782.887 7  86534693.693 7  21132644.032    21132657.750       -1816.730  
     -1415.242          44.000          43.000  
 109077608.584 7  84995607.089 7  20756779.640    20756796.894          82.496  
        64.020          42.000          44.000  
 117093956.912 7  91242131.144 7  22282239.217    22282258.398        2891.199  
      2252.953          45.000          43.000  
 128238800.840 7  99926413.879 6  24403035.704    24403054.305       -3357.988  
     -2615.977          42.000          40.000  
 24  1 10  3 19  6.6000000  0  7G08G24G18G23G10G32G15
 130513524.647 6 101698932.535 6  24835910.221    24835931.691        2813.633  
      2192.449          39.000          41.000  
 129601810.431 6 100988515.714 7  24662403.633    24662425.929         298.012  
       232.605          40.000          42.000  
 114372896.907 7  89121802.223 7  21764441.801    21764455.264       -1788.027  
     -1393.461          45.000          45.000  
 111052964.525 7  86534835.253 7  21132677.666    21132692.391       -1816.461  
     -1415.477          44.000          43.000  
 109077600.378 7  84995600.710 7  20756778.485    20756795.024          82.391  
        64.145          42.000          44.000  
 117093667.792 7  91241905.843 7  22282183.731    22282203.338        2891.246  
      2252.746          45.000          43.000  
 128239136.607 7  99926675.493 6  24403099.622    24403117.475       -3357.934  
     -2616.406          42.000          39.000  
 24  1 10  3 19  6.7000000  0  7G08G24G18G23G10G32G15
 130513243.284 6 101698713.310 6  24835856.679    24835878.154        2813.594  
      2192.348          39.000          41.000  
 129601780.570 6 100988492.513 7  24662397.951    24662420.263         298.176  
       232.094          40.000          43.000  
 114373075.751 7  89121941.560 7  21764475.834    21764489.291       -1788.152  
     -1393.199          45.000          45.000  
 111053146.212 7  86534976.816 7  21132712.240    21132726.962       -1816.699  
     -1415.523          44.000          43.000  
 109077592.174 7  84995594.262 7  20756776.924    20756793.449          82.117  
        64.152          42.000          44.000  
 117093378.694 7  91241680.582 7  22282128.717    22282148.327        2891.133  
      2252.824          45.000          43.000  
 128239472.383 7  99926937.243 6  24403163.518    24403181.398       -3357.602  
     -2616.840          43.000          39.000  
 24  1 10  3 19  6.8000000  0  7G08G24G18G23G10G32G15
 130512961.941 6 101698494.075 6  24835803.055    24835824.951        2813.445  
      2192.258          39.000          41.000  
 129601750.813 6 100988469.334 7  24662392.320    24662415.407         297.859  
       231.922          40.000          43.000  
 114373254.571 7  89122080.846 7  21764509.057    21764523.158       -1788.402  
     -1393.652          43.000          45.000  
 111053327.890 7  86535118.355 7  21132746.563    21132761.269       -1816.809  
     -1415.672          44.000          43.000  
 109077583.972 7  84995587.883 7  20756775.441    20756791.743          82.176  
        63.930          42.000          44.000  
 117093089.594 7  91241455.298 7  22282073.742    22282093.201        2891.062  
      2252.703          45.000          43.000  
 128239808.174 7  99927198.897 6  24403227.674    24403244.812       -3357.692  
     -2616.543          43.000          39.000  
 24  1 10  3 19  6.9000000  0  7G08G24G18G23G10G32G15
 130512680.651 6 101698274.881 6  24835749.528    24835771.421        2813.254  
      2192.012          39.000          41.000  
 129601721.045 6 100988446.140 7  24662386.655    24662409.743         297.855  
       231.949          40.000          42.000  
 114373433.399 7  89122220.203 7  21764543.087    21764557.190       -1788.387  
     -1393.398          43.000          45.000  
 111053509.546 7  86535259.938 7  21132781.131    21132795.845       -1816.551  
     -1415.613          44.000          43.000  
 109077575.719 7  84995581.469 7  20756773.871    20756790.177          82.273  
        64.145          42.000          44.000  
 117092800.482 7  91241230.029 7  22282018.726    22282038.188        2891.035  
      2252.766          45.000          43.000  
 128240143.949 7  99927460.501 6  24403291.570    24403308.698       -3357.996  
     -2616.566          43.000          39.000  
 24  1 10  3 19  7.0000000  0  7G08G24G18G23G10G32G15
 130512399.289 6 101698055.645 6  24835695.900    24835718.139        2813.426  
      2192.234          39.000          41.000  
 129601691.257 6 100988422.900 7  24662380.658    24662403.544         297.809  
       232.309          40.000          42.000  
 114373612.212 7  89122359.585 7  21764575.950    21764591.455       -1787.895  
     -1393.312          43.000          45.000  
 111053691.221 7  86535401.496 7  21132815.905    21132830.188       -1816.625  
     -1415.383          44.000          43.000  
 109077567.509 7  84995575.070 7  20756772.012    20756788.348          82.285  
        64.098          43.000          44.000  
 117092511.380 7  91241004.747 7  22281963.556    22281983.406        2891.109  
      2252.953          45.000          43.000  
 128240479.706 7  99927722.228 6  24403356.002    24403372.380       -3357.641  
     -2617.043          43.000          39.000  
 24  1 10  3 19  7.1000000  0  7G08G24G18G23G10G32G15
 130512117.956 6 101697836.441 6  24835642.364    24835664.608        2813.363  
      2192.172          39.000          41.000  
 129601661.537 6 100988399.722 7  24662375.003    24662397.884         297.484  
       231.848          40.000          42.000  
 114373790.996 7  89122498.899 7  21764609.971    21764625.477       -1787.969  
     -1393.316          43.000          46.000  
 111053872.847 7  86535543.005 7  21132850.468    21132864.746       -1816.566  
     -1415.363          44.000          43.000  
 109077559.246 7  84995568.635 7  20756770.439    20756786.777          82.312  
        64.266          42.000          44.000  
 117092222.250 7  91240779.463 7  22281908.536    22281928.390        2891.184  
      2252.891          45.000          43.000  
 128240815.484 7  99927983.875 6  24403419.898    24403436.277       -3357.629  
     -2616.395          43.000          39.000  
 24  1 10  3 19  7.2000000  0  7G08G24G18G23G10G32G15
 130511836.646 6 101697617.207 6  24835588.895    24835611.154        2813.270  
      2192.051          39.000          41.000  
 129601631.709 6 100988376.473 7  24662368.991    24662392.058         297.953  
       232.199          39.000          42.000  
 114373969.799 7  89122638.192 7  21764644.481    21764660.025       -1788.094  
     -1393.219          44.000          46.000  
 111054054.463 7  86535684.555 7  21132885.020    21132899.283       -1816.285  
     -1415.504          44.000          43.000  
 109077551.002 7  84995562.221 7  20756769.167    20756785.070          82.637  
        64.453          42.000          44.000  
 117091933.123 7  91240554.139 7  22281853.587    22281873.332        2891.234  
      2252.949          45.000          43.000  
 128241151.327 7  99928245.519 6  24403483.549    24403500.220       -3358.098  
     -2616.422          43.000          39.000  
 24  1 10  3 19  7.3000000  0  7G08G24G18G23G10G32G15
 130511555.301 6 101697398.006 6  24835535.357    24835557.623        2813.305  
      2192.191          39.000          41.000  
 129601601.992 6 100988353.307 6  24662363.336    24662386.400         297.457  
       231.805          39.000          41.000  
 114374148.630 7  89122777.602 7  21764678.511    21764694.070       -1787.922  
     -1393.496          45.000          46.000  
 111054236.133 7  86535826.125 7  21132919.591    21132933.856       -1816.469  
     -1415.586          44.000          43.000  
 109077542.770 7  84995555.784 7  20756767.601    20756783.498          82.281  
        64.176          43.000          44.000  
 117091644.010 7  91240328.874 7  22281798.571    22281818.320        2891.305  
      2252.820          45.000          43.000  
 128241487.128 7  99928507.123 6  24403547.450    24403564.106       -3358.074  
     -2616.176          43.000          39.000  
 24  1 10  3 19  7.4000000  0  7G08G24G18G23G10G32G15
 130511273.999 6 101697178.789 6  24835482.163    24835504.112        2813.258  
      2191.988          39.000          41.000  
 129601572.243 6 100988330.137 6  24662357.800    24662380.258         297.484  
       231.734          39.000          41.000  
 114374327.435 7  89122916.927 7  21764713.912    21764728.423       -1788.250  
     -1393.453          45.000          46.000  
 111054417.790 7  86535967.656 7  21132954.284    21132968.357       -1816.562  
     -1415.367          44.000          43.000  
 109077534.518 7  84995549.359 7  20756766.038    20756782.366          82.414  
        64.219          42.000          44.000  
 117091354.879 7  91240103.595 7  22281743.778    22281763.102        2891.227  
      2252.895          45.000          43.000  
 128241822.961 7  99928768.821 6  24403611.232    24403627.563       -3358.328  
     -2616.922          42.000          39.000  
 24  1 10  3 19  7.5000000  0  7G08G24G18G23G10G32G15
 130510992.644 6 101696959.559 6  24835428.623    24835450.573        2813.316  
      2192.406          39.000          41.000  
 129601542.522 6 100988306.968 6  24662352.144    24662374.600         297.473  
       231.617          39.000          41.000  
 114374506.229 7  89123056.219 7  21764747.935    21764762.440       -1788.016  
     -1393.180          44.000          46.000  
 111054599.421 7  86536109.184 7  21132988.847    21133002.919       -1816.328  
     -1415.328          44.000          43.000  
 109077526.258 7  84995542.954 7  20756764.466    20756780.802          82.684  
        64.371          43.000          44.000  
 117091065.731 7  91239878.261 7  22281688.754    22281708.073        2891.371  
      2253.043          45.000          43.000  
 128242158.746 7  99929030.515 6  24403675.130    24403691.471       -3357.984  
     -2616.809          42.000          39.000  
 24  1 10  3 19  7.6000000  0  7G08G24G18G23G10G32G15
 130510711.318 6 101696740.361 6  24835375.065    24835396.824        2813.262  
      2191.961          39.000          41.000  
 129601512.815 6 100988283.858 6  24662346.475    24662368.214         297.125  
       231.238          39.000          41.000  
 114374685.130 7  89123195.624 7  21764780.901    21764796.140       -1788.562  
     -1393.754          44.000          46.000  
 111054781.104 7  86536250.781 7  21133023.592    21133037.429       -1816.516  
     -1415.586          44.000          43.000  
 109077518.016 7  84995536.528 7  20756762.789    20756779.202          82.613  
        64.242          43.000          44.000  
 117090776.632 7  91239653.010 7  22281634.085    22281653.306        2891.246  
      2252.703          45.000          43.000  
 128242494.615 7  99929292.224 6  24403738.528    24403756.258       -3358.262  
     -2616.758          42.000          39.000  
 24  1 10  3 19  7.7000000  0  7G08G24G18G23G10G32G15
 130510430.077 6 101696521.183 6  24835321.547    24835343.299        2812.859  
      2191.738          39.000          41.000  
 129601483.158 6 100988260.743 6  24662340.832    24662362.569         296.977  
       231.102          40.000          41.000  
 114374864.058 7  89123335.050 7  21764814.950    21764830.189       -1788.969  
     -1393.992          44.000          46.000  
 111054962.822 7  86536392.370 7  21133058.172    21133072.006       -1817.059  
     -1416.121          44.000          43.000  
 109077509.840 7  84995530.162 7  20756761.233    20756777.647          81.984  
        63.770          42.000          44.000  
 117090487.548 7  91239427.738 7  22281579.074    22281598.292        2890.836  
      2252.492          45.000          43.000  
 128242830.485 7  99929553.998 6  24403802.442    24403820.186       -3358.512  
     -2617.629          42.000          39.000  
 24  1 10  3 19  7.8000000  0  7G08G24G18G23G10G32G15
 130510148.792 6 101696301.996 6  24835268.114    24835289.615        2812.895  
      2191.938          39.000          41.000  
 129601453.524 6 100988237.666 6  24662335.365    24662357.543         296.531  
       230.977          40.000          41.000  
 114375042.943 7  89123474.388 7  21764849.123    21764863.967       -1788.945  
     -1394.047          43.000          46.000  
 111055144.502 7  86536533.939 7  21133092.674    21133106.664       -1816.977  
     -1415.984          44.000          43.000  
 109077501.666 7  84995523.750 7  20756759.482    20756775.792          81.789  
        63.852          43.000          44.000  
 117090198.481 7  91239202.500 7  22281523.636    22281542.943        2890.758  
      2252.480          45.000          43.000  
 128243166.376 6  99929815.644 6  24403866.196    24403884.262       -3358.965  
     -2617.125          41.000          39.000  
 24  1 10  3 19  7.9000000  0  7G08G24G18G23G10G32G15
 130509867.477 6 101696082.817 6  24835214.581    24835236.089        2813.000  
      2191.773          39.000          41.000  
 129601423.835 6 100988214.557 6  24662329.715    24662351.899         296.746  
       231.113          39.000          41.000  
 114375221.812 7  89123613.845 7  21764883.161    21764898.024       -1788.750  
     -1394.160          43.000          46.000  
 111055326.240 7  86536675.553 7  21133127.258    21133141.248       -1817.098  
     -1416.133          44.000          42.000  
 109077493.483 7  84995517.364 7  20756757.925    20756774.233          81.879  
        63.750          43.000          44.000  
 117089909.422 7  91238977.266 7  22281468.630    22281487.939        2890.785  
      2252.406          44.000          43.000  
 128243502.234 6  99930077.412 6  24403930.107    24403948.189       -3358.625  
     -2617.422          41.000          39.000  
 24  1 10  3 19  8.0000000  0  7G08G24G18G23G10G32G15
 130509586.172 6 101695863.615 6  24835161.355    24835182.417        2813.062  
      2191.961          39.000          41.000  
 129601394.158 6 100988191.433 6  24662323.638    24662346.744         296.691  
       230.941          40.000          41.000  
 114375400.762 7  89123753.233 7  21764916.636    21764932.009       -1789.336  
     -1393.918          43.000          46.000  
 111055507.929 7  86536817.128 7  21133162.504    21133175.822       -1817.039  
     -1415.875          45.000          42.000  
 109077485.282 7  84995511.010 7  20756756.794    20756772.290          82.008  
        63.723          43.000          44.000  
 117089620.348 7  91238752.004 7  22281413.731    22281432.521        2890.652  
      2252.398          44.000          43.000  
 128243838.108 6  99930339.144 6  24403993.288    24404011.966       -3358.613  
     -2617.121          41.000          39.000  
 24  1 10  3 19  8.1000000  0  7G08G24G18G23G10G32G15
 130509304.878 6 101695644.416 6  24835107.827    24835128.887        2812.863  
      2191.734          39.000          41.000  
 129601364.551 6 100988168.322 6  24662318.004    24662341.100         296.500  
       231.273          40.000          41.000  
 114375579.674 7  89123892.653 7  21764950.681    21764966.057       -1789.109  
     -1394.273          43.000          46.000  
 111055689.739 7  86536958.788 7  21133197.101    21133210.417       -1817.516  
     -1416.297          44.000          42.000  
 109077477.136 7  84995504.664 7  20756755.244    20756770.740          81.707  
        63.676          42.000          44.000  
 117089331.331 7  91238526.787 7  22281358.733    22281377.521        2890.543  
      2252.293          44.000          43.000  
 128244173.973 6  99930600.874 6  24404057.201    24404075.883       -3358.582  
     -2617.371          41.000          39.000  
 24  1 10  3 19  8.2000000  0  7G08G24G18G23G10G32G15
 130509023.644 6 101695425.253 6  24835054.349    24835075.380        2812.793  
      2191.984          39.000          41.000  
 129601334.945 6 100988145.221 6  24662312.644    24662335.295         296.270  
       230.922          40.000          41.000  
 114375758.600 7  89124032.094 7  21764985.136    21765000.579       -1789.176  
     -1394.344          44.000          46.000  
 111055871.440 7  86537100.356 7  21133231.365    21133244.645       -1817.383  
     -1416.148          44.000          43.000  
 109077468.991 7  84995498.270 7  20756753.467    20756769.319          81.355  
        63.488          42.000          44.000  
 117089042.294 7  91238301.573 7  22281303.496    22281322.842        2890.336  
      2252.125          44.000          43.000  
 128244509.911 6  99930862.631 6  24404121.299    24404139.517       -3359.004  
     -2617.488          41.000          39.000  
 24  1 10  3 19  8.3000000  0  7G08G24G18G23G10G32G15
 130508742.311 6 101695206.056 6  24835000.813    24835021.850        2812.973  
      2191.828          39.000          41.000  
 129601305.275 6 100988122.172 6  24662306.997    24662329.666         296.480  
       230.473          40.000          41.000  
 114375937.527 7  89124171.513 7  21765019.185    21765034.626       -1789.207  
     -1394.344          44.000          46.000  
 111056053.209 7  86537242.036 7  21133265.955    21133279.245       -1817.387  
     -1416.340          44.000          43.000  
 109077460.836 7  84995491.967 7  20756751.915    20756767.780          81.699  
        63.492          42.000          44.000  
 117088753.287 7  91238076.379 7  22281248.500    22281267.847        2890.336  
      2252.145          44.000          43.000  
 128244845.787 6  99931124.282 6  24404185.214    24404203.415       -3359.074  
     -2617.145          41.000          39.000  
 24  1 10  3 19  8.4000000  0  7G08G24G18G23G10G32G15
 130508461.032 6 101694986.880 6  24834947.092    24834968.067        2812.840  
      2191.914          39.000          41.000  
 129601275.621 6 100988099.115 6  24662302.104    24662323.285         296.406  
       230.684          41.000          40.000  
 114376116.491 7  89124310.974 7  21765053.483    21765068.293       -1789.547  
     -1394.191          44.000          46.000  
 111056234.904 7  86537383.606 7  21133300.616    21133314.099       -1817.328  
     -1415.770          44.000          43.000  
 109077452.669 7  84995485.582 7  20756750.182    20756766.479          81.527  
        63.551          42.000          44.000  
 117088464.272 7  91237851.153 7  22281193.737    22281212.821        2890.293  
      2252.176          44.000          43.000  
 128245181.651 6  99931386.021 6  24404249.487    24404267.225       -3358.805  
     -2617.195          41.000          39.000  
 24  1 10  3 19  8.5000000  0  7G08G24G18G23G10G32G15
 130508179.752 6 101694767.681 6  24834893.566    24834914.537        2812.938  
      2191.922          39.000          41.000  
 129601245.975 6 100988075.990 6  24662296.463    24662317.638         296.492  
       231.078          41.000          40.000  
 114376295.367 7  89124450.354 7  21765087.522    21765102.331       -1788.973  
     -1394.215          44.000          46.000  
 111056416.628 7  86537525.210 7  21133335.197    21133348.681       -1817.133  
     -1415.812          44.000          43.000  
 109077444.506 7  84995479.223 7  20756748.628    20756764.926          81.719  
        63.645          42.000          44.000  
 117088175.225 7  91237625.938 7  22281138.733    22281157.822        2890.277  
      2252.043          44.000          43.000  
 128245517.505 6  99931647.739 6  24404313.397    24404331.139       -3358.609  
     -2617.340          41.000          39.000  
 24  1 10  3 19  8.6000000  0  7G08G24G18G23G10G32G15
 130507898.404 6 101694548.479 6  24834840.004    24834861.154        2813.156  
      2192.039          39.000          41.000  
 129601216.341 6 100988052.888 6  24662291.191    24662311.269         296.414  
       231.191          41.000          40.000  
 114376474.294 7  89124589.762 7  21765121.250    21765136.158       -1789.211  
     -1394.078          44.000          46.000  
 111056598.331 7  86537666.770 7  21133369.602    21133382.478       -1817.059  
     -1415.766          44.000          43.000  
 109077436.331 7  84995472.854 7  20756747.182    20756763.464          81.785  
        63.973          42.000          44.000  
 117087886.196 7  91237400.720 7  22281084.053    22281102.563        2890.281  
      2252.227          44.000          43.000  
 128245853.376 6  99931909.476 6  24404377.421    24404394.558       -3358.578  
     -2617.137          41.000          39.000  
 24  1 10  3 19  8.7000000  0  7G08G24G18G23G10G32G15
 130507617.092 6 101694329.255 6  24834786.472    24834807.617        2813.078  
      2191.953          39.000          41.000  
 129601186.630 6 100988029.738 6  24662285.537    24662305.616         296.777  
       231.117          40.000          41.000  
 114376653.186 7  89124729.138 7  21765155.292    21765170.194       -1789.137  
     -1394.016          43.000          46.000  
 111056779.998 7  86537808.353 7  21133404.172    21133417.053       -1816.863  
     -1415.832          44.000          43.000  
 109077428.114 7  84995466.462 7  20756745.618    20756761.903          81.891  
        63.812          42.000          44.000  
 117087597.181 7  91237175.508 7  22281029.055    22281047.564        2890.141  
      2252.117          44.000          43.000  
 128246189.188 7  99932171.116 6  24404441.324    24404458.453       -3358.394  
     -2616.742          42.000          39.000  
 24  1 10  3 19  8.8000000  0  7G08G24G18G23G10G32G15
 130507335.823 6 101694110.062 6  24834732.620    24834754.330        2812.914  
      2192.121          39.000          41.000  
 129601157.099 6 100988006.695 7  24662279.871    24662300.848         296.219  
       231.023          41.000          42.000  
 114376832.046 7  89124868.616 7  21765189.125    21765204.530       -1788.555  
     -1394.242          42.000          46.000  
 111056961.679 7  86537949.900 7  21133438.643    21133451.691       -1816.816  
     -1415.652          44.000          43.000  
 109077419.935 7  84995460.071 7  20756744.296    20756760.319          81.785  
        63.754          42.000          44.000  
 117087308.204 7  91236950.335 7  22280973.940    22280993.059        2889.941  
      2251.703          44.000          43.000  
 128246525.072 7  99932432.822 6  24404505.600    24404523.021       -3358.606  
     -2616.980          42.000          39.000  
 24  1 10  3 19  8.9000000  0  7G08G24G18G23G10G32G15
 130507054.491 6 101693890.888 6  24834679.085    24834700.805        2813.141  
      2191.930          39.000          41.000  
 129601127.437 6 100987983.580 7  24662274.226    24662295.203         296.332  
       230.668          40.000          42.000  
 114377011.001 7  89125008.030 7  21765223.179    21765238.576       -1789.449  
     -1394.137          42.000          46.000  
 111057143.368 7  86538091.485 7  21133473.218    21133486.268       -1816.883  
     -1415.816          44.000          43.000  
 109077411.749 7  84995453.674 7  20756742.739    20756758.757          81.793  
        63.852          42.000          44.000  
 117087019.238 7  91236725.159 7  22280918.951    22280938.069        2889.824  
      2251.934          44.000          43.000  
 128246860.881 7  99932694.501 6  24404569.502    24404586.926       -3358.422  
     -2617.117          43.000          40.000  
 24  1 10  3 19  9.0000000  0  7G08G24G18G23G10G32G15
 130506773.188 6 101693671.653 6  24834625.625    24834647.477        2813.090  
      2192.156          39.000          41.000  
 129601097.744 6 100987960.482 7  24662268.412    24662290.633         296.562  
       231.070          40.000          43.000  
 114377189.919 7  89125147.386 7  21765256.476    21765272.593       -1789.117  
     -1393.789          43.000          46.000  
 111057325.020 7  86538233.054 7  21133507.589    21133521.067       -1816.527  
     -1415.309          44.000          43.000  
 109077403.554 7  84995447.303 7  20756741.304    20756757.060          82.016  
        64.020          42.000          44.000  
 117086730.234 7  91236499.950 7  22280863.729    22280883.523        2889.961  
      2251.855          44.000          43.000  
 128247196.737 7  99932956.186 6  24404634.015    24404651.214       -3358.371  
     -2616.574          43.000          40.000  
 24  1 10  3 19  9.1000000  0  7G08G24G18G23G10G32G15
 130506491.880 6 101693452.454 6  24834572.094    24834593.946        2813.035  
      2191.973          39.000          41.000  
 129601068.130 6 100987937.358 7  24662262.776    24662284.986         296.289  
       231.082          40.000          43.000  
 114377368.819 7  89125286.762 7  21765290.519    21765306.630       -1789.207  
     -1393.988          44.000          46.000  
 111057506.672 7  86538374.599 7  21133542.157    21133555.633       -1816.484  
     -1415.492          44.000          43.000  
 109077395.347 7  84995440.923 7  20756739.742    20756755.502          82.055  
        63.785          42.000          44.000  
 117086441.283 7  91236274.826 7  22280808.743    22280828.546        2889.898  
      2251.656          44.000          43.000  
 128247532.563 7  99933217.868 6  24404697.921    24404715.120       -3358.379  
     -2616.922          43.000          41.000  
 24  1 10  3 19  9.2000000  0  7G08G24G18G23G10G32G15
 130506210.614 6 101693233.295 6  24834518.242    24834540.551        2812.871  
      2191.738          39.000          41.000  
 129601038.476 6 100987914.271 7  24662256.938    24662280.152         296.555  
       230.844          39.000          44.000  
 114377547.744 7  89125426.225 7  21765325.607    21765339.860       -1789.008  
     -1394.273          44.000          46.000  
 111057688.321 7  86538516.117 7  21133576.325    21133590.522       -1816.617  
     -1415.574          44.000          43.000  
 109077387.153 7  84995434.533 7  20756737.996    20756753.981          81.898  
        63.824          42.000          44.000  
 117086152.295 7  91236049.620 7  22280754.032    22280773.376        2889.684  
      2251.547          44.000          43.000  
 128247868.356 7  99933479.546 6  24404762.156    24404779.689       -3358.113  
     -2616.836          43.000          41.000  
 24  1 10  3 19  9.3000000  0  7G08G24G18G23G10G32G15
 130505929.334 6 101693014.104 6  24834464.716    24834487.022        2812.859  
      2191.777          39.000          41.000  
 129601008.816 6 100987891.224 7  24662251.294    24662274.524         296.480  
       230.488          39.000          44.000  
 114377726.669 7  89125565.627 7  21765359.655    21765373.903       -1789.312  
     -1394.145          45.000          46.000  
 111057870.008 7  86538657.711 7  21133610.899    21133625.100       -1816.898  
     -1416.074          44.000          43.000  
 109077379.009 7  84995428.174 7  20756736.446    20756752.428          81.605  
        63.418          42.000          44.000  
 117085863.386 7  91235824.520 7  22280699.055    22280718.405        2889.445  
      2251.312          44.000          43.000  
 128248204.230 7  99933741.242 6  24404826.071    24404843.597       -3358.414  
     -2616.863          43.000          41.000  
 24  1 10  3 19  9.4000000  0  7G08G24G18G23G10G32G15
 130505648.071 6 101692794.984 6  24834411.288    24834433.198        2812.730  
      2191.406          39.000          41.000  
 129600979.271 6 100987868.161 7  24662245.570    24662269.384         295.980  
       230.773          39.000          44.000  
 114377905.612 7  89125705.087 7  21765394.051    21765408.102       -1789.262  
     -1394.305          44.000          46.000  
 111058051.687 7  86538799.280 7  21133645.643    21133660.251       -1816.664  
     -1415.684          44.000          43.000  
 109077370.856 7  84995421.868 7  20756734.777    20756750.951          81.547  
        63.277          42.000          44.000  
 117085574.470 7  91235599.380 7  22280644.240    22280663.384        2889.238  
      2251.191          44.000          43.000  
 128248540.021 7  99934002.941 6  24404889.930    24404907.499       -3358.180  
     -2617.098          43.000          41.000  
 24  1 10  3 19  9.5000000  0  7G08G24G18G23G10G32G15
 130505366.803 6 101692575.803 6  24834357.764    24834379.672        2812.730  
      2191.668          39.000          41.000  
 129600949.641 6 100987845.051 7  24662239.932    24662263.740         296.191  
       230.984          39.000          44.000  
 114378084.557 7  89125844.480 7  21765428.103    21765442.143       -1789.488  
     -1394.231          44.000          46.000  
 111058233.364 7  86538940.834 7  21133680.215    21133694.820       -1816.785  
     -1415.629          44.000          43.000  
 109077362.699 7  84995415.478 7  20756733.225    20756749.390          81.473  
        63.656          42.000          44.000  
 117085285.549 7  91235374.238 7  22280589.260    22280608.402        2889.203  
      2251.375          44.000          43.000  
 128248875.872 7  99934264.629 6  24404953.841    24404971.406       -3358.402  
     -2616.832          43.000          41.000  
 24  1 10  3 19  9.6000000  0  7G08G24G18G23G10G32G15
 130505085.577 6 101692356.630 6  24834304.335    24834326.202        2812.457  
      2191.461          39.000          41.000  
 129600919.999 6 100987821.951 7  24662234.666    24662257.966         296.160  
       230.883          39.000          44.000  
 114378263.436 7  89125983.907 7  21765461.931    21765476.395       -1789.211  
     -1394.371          44.000          46.000  
 111058415.067 7  86539082.396 7  21133715.136    21133729.430       -1816.996  
     -1415.859          44.000          43.000  
 109077354.607 7  84995409.179 7  20756731.646    20756747.610          81.449  
        63.441          42.000          44.000  
 117084996.674 7  91235149.136 7  22280534.640    22280552.836        2889.051  
      2250.969          44.000          43.000  
 128249211.718 7  99934526.316 6  24405017.516    24405035.477       -3358.332  
     -2616.754          43.000          41.000  
 24  1 10  3 19  9.7000000  0  7G08G24G18G23G10G32G15
 130504804.290 6 101692137.481 6  24834250.807    24834272.684        2812.793  
      2191.629          39.000          41.000  
 129600890.412 6 100987798.859 7  24662229.036    24662252.327         296.047  
       230.910          39.000          44.000  
 114378442.351 7  89126123.356 7  21765495.978    21765510.450       -1788.930  
     -1394.227          43.000          46.000  
 111058596.735 7  86539224.019 7  21133749.706    21133764.016       -1816.691  
     -1415.828          44.000          43.000  
 109077346.439 7  84995402.799 7  20756730.092    20756746.051          81.457  
        63.469          42.000          44.000  
 117084707.768 7  91234924.025 7  22280479.663    22280497.862        2889.082  
      2251.273          44.000          44.000  
 128249547.550 7  99934787.960 6  24405081.422    24405099.373       -3358.480  
     -2616.863          42.000          41.000  
 24  1 10  3 19  9.8000000  0  7G08G24G18G23G10G32G15
 130504522.979 6 101691918.293 6  24834197.096    24834219.234        2812.871  
      2191.855          39.000          41.000  
 129600860.826 6 100987775.810 7  24662223.414    24662246.354         296.078  
       230.590          39.000          44.000  
 114378621.394 7  89126262.878 7  21765528.931    21765545.046       -1789.762  
     -1394.453          42.000          46.000  
 111058778.437 7  86539365.579 7  21133783.673    21133798.742       -1816.773  
     -1415.629          44.000          43.000  
 109077338.301 7  84995396.491 7  20756728.285    20756744.823          81.477  
        63.422          42.000          44.000  
 117084418.872 7  91234698.906 7  22280424.454    22280443.260        2888.996  
      2251.070          44.000          44.000  
 128249883.380 6  99935049.716 6  24405144.602    24405162.765       -3358.324  
     -2617.055          41.000          40.000  
 24  1 10  3 19  9.9000000  0  7G08G24G18G23G10G32G15
 130504241.771 6 101691699.139 6  24834143.584    24834165.714        2812.523  
      2191.703          39.000          41.000  
 129600831.189 6 100987752.754 7  24662217.774    24662240.724         296.129  
       230.715          39.000          44.000  
 114378800.310 7  89126402.150 7  21765562.978    21765579.058       -1789.809  
     -1394.430          42.000          46.000  
 111058960.125 7  86539507.140 7  21133818.248    21133833.313       -1817.074  
     -1415.906          44.000          43.000  
 109077330.138 7  84995390.115 7  20756726.732    20756743.266          81.449  
        63.523          42.000          44.000  
 117084129.991 7  91234473.795 7  22280369.482    22280388.286        2888.879  
      2251.070          45.000          44.000  
 128250219.205 6  99935311.345 6  24405208.508    24405226.658       -3358.344  
     -2616.785          41.000          40.000  
 24  1 10  3 19 10.0000000  0  7G08G24G18G23G10G32G15
 130503960.478 6 101691479.919 6  24834090.102    24834112.186        2812.676  
      2191.777          39.000          41.000  
 129600801.659 6 100987729.682 7  24662211.928    24662234.995         295.699  
       230.543          39.000          44.000  
 114378979.234 7  89126541.665 7  21765596.284    21765613.137       -1789.289  
     -1394.488          42.000          47.000  
 111059141.836 7  86539648.745 7  21133852.693    21133867.566       -1816.926  
     -1415.629          44.000          43.000  
 109077322.010 7  84995383.762 7  20756725.287    20756741.605          81.422  
        63.500          42.000          44.000  
 117083841.086 7  91234248.690 7  22280314.161    22280333.555        2889.008  
      2251.023          45.000          44.000  
 128250555.082 6  99935573.087 6  24405272.071    24405290.164       -3358.418  
     -2617.059          41.000          40.000  
 24  1 10  3 19 10.1000000  0  7G08G24G18G23G10G32G15
 130503679.200 6 101691260.772 6  24834036.577    24834058.669        2812.754  
      2191.688          39.000          41.000  
 129600772.062 6 100987706.645 7  24662206.296    24662229.369         295.910  
       230.379          39.000          44.000  
 114379158.228 7  89126681.177 7  21765630.345    21765647.207       -1789.465  
     -1394.785          42.000          47.000  
 111059323.498 7  86539790.294 7  21133887.262    21133902.134       -1816.895  
     -1415.805          44.000          43.000  
 109077313.884 7  84995377.423 7  20756723.740    20756740.057          81.414  
        63.379          42.000          44.000  
 117083552.210 7  91234023.584 7  22280259.190    22280278.582        2888.852  
      2250.988          45.000          44.000  
 128250890.911 6  99935834.800 6  24405335.977    24405354.077       -3358.387  
     -2617.254          41.000          40.000  
 24  1 10  3 19 10.2000000  0  7G08G24G18G23G10G32G15
 130503397.899 6 101691041.594 6  24833982.805    24834005.323        2812.883  
      2191.781          39.000          41.000  
 129600742.534 6 100987683.627 7  24662200.911    24662223.545         295.516  
       230.203          39.000          43.000  
 114379337.244 7  89126820.634 7  21765664.864    21765681.397       -1789.977  
     -1394.742          43.000          47.000  
 111059505.278 7  86539931.917 7  21133922.104    21133936.103       -1817.434  
     -1416.148          43.000          43.000  
 109077305.770 7  84995371.130 7  20756721.767    20756738.763          81.133  
        63.117          42.000          45.000  
 117083263.347 7  91233798.507 7  22280203.956    22280223.264        2888.750  
      2250.879          45.000          44.000  
 128251226.815 6  99936096.515 6  24405399.867    24405418.099       -3358.852  
     -2617.336          41.000          40.000  
 24  1 10  3 19 10.3000000  0  7G08G24G18G23G10G32G15
 130503116.688 6 101690822.462 6  24833929.293    24833951.808        2812.480  
      2191.410          39.000          41.000  
 129600712.991 6 100987660.646 7  24662195.290    24662217.933         295.492  
       229.797          39.000          43.000  
 114379516.195 7  89126960.136 7  21765698.917    21765715.465       -1789.723  
     -1394.965          43.000          47.000  
 111059686.986 7  86540073.531 7  21133956.682    21133970.686       -1817.082  
     -1416.320          44.000          43.000  
 109077297.639 7  84995364.804 7  20756720.219    20756737.218          81.422  
        63.273          42.000          44.000  
 117082974.463 7  91233573.400 7  22280148.983    22280168.291        2888.746  
      2250.781          45.000          44.000  
 128251562.654 6  99936358.241 6  24405463.775    24405482.016       -3358.524  
     -2616.973          41.000          40.000  
 24  1 10  3 19 10.4000000  0  7G08G24G18G23G10G32G15
 130502835.462 6 101690603.335 6  24833875.574    24833898.209        2812.344  
      2191.418          39.000          41.000  
 129600683.486 6 100987637.639 7  24662189.620    24662211.744         295.227  
       230.328          39.000          43.000  
 114379695.243 7  89127099.605 7  21765733.067    21765749.891       -1790.211  
     -1395.309          42.000          46.000  
 111059868.754 7  86540215.177 7  21133991.357    21134005.590       -1817.457  
     -1416.211          44.000          43.000  
 109077289.593 7  84995358.505 7  20756718.806    20756735.945          80.801  
        62.855          43.000          44.000  
 117082685.645 7  91233348.334 7  22280093.921    22280113.538        2888.457  
      2250.738          44.000          44.000  
 128251898.586 6  99936619.969 6  24405527.341    24405546.018       -3358.957  
     -2617.219          41.000          39.000  
 24  1 10  3 19 10.5000000  0  7G08G24G18G23G10G32G15
 130502554.267 6 101690384.190 6  24833822.064    24833844.692        2812.211  
      2191.457          39.000          41.000  
 129600654.062 6 100987614.623 7  24662184.021    24662206.123         294.805  
       229.918          39.000          42.000  
 114379874.237 6  89127239.136 7  21765767.128    21765783.966       -1790.160  
     -1395.184          41.000          46.000  
 111060050.531 7  86540356.786 7  21134025.948    21134040.172       -1817.832  
     -1416.438          44.000          43.000  
 109077281.524 7  84995352.218 7  20756717.270    20756734.410          80.645  
        62.809          43.000          44.000  
 117082396.819 7  91233123.296 7  22280038.959    22280058.582        2888.316  
      2250.516          44.000          44.000  
 128252234.559 6  99936881.707 6  24405591.274    24405609.937       -3359.496  
     -2617.516          41.000          39.000  
 24  1 10  3 19 10.6000000  0  7G08G24G18G23G10G32G15
 130502273.023 6 101690165.056 6  24833768.858    24833790.771        2812.340  
      2191.184          39.000          41.000  
 129600624.545 6 100987591.688 7  24662178.146    24662199.655         294.969  
       229.688          39.000          42.000  
 114380053.353 6  89127378.712 7  21765800.455    21765817.998       -1790.441  
     -1395.156          41.000          46.000  
 111060232.303 7  86540498.470 7  21134060.460    21134074.922       -1817.504  
     -1416.379          43.000          43.000  
 109077273.415 7  84995345.867 7  20756716.360    20756732.296          80.855  
        63.227          42.000          44.000  
 117082107.987 7  91232898.227 7  22279984.168    22280003.789        2888.348  
      2250.801          45.000          44.000  
 128252570.430 6  99937143.482 6  24405655.173    24405674.030       -3359.106  
     -2617.949          41.000          39.000  
 24  1 10  3 19 10.7000000  0  7G08G24G18G23G10G32G15
 130501991.753 6 101689945.914 6  24833715.334    24833737.254        2812.523  
      2191.492          39.000          41.000  
 129600595.004 6 100987568.655 7  24662172.525    24662194.030         295.234  
       229.926          39.000          42.000  
 114380232.444 7  89127518.153 7  21765834.535    21765852.051       -1790.887  
     -1394.734          42.000          46.000  
 111060414.008 7  86540640.031 7  21134095.037    21134109.492       -1817.336  
     -1415.934          43.000          43.000  
 109077265.285 7  84995339.600 7  20756714.813    20756730.766          81.211  
        63.090          42.000          44.000  
 117081819.110 7  91232673.109 7  22279929.197    22279948.814        2888.605  
      2250.895          45.000          44.000  
 128252906.363 7  99937405.228 6  24405719.099    24405737.950       -3359.043  
     -2617.250          42.000          39.000  
 24  1 10  3 19 10.8000000  0  7G08G24G18G23G10G32G15
 130501710.522 6 101689726.750 6  24833661.802    24833683.670        2812.453  
      2191.531          39.000          41.000  
 129600565.506 6 100987545.669 7  24662166.818    24662188.792         295.023  
       229.957          39.000          43.000  
 114380411.405 7  89127657.561 7  21765869.317    21765885.478       -1790.133  
     -1394.648          44.000          46.000  
 111060595.730 7  86540781.636 7  21134129.407    21134144.823       -1817.207  
     -1415.836          44.000          43.000  
 109077257.149 7  84995333.231 7  20756713.186    20756729.304          81.410  
        63.633          42.000          44.000  
 117081530.232 7  91232448.031 7  22279874.592    22279894.191        2888.750  
      2251.145          45.000          44.000  
 128253242.253 7  99937666.983 6  24405783.720    24405801.553       -3359.024  
     -2617.668          42.000          40.000  
 24  1 10  3 19 10.9000000  0  7G08G24G18G23G10G32G15
 128926006.464 6 100461905.419 6  24533815.289    24533837.160        2812.402  
      2191.406          39.000          40.000  
 128025115.752 6  99759922.467 7  24362368.698    24362390.668         294.973  
       229.707          38.000          43.000  
 112805172.237 7  87900198.543 7  21466111.270    21466127.449       -1790.105  
     -1394.910          44.000          46.000  
 109485359.274 7  85313324.680 7  20834371.876    20834387.298       -1817.168  
     -1416.168          44.000          43.000  
 107501828.933 7  83767726.840 7  20456919.165    20456935.286          81.254  
        63.273          42.000          44.000  
 115505818.473 7  90004620.692 7  21980026.614    21980046.214        2888.750  
      2250.945          45.000          44.000  
 126678161.541 6  98710331.394 6  24106055.826    24106073.667       -3359.109  
     -2617.840          41.000          40.000  
 24  1 10  3 19 11.0000000  0  7G08G24G18G23G10G32G15
 128925725.263 6 100461686.277 6  24533762.224    24533783.581        2812.289  
      2191.375          39.000          41.000  
 128025086.226 6  99759899.528 7  24362363.134    24362386.105         295.051  
       229.457          38.000          43.000  
 112805351.172 7  87900338.022 7  21466146.484    21466161.019       -1789.676  
     -1395.008          44.000          46.000  
 109485540.966 7  85313466.245 7  20834406.896    20834421.698       -1817.273  
     -1415.988          44.000          42.000  
 107501820.810 7  83767720.523 7  20456917.510    20456933.423          81.203  
        63.316          42.000          44.000  
 115505529.567 7  90004395.563 7  21979971.950    21979991.056        2888.738  
      2250.934          45.000          44.000  
 126678497.414 6  98710593.096 6  24106119.686    24106138.054       -3359.008  
     -2617.367          41.000          40.000  
 24  1 10  3 19 11.1000000  0  7G08G24G18G23G10G32G15
 128925444.017 6 100461467.115 6  24533708.704    24533730.060        2812.383  
      2191.723          39.000          41.000  
 128025056.758 6  99759876.508 7  24362357.526    24362380.483         294.797  
       230.031          38.000          43.000  
 112805530.192 7  87900477.448 7  21466180.551    21466195.069       -1790.184  
     -1394.481          44.000          46.000  
 109485722.652 7  85313607.812 7  20834441.470    20834456.270       -1816.965  
     -1415.578          44.000          42.000  
 107501812.616 7  83767714.103 7  20456915.951    20456931.855          81.578  
        63.734          42.000          44.000  
 115505240.670 7  90004170.469 7  21979916.975    21979936.086        2889.062  
      2251.418          45.000          44.000  
 126678833.373 7  98710854.893 6  24106183.617    24106201.988       -3359.070  
     -2617.590          42.000          40.000  
 24  1 10  3 19 11.2000000  0  7G08G24G18G23G10G32G15
 128925162.794 6 100461247.984 6  24533655.307    24533676.608        2812.238  
      2191.180          39.000          40.000  
 128025027.283 6  99759853.565 7  24362351.363    24362375.412         294.820  
       229.523          38.000          44.000  
 112805709.148 7  87900616.892 7  21466214.800    21466229.200       -1789.773  
     -1394.586          43.000          46.000  
 109485904.347 7  85313749.369 7  20834476.241    20834490.254       -1816.879  
     -1415.766          43.000          42.000  
 107501804.500 7  83767707.777 7  20456914.406    20456930.599          81.395  
        63.719          42.000          44.000  
 115504951.776 7  90003945.328 7  21979861.851    21979880.979        2888.973  
      2251.043          45.000          44.000  
 126679169.234 6  98711116.571 6  24106247.498    24106265.619       -3359.168  
     -2617.652          41.000          39.000  
 24  1 10  3 19 11.3000000  0  7G08G24G18G23G10G32G15
 128924881.596 6 100461028.868 6  24533601.796    24533623.098        2812.156  
      2191.492          39.000          40.000  
 128024997.803 6  99759830.627 7  24362345.753    24362369.810         294.672  
       229.418          39.000          44.000  
 112805888.162 7  87900756.417 7  21466248.865    21466263.274       -1789.891  
     -1395.074          43.000          46.000  
 109486086.071 7  85313891.012 7  20834510.822    20834524.845       -1817.094  
     -1416.106          44.000          43.000  
 107501796.331 7  83767701.416 7  20456912.851    20456929.046          81.641  
        63.516          42.000          44.000  
 115504662.857 7  90003720.180 7  21979806.872    21979825.995        2889.020  
      2251.277          45.000          44.000  
 126679505.137 6  98711378.391 6  24106311.418    24106329.558       -3358.914  
     -2617.727          41.000          40.000  
 24  1 10  3 19 11.4000000  0  7G08G24G18G23G10G32G15
 128924600.404 6 100460809.752 6  24533547.959    24533569.618        2812.031  
      2191.023          39.000          40.000  
 128024968.390 6  99759807.702 7  24362340.421    24362364.665         294.566  
       229.121          39.000          45.000  
 112806067.206 7  87900895.903 7  21466282.303    21466297.916       -1790.168  
     -1394.895          43.000          46.000  
 109486267.826 7  85314032.593 7  20834545.088    20834559.287       -1817.430  
     -1416.211          44.000          43.000  
 107501788.194 7  83767695.102 7  20456911.030    20456927.886          81.473  
        63.191          42.000          44.000  
 115504373.991 7  90003495.116 7  21979751.598    21979770.892        2888.941  
      2250.895          45.000          44.000  
 126679841.165 6  98711640.161 6  24106374.963    24106393.399       -3359.516  
     -2617.453          40.000          39.000  
 24  1 10  3 19 11.5000000  0  7G08G24G18G23G10G32G15
 128924319.193 6 100460590.641 6  24533494.447    24533516.109        2812.012  
      2191.008          39.000          40.000  
 128024938.931 6  99759784.792 7  24362334.815    24362359.070         294.434  
       229.324          40.000          45.000  
 112806246.176 7  87901035.380 7  21466316.360    21466331.978       -1789.980  
     -1394.949          43.000          46.000  
 109486449.525 7  85314174.197 7  20834579.664    20834593.868       -1817.129  
     -1416.066          44.000          42.000  
 107501780.075 7  83767688.750 7  20456909.485    20456926.335          81.219  
        63.348          42.000          44.000  
 115504085.097 7  90003270.013 7  21979696.623    21979715.919        2888.910  
      2250.957          45.000          44.000  
 126680177.102 6  98711901.887 6  24106438.890    24106457.315       -3359.672  
     -2617.641          41.000          39.000  
 24  1 10  3 19 11.6000000  0  7G08G24G18G23G10G32G15
 128924038.022 6 100460371.541 6  24533441.020    24533462.908        2811.883  
      2191.105          39.000          41.000  
 128024909.482 6  99759761.833 7  24362329.563    24362353.306         294.484  
       229.367          40.000          44.000  
 112806425.175 7  87901174.883 7  21466350.251    21466365.936       -1789.859  
     -1394.668          43.000          46.000  
 109486631.221 7  85314315.813 7  20834614.052    20834628.265       -1817.008  
     -1415.898          44.000          43.000  
 107501771.919 7  83767682.389 7  20456907.933    20456924.587          81.414  
        63.633          42.000          44.000  
 115503796.189 7  90003044.875 7  21979641.591    21979660.837        2888.930  
      2251.199          45.000          44.000  
 126680513.053 7  98712163.697 6  24106502.851    24106521.337       -3359.496  
     -2618.172          42.000          40.000  
 24  1 10  3 19 11.7000000  0  7G08G24G18G23G10G32G15
 128923756.839 6 100460152.449 6  24533387.512    24533409.403        2811.875  
      2190.789          39.000          41.000  
 128024880.029 6  99759738.865 7  24362323.958    24362347.697         294.555  
       229.891          40.000          44.000  
 112806604.153 7  87901314.340 7  21466384.309    21466399.993       -1789.938  
     -1394.797          43.000          46.000  
 109486812.941 7  85314457.347 7  20834648.633    20834662.829       -1817.152  
     -1415.523          45.000          42.000  
 107501763.773 7  83767676.069 7  20456906.383    20456923.043          81.578  
        63.441          42.000          44.000  
 115503507.299 7  90002819.790 7  21979586.617    21979605.869        2889.008  
      2251.105          44.000          44.000  
 126680849.020 7  98712425.507 6  24106566.783    24106585.274       -3359.524  
     -2617.801          42.000          40.000  
 24  1 10  3 19 11.8000000  0  7G08G24G18G23G10G32G15
 128923475.638 6 100459933.329 6  24533334.314    24533355.939        2811.828  
      2191.219          39.000          41.000  
 128024850.564 6  99759715.904 7  24362318.859    24362341.286         294.602  
       229.340          40.000          44.000  
 112806783.163 7  87901453.811 7  21466418.882    21466434.295       -1789.949  
     -1394.656          43.000          46.000  
 109486994.622 7  85314598.938 7  20834684.002    20834696.759       -1816.887  
     -1416.020          45.000          42.000  
 107501755.635 7  83767669.721 7  20456904.842    20456921.134          81.477  
        63.598          42.000          44.000  
 115503218.399 7  90002594.662 7  21979531.509    21979550.273        2888.984  
      2251.348          44.000          43.000  
 126681184.930 7  98712687.243 6  24106630.814    24106649.583       -3359.246  
     -2617.594          42.000          40.000  
 24  1 10  3 19 11.9000000  0  7G08G24G18G23G10G32G15
 128923194.492 6 100459714.255 6  24533280.814    24533302.438        2811.648  
      2190.645          39.000          41.000  
 128024821.156 6  99759692.987 7  24362313.263    24362335.689         294.418  
       229.438          39.000          43.000  
 112806962.160 7  87901593.240 7  21466452.943    21466468.346       -1790.184  
     -1394.770          44.000          46.000  
 109487176.369 7  85314740.599 7  20834718.587    20834731.354       -1817.113  
     -1416.004          45.000          43.000  
 107501747.513 7  83767663.381 7  20456903.296    20456919.585          81.242  
        63.340          42.000          44.000  
 115502929.529 7  90002369.546 7  21979476.538    21979495.297        2888.730  
      2250.820          45.000          44.000  
 126681520.882 7  98712949.063 6  24106694.744    24106713.522       -3359.375  
     -2617.898          42.000          40.000  
 24  1 10  3 19 12.0000000  0  7G08G24G18G23G10G32G15
 128922913.383 6 100459495.177 6  24533227.024    24533248.648        2811.406  
      2190.832          39.000          41.000  
 128024791.681 6  99759670.042 7  24362307.584    24362329.828         294.504  
       229.480          39.000          43.000  
 112807141.186 7  87901732.836 7  21466487.964    21466502.210       -1789.898  
     -1395.242          44.000          46.000  
 109487358.104 7  85314882.214 7  20834753.053    20834766.516       -1817.395  
     -1416.492          44.000          43.000  
 107501739.437 7  83767657.090 7  20456902.056    20456918.447          81.027  
        62.801          42.000          44.000  
 115502640.687 7  90002144.497 7  21979421.472    21979440.682        2888.480  
      2250.695          45.000          44.000  
 126681856.832 6  98713210.851 6  24106758.438    24106777.571       -3359.461  
     -2617.941          41.000          41.000  
 24  1 10  3 19 12.1000000  0  7G08G24G18G23G10G32G15
 128922632.231 6 100459276.127 6  24533173.522    24533195.154        2811.398  
      2190.406          39.000          41.000  
 128024762.282 6  99759647.142 7  24362301.989    24362324.235         294.227  
       228.922          39.000          43.000  
 112807320.260 7  87901872.337 7  21466522.041    21466536.277       -1790.582  
     -1395.547          44.000          46.000  
 109487539.894 7  85315023.846 7  20834787.647    20834801.104       -1817.668  
     -1416.145          44.000          42.000  
 107501731.395 7  83767650.818 7  20456900.526    20456916.916          80.598  
        62.680          42.000          44.000  
 115502351.883 7  90001919.444 7  21979366.515    21979385.722        2888.359  
      2250.449          45.000          44.000  
 126682192.828 7  98713472.688 6  24106822.376    24106841.514       -3359.754  
     -2618.199          42.000          41.000  
 24  1 10  3 19 12.2000000  0  7G08G24G18G23G10G32G15
 128922351.127 6 100459057.102 6  24533119.960    24533141.806        2811.266  
      2190.441          39.000          41.000  
 128024732.907 6  99759624.199 7  24362296.196    24362318.062         294.051  
       229.508          39.000          43.000  
 112807499.281 7  87902011.848 7  21466556.115    21466570.332       -1790.395  
     -1394.949          43.000          46.000  
 109487721.692 7  85315165.479 7  20834822.328    20834835.817       -1817.738  
     -1416.363          44.000          42.000  
 107501723.366 7  83767644.554 7  20456898.865    20456915.026          80.477  
        62.730          43.000          44.000  
 115502063.067 7  90001694.399 7  21979311.930    21979330.967        2888.168  
      2250.500          45.000          44.000  
 126682528.813 7  98713734.450 6  24106886.914    24106905.588       -3359.676  
     -2617.613          42.000          41.000  
 24  1 10  3 19 12.3000000  0  7G08G24G18G23G10G32G15
 128922070.016 6 100458838.030 6  24533066.466    24533088.307        2811.148  
      2190.570          39.000          41.000  
 128024703.491 6  99759601.237 7  24362290.599    24362312.455         294.145  
       229.406          40.000          43.000  
 112807678.370 7  87902151.371 7  21466590.195    21466604.405       -1790.648  
     -1395.324          43.000          46.000  
 109487903.465 7  85315307.110 7  20834856.918    20834870.405       -1817.977  
     -1416.570          44.000          43.000  
 107501715.345 7  83767638.318 7  20456897.339    20456913.504          80.430  
        62.383          43.000          44.000  
 115501774.242 7  90001469.348 7  21979256.968    21979276.007        2888.168  
      2250.391          45.000          44.000  
 126682864.782 7  98713996.213 6  24106950.847    24106969.513       -3359.840  
     -2617.777          42.000          40.000  
 24  1 10  3 19 12.4000000  0  7G08G24G18G23G10G32G15
 128921788.930 6 100458619.005 6  24533013.102    24533034.991        2810.902  
      2190.523          39.000          40.000  
 128024674.089 6  99759578.369 7  24362284.926    24362306.339         294.000  
       228.832          40.000          43.000  
 112807857.481 7  87902290.920 7  21466622.927    21466638.203       -1790.922  
     -1395.777          43.000          46.000  
 109488085.313 7  85315448.852 7  20834891.663    20834905.051       -1818.062  
     -1416.938          44.000          43.000  
 107501707.377 7  83767632.102 7  20456895.885    20456911.978          79.918  
        62.055          42.000          44.000  
 115501485.493 7  90001244.349 7  21979202.216    21979221.005        2887.863  
      2250.148          45.000          44.000  
 126683200.796 7  98714258.006 6  24107015.233    24107032.953       -3359.848  
     -2617.754          42.000          40.000  
 24  1 10  3 19 12.5000000  0  7G08G24G18G23G10G32G15
 128921507.865 6 100458399.995 6  24532959.617    24532981.506        2810.844  
      2190.133          39.000          40.000  
 128024644.657 6  99759555.443 7  24362279.325    24362300.740         294.352  
       229.301          40.000          43.000  
 112808036.587 7  87902430.509 7  21466657.010    21466672.292       -1790.941  
     -1395.473          43.000          46.000  
 109488267.150 7  85315590.564 7  20834926.265    20834939.658       -1818.234  
     -1417.117          44.000          43.000  
 107501699.417 7  83767625.901 7  20456894.370    20456910.463          79.770  
        62.074          42.000          44.000  
 115501196.725 7  90001019.339 7  21979147.265    21979166.055        2887.750  
      2250.191          45.000          44.000  
 126683536.774 7  98714519.800 6  24107079.168    24107096.886       -3360.016  
     -2618.297          42.000          40.000  
 24  1 10  3 19 12.6000000  0  7G08G24G18G23G10G32G15
 128921226.814 6 100458181.005 6  24532905.830    24532927.894        2810.793  
      2189.895          39.000          40.000  
 128024615.263 6  99759532.544 7  24362273.786    24362295.148         293.895  
       228.594          40.000          43.000  
 112808215.702 7  87902570.048 7  21466691.282    21466706.634       -1791.297  
     -1395.801          43.000          46.000  
 109488449.007 7  85315732.246 7  20834960.841    20834974.282       -1818.543  
     -1417.004          44.000          43.000  
 107501691.463 7  83767619.709 7  20456892.771    20456909.100          79.625  
        61.844          42.000          44.000  
 115500907.953 7  90000794.326 7  21979092.166    21979111.081        2887.672  
      2250.098          45.000          44.000  
 126683872.786 7  98714781.727 6  24107142.820    24107160.687       -3359.832  
     -2618.539          43.000          40.000  
 24  1 10  3 19 12.7000000  0  7G08G24G18G23G10G32G15
 128920945.731 6 100457961.969 6  24532852.342    24532874.403        2810.719  
      2190.332          39.000          40.000  
 128024585.901 6  99759509.674 7  24362268.199    24362289.563         293.766  
       228.879          40.000          43.000  
 112808394.740 7  87902709.637 7  21466725.351    21466740.723       -1790.562  
     -1395.609          44.000          46.000  
 109488630.864 7  85315873.973 7  20834995.447    20835008.893       -1818.512  
     -1417.031          44.000          42.000  
 107501683.496 7  83767613.501 7  20456891.255    20456907.584          79.684  
        62.199          42.000          44.000  
 115500619.182 7  90000569.291 7  21979037.214    21979056.126        2887.879  
      2250.609          45.000          43.000  
 126684208.787 7  98715043.509 6  24107206.758    24107224.617       -3360.051  
     -2618.219          43.000          40.000  
 24  1 10  3 19 12.8000000  0  7G08G24G18G23G10G32G15
 128920664.675 6 100457742.949 6  24532799.046    24532820.979        2810.609  
      2190.133          39.000          40.000  
 128024556.491 6  99759486.772 7  24362262.829    24362284.423         294.012  
       229.059          39.000          43.000  
 112808573.965 7  87902849.296 7  21466759.824    21466774.564       -1791.332  
     -1395.961          43.000          46.000  
 109488812.754 7  85316015.664 7  20835030.036    20835043.777       -1818.570  
     -1417.051          44.000          42.000  
 107501675.573 7  83767607.332 7  20456889.677    20456906.007          79.355  
        61.797          42.000          44.000  
 115500330.429 7  90000344.294 7  21978982.235    21979001.351        2887.723  
      2249.969          45.000          43.000  
 126684544.858 7  98715305.373 6  24107271.320    24107288.411       -3360.492  
     -2618.609          43.000          40.000  
 24  1 10  3 19 12.9000000  0  7G08G24G18G23G10G32G15
 128920383.664 6 100457523.991 6  24532745.572    24532767.507        2810.418  
      2189.512          39.000          41.000  
 128024527.147 6  99759463.885 7  24362257.245    24362278.834         293.695  
       228.676          39.000          42.000  
 112808753.126 7  87902988.848 7  21466793.917    21466808.644       -1791.723  
     -1396.129          43.000          46.000  
 109488994.630 7  85316157.422 7  20835064.646    20835078.395       -1818.785  
     -1417.535          44.000          42.000  
 107501667.650 7  83767601.166 7  20456888.169    20456904.501          79.332  
        61.617          43.000          44.000  
 115500041.662 7  90000119.273 7  21978927.285    21978946.398        2887.531  
      2250.020          45.000          43.000  
 126684880.900 7  98715567.188 6  24107335.267    24107352.348       -3360.430  
     -2618.363          43.000          40.000  
 24  1 10  3 19 13.0000000  0  7G08G24G18G23G10G32G15
 128920102.593 6 100457304.988 6  24532692.132    24532713.946        2810.484  
      2189.926          39.000          40.000  
 128024497.877 6  99759441.048 7  24362251.503    24362272.452         293.160  
       228.473          39.000          42.000  
 112808932.267 7  87903128.433 7  21466827.436    21466842.755       -1791.465  
     -1395.969          43.000          46.000  
 109489176.553 7  85316299.185 7  20835099.366    20835112.890       -1819.047  
     -1417.606          44.000          43.000  
 107501659.751 7  83767595.015 7  20456887.361    20456902.827          79.062  
        61.445          43.000          44.000  
 115499752.895 7  89999894.266 7  21978872.100    21978891.520        2887.691  
      2250.086          45.000          43.000  
 126685216.961 7  98715829.082 6  24107399.428    24107415.813       -3360.422  
     -2618.656          43.000          39.000  
 24  1 10  3 19 13.1000000  0  7G08G24G18G23G10G32G15
 128919821.596 6 100457086.038 6  24532638.660    24532660.476        2810.223  
      2189.418          39.000          41.000  
 128024468.561 6  99759418.219 7  24362245.924    24362266.877         293.297  
       228.402          40.000          42.000  
 112809111.461 7  87903268.055 7  21466861.536    21466876.853       -1791.852  
     -1396.606          43.000          46.000  
 109489358.525 7  85316440.946 7  20835133.994    20835147.510       -1819.449  
     -1417.719          44.000          43.000  
 107501651.889 7  83767588.877 7  20456885.865    20456901.328          78.844  
        61.410          43.000          44.000  
 115499464.154 7  89999669.286 7  21978817.154    21978836.577        2887.461  
      2249.777          45.000          43.000  
 126685553.046 7  98716090.951 6  24107463.383    24107479.765       -3360.699  
     -2618.770          42.000          39.000  
 24  1 10  3 19 13.2000000  0  7G08G24G18G23G10G32G15
 128919540.658 6 100456867.112 6  24532585.192    24532606.911        2809.832  
      2189.445          39.000          41.000  
 128024439.222 6  99759395.431 7  24362240.443    24362261.616         293.172  
       227.871          39.000          43.000  
 112809290.700 7  87903407.787 7  21466895.792    21466910.922       -1792.199  
     -1396.695          43.000          46.000  
 109489540.490 7  85316582.727 7  20835168.168    20835182.142       -1819.613  
     -1418.020          44.000          43.000  
 107501644.055 7  83767582.770 7  20456884.452    20456899.962          78.496  
        60.957          42.000          44.000  
 115499175.426 7  89999444.303 7  21978762.445    21978781.634        2887.355  
      2249.793          45.000          43.000  
 126685889.171 7  98716352.862 6  24107527.298    24107543.210       -3360.957  
     -2619.121          42.000          39.000  
 24  1 10  3 19 13.3000000  0  7G08G24G18G23G10G32G15
 128919259.656 6 100456648.151 6  24532531.719    24532553.438        2809.875  
      2189.500          39.000          41.000  
 128024409.968 6  99759372.594 7  24362234.876    24362256.039         293.000  
       228.238          39.000          43.000  
 112809469.993 7  87903547.382 7  21466929.910    21466945.012       -1792.539  
     -1396.375          43.000          46.000  
 109489722.506 7  85316724.600 7  20835202.804    20835216.789       -1819.816  
     -1418.414          44.000          42.000  
 107501636.243 7  83767576.674 7  20456882.966    20456898.473          78.453  
        60.988          42.000          44.000  
 115498886.706 7  89999219.310 7  21978707.504    21978726.689        2887.301  
      2249.766          45.000          43.000  
 126686225.280 7  98716614.772 6  24107591.258    24107607.171       -3361.047  
     -2619.180          42.000          39.000  
 24  1 10  3 19 13.4000000  0  7G08G24G18G23G10G32G15
 128918978.729 6 100456429.246 6  24532478.448    24532499.917        2809.301  
      2189.055          39.000          40.000  
 128024380.690 6  99759349.806 7  24362229.211    24362250.685         292.418  
       227.762          39.000          43.000  
 112809649.190 7  87903687.090 7  21466963.862    21466979.029       -1791.719  
     -1397.027          43.000          45.000  
 109489904.569 7  85316866.455 7  20835237.051    20835251.369       -1820.488  
     -1418.500          44.000          42.000  
 107501628.468 7  83767570.633 7  20456880.924    20456896.951          77.578  
        60.625          42.000          44.000  
 115498598.010 7  89998994.365 7  21978652.465    21978671.841        2886.793  
      2249.547          45.000          43.000  
 126686561.444 7  98716876.741 6  24107655.157    24107671.506       -3361.418  
     -2619.480          43.000          39.000  
 24  1 10  3 19 13.5000000  0  7G08G24G18G23G10G32G15
 128918697.803 6 100456210.340 6  24532424.989    24532446.458        2809.285  
      2189.074          39.000          40.000  
 128024351.438 6  99759327.048 7  24362223.644    24362245.128         292.535  
       227.719          40.000          43.000  
 112809828.539 7  87903826.857 7  21466997.991    21467013.161       -1793.539  
     -1397.406          43.000          45.000  
 109490086.654 7  85317008.293 7  20835271.701    20835286.007       -1821.207  
     -1418.984          44.000          43.000  
 107501620.725 7  83767564.593 7  20456879.450    20456895.476          77.629  
        60.328          42.000          44.000  
 115498309.351 7  89998769.408 7  21978597.535    21978616.904        2886.762  
      2249.387          45.000          43.000  
 126686897.649 7  98717138.711 6  24107719.135    24107735.482       -3361.965  
     -2619.469          42.000          38.000  
 24  1 10  3 19 13.6000000  0  7G08G24G18G23G10G32G15
 128918416.862 6 100455991.427 6  24532371.536    24532393.215        2809.441  
      2189.250          39.000          40.000  
 128024322.255 6  99759304.248 7  24362218.107    24362239.458         292.258  
       227.973          39.000          43.000  
 112810007.822 7  87903966.544 7  21467032.420    21467047.454       -1792.988  
     -1397.129          43.000          45.000  
 109490268.704 7  85317150.191 7  20835306.234    20835320.793       -1820.422  
     -1418.535          44.000          43.000  
 107501612.976 7  83767558.546 7  20456878.320    20456893.913          77.508  
        60.289          42.000          44.000  
 115498020.672 7  89998544.519 7  21978542.633    21978561.726        2886.828  
      2249.145          45.000          43.000  
 126687233.757 7  98717400.603 6  24107782.915    24107799.611       -3361.613  
     -2619.613          42.000          38.000  
 24  1 10  3 19 13.7000000  0  7G08G24G18G23G10G32G15
 128918135.957 6 100455772.531 6  24532318.082    24532339.759        2809.262  
      2188.812          39.000          40.000  
 128024293.001 6  99759281.481 7  24362212.540    24362233.898         292.316  
       227.766          40.000          43.000  
 112810187.116 7  87904106.288 7  21467066.539    21467081.581       -1792.805  
     -1397.348          44.000          45.000  
 109490450.795 7  85317292.093 7  20835340.885    20835355.447       -1820.691  
     -1419.086          44.000          43.000  
 107501605.251 7  83767552.549 7  20456876.850    20456892.449          77.457  
        60.160          42.000          44.000  
 115497732.002 7  89998319.548 7  21978487.701    21978506.786        2886.582  
      2249.297          45.000          43.000  
 126687569.952 7  98717662.636 6  24107846.890    24107863.602       -3361.590  
     -2619.941          42.000          38.000  
 24  1 10  3 19 13.8000000  0  7G08G24G18G23G10G32G15
 128917855.010 6 100455553.637 6  24532264.510    24532286.201        2809.301  
      2189.098          39.000          40.000  
 128024263.833 6  99759258.696 7  24362206.185    24362229.404         291.980  
       227.691          40.000          43.000  
 112810366.481 7  87904246.026 7  21467101.561    21467115.495       -1793.324  
     -1397.312          44.000          45.000  
 109490632.913 7  85317433.993 7  20835376.049    20835390.030       -1820.953  
     -1418.981          44.000          42.000  
 107501597.515 7  83767546.503 7  20456875.440    20456891.480          77.469  
        60.352          43.000          44.000  
 115497443.370 7  89998094.618 7  21978432.823    21978452.191        2886.598  
      2249.430          45.000          43.000  
 126687906.166 7  98717924.611 6  24107910.362    24107927.516       -3361.894  
     -2619.734          42.000          39.000  
 24  1 10  3 19 13.9000000  0  7G08G24G18G23G10G32G15
 128917574.089 6 100455334.709 6  24532211.052    24532232.737        2809.309  
      2189.297          39.000          40.000  
 128024234.602 6  99759235.931 7  24362200.622    24362223.845         292.336  
       227.719          40.000          43.000  
 112810545.849 7  87904385.771 7  21467135.694    21467149.622       -1793.582  
     -1397.555          45.000          46.000  
 109490814.978 7  85317575.856 7  20835410.695    20835424.674       -1820.844  
     -1418.781          44.000          42.000  
 107501589.802 7  83767540.513 7  20456873.972    20456890.017          77.238  
        59.984          43.000          44.000  
 115497154.715 7  89997869.734 7  21978377.893    21978397.272        2886.531  
      2249.098          45.000          43.000  
 126688242.301 6  98718186.541 6  24107974.326    24107991.482       -3361.715  
     -2619.496          41.000          40.000  
 24  1 10  3 19 14.0000000  0  7G08G24G18G23G10G32G15
 128917293.104 6 100455115.773 6  24532157.661    24532179.411        2809.621  
      2189.156          39.000          40.000  
 128024205.316 6  99759213.149 7  24362195.174    24362218.219         292.492  
       227.691          40.000          43.000  
 112810725.124 7  87904525.473 7  21467169.879    21467184.263       -1793.094  
     -1397.203          44.000          46.000  
 109490997.064 7  85317717.742 7  20835445.228    20835459.059       -1820.801  
     -1418.844          44.000          42.000  
 107501582.078 7  83767534.480 7  20456872.331    20456888.200          77.250  
        60.391          43.000          44.000  
 115496866.069 7  89997644.806 7  21978323.005    21978342.561        2886.504  
      2249.035          45.000          43.000  
 126688578.512 6  98718448.462 6  24108038.039    24108056.126       -3361.828  
     -2619.238          41.000          40.000  
 24  1 10  3 19 14.1000000  0  7G08G24G18G23G10G32G15
 128917012.162 6 100454896.872 6  24532104.199    24532125.953        2809.355  
      2189.195          40.000          40.000  
 128024176.123 6  99759190.400 7  24362189.619    24362212.663         292.262  
       227.496          40.000          43.000  
 112810904.549 7  87904665.282 7  21467204.022    21467218.405       -1793.609  
     -1397.496          44.000          46.000  
 109491179.157 7  85317859.663 7  20835479.879    20835493.717       -1820.734  
     -1418.770          44.000          42.000  
 107501574.341 7  83767528.434 7  20456870.858    20456886.723          77.434  
        60.316          42.000          44.000  
 115496577.453 7  89997419.892 7  21978268.083    21978287.635        2886.371  
      2249.098          45.000          43.000  
 126688914.681 6  98718710.397 6  24108102.010    24108120.093       -3361.738  
     -2619.391          41.000          40.000  
 24  1 10  3 19 14.2000000  0  7G08G24G18G23G10G32G15
 128916731.256 6 100454677.979 6  24532050.768    24532072.497        2809.109  
      2188.906          39.000          40.000  
 128024146.989 6  99759167.667 7  24362184.169    24362207.463         291.293  
       227.395          40.000          43.000  
 112811083.865 7  87904805.008 7  21467237.356    21467252.872       -1793.625  
     -1397.789          43.000          46.000  
 109491361.315 7  85318001.578 7  20835514.511    20835528.452       -1821.824  
     -1419.445          44.000          42.000  
 107501566.660 7  83767522.475 7  20456869.459    20456885.542          76.707  
        59.660          42.000          44.000  
 115496288.838 7  89997195.013 7  21978212.974    21978232.569        2885.918  
      2248.668          45.000          43.000  
 126689250.899 6  98718972.409 6  24108165.858    24108184.094       -3362.109  
     -2619.973          41.000          40.000  
 24  1 10  3 19 14.3000000  0  7G08G24G18G23G10G32G15
 128916450.383 6 100454459.090 6  24531997.320    24532019.042        2808.996  
      2188.941          39.000          40.000  
 128024117.834 6  99759144.942 7  24362178.621    24362201.913         291.965  
       227.363          40.000          43.000  
 112811263.274 7  87904944.825 7  21467271.497    21467287.017       -1793.906  
     -1397.707          43.000          46.000  
 109491543.447 7  85318143.502 7  20835549.169    20835563.112       -1821.441  
     -1419.168          44.000          42.000  
 107501558.990 7  83767516.500 7  20456867.999    20456884.083          76.633  
        59.711          42.000          44.000  
 115496000.258 7  89996970.150 7  21978158.059    21978177.655        2885.789  
      2248.660          45.000          43.000  
 126689587.126 6  98719234.425 6  24108229.840    24108248.081       -3362.144  
     -2619.848          41.000          41.000  
 24  1 10  3 19 14.4000000  0  7G08G24G18G23G10G32G15
 128916169.448 6 100454240.199 6  24531943.524    24531965.853        2809.203  
      2188.867          39.000          40.000  
 128024088.590 6  99759122.173 7  24362172.946    24362196.251         291.918  
       227.672          39.000          43.000  
 112811442.640 7  87905084.571 7  21467305.949    21467321.003       -1793.613  
     -1397.746          44.000          46.000  
 109491725.583 7  85318285.401 7  20835583.907    20835597.695       -1821.371  
     -1419.055          44.000          42.000  
 107501551.311 7  83767510.493 7  20456866.124    20456882.342          76.797  
        60.023          42.000          44.000  
 115495711.682 7  89996745.279 7  21978103.551    21978122.653        2885.902  
      2248.703          44.000          43.000  
 126689923.359 6  98719496.307 6  24108293.619    24108312.067       -3362.465  
     -2619.621          41.000          40.000  
 24  1 10  3 19 14.5000000  0  7G08G24G18G23G10G32G15
 128915888.538 6 100454021.312 6  24531890.068    24531912.398        2809.055  
      2188.820          39.000          40.000  
 128024059.488 6  99759099.414 7  24362167.408    24362190.693         291.586  
       227.445          39.000          43.000  
 112811622.112 7  87905224.443 7  21467340.101    21467355.161       -1794.195  
     -1398.008          44.000          46.000  
 109491907.716 7  85318427.299 7  20835618.566    20835632.348       -1821.289  
     -1419.086          44.000          43.000  
 107501543.642 7  83767504.528 7  20456864.665    20456880.885          76.867  
        59.906          42.000          44.000  
 115495423.121 7  89996520.420 7  21978048.640    21978067.740        2885.777  
      2248.383          45.000          43.000  
 126690259.513 6  98719758.342 6  24108357.587    24108376.059       -3361.726  
     -2619.645          41.000          40.000  
 24  1 10  3 19 14.6000000  0  7G08G24G18G23G10G32G15
 128915607.652 6 100453802.460 6  24531836.821    24531859.015        2808.855  
      2188.625          39.000          41.000  
 128024030.380 6  99759076.740 7  24362161.549    24362184.687         291.203  
       226.816          39.000          43.000  
 112811801.541 7  87905364.187 7  21467373.824    21467388.796       -1794.578  
     -1398.246          43.000          46.000  
 109492089.856 7  85318569.253 7  20835653.554    20835667.592       -1821.414  
     -1419.598          45.000          43.000  
 107501536.041 7  83767498.604 7  20456863.336    20456879.228          75.988  
        59.375          42.000          44.000  
 115495134.613 7  89996295.640 7  21977993.457    21978012.792        2885.156  
      2248.117          45.000          43.000  
 126690595.781 6  98720020.309 6  24108421.593    24108440.534       -3362.668  
     -2619.785          41.000          40.000  
 24  1 10  3 19 14.7000000  0  7G08G24G18G23G10G32G15
 128915326.766 6 100453583.563 6  24531783.370    24531805.558        2809.066  
      2188.828          39.000          41.000  
 128024001.210 6  99759054.100 7  24362155.998    24362179.158         291.379  
       226.559          40.000          42.000  
 112811980.952 7  87905503.981 7  21467407.964    21467422.935       -1794.098  
     -1398.141          43.000          45.000  
 109492272.071 7  85318711.276 7  20835688.228    20835702.276       -1822.141  
     -1419.961          44.000          43.000  
 107501528.370 7  83767492.632 7  20456861.876    20456877.769          76.324  
        59.387          42.000          44.000  
 115494846.089 7  89996070.778 7  21977938.553    21977957.879        2885.102  
      2248.418          45.000          44.000  
 126690931.945 6  98720282.325 6  24108485.563    24108504.521       -3361.715  
     -2620.090          41.000          40.000  
 24  1 10  3 19 14.8000000  0  7G08G24G18G23G10G32G15
 128915045.828 6 100453364.665 6  24531730.393    24531751.819        2809.152  
      2188.988          39.000          41.000  
 128023972.108 6  99759031.400 6  24362150.390    24362172.756         291.297  
       227.027          40.000          41.000  
 112812160.349 7  87905643.864 7  21467442.040    21467456.854       -1793.859  
     -1398.324          43.000          45.000  
 109492454.215 7  85318853.209 7  20835722.795    20835736.734       -1821.605  
     -1419.477          44.000          43.000  
 107501520.767 7  83767486.718 7  20456860.078    20456877.052          76.379  
        59.504          42.000          44.000  
 115494557.591 7  89995845.980 7  21977883.505    21977902.910        2885.242  
      2248.129          45.000          44.000  
 126691268.149 6  98720544.308 6  24108550.071    24108568.578       -3362.043  
     -2620.109          41.000          40.000  
 24  1 10  3 19 14.9000000  0  7G08G24G18G23G10G32G15
 128914764.934 6 100453145.792 6  24531676.941    24531698.368        2809.027  
      2188.770          38.000          41.000  
 128023942.948 6  99759008.701 6  24362144.841    24362167.212         291.438  
       226.703          40.000          41.000  
 112812339.803 7  87905783.733 7  21467476.189    21467491.011       -1794.324  
     -1398.473          44.000          45.000  
 109492636.394 7  85318995.165 7  20835757.463    20835771.401       -1821.641  
     -1419.312          44.000          43.000  
 107501513.132 7  83767480.737 7  20456858.625    20456875.591          76.316  
        59.562          42.000          44.000  
 115494269.071 7  89995621.168 7  21977828.602    21977848.009        2885.156  
      2248.133          44.000          44.000  
 126691604.400 6  98720806.367 6  24108614.058    24108632.575       -3362.000  
     -2619.691          41.000          39.000  
 24  1 10  3 19 15.0000000  0  7G08G24G18G23G10G32G15
 128914484.040 6 100452926.918 6  24531623.434    24531644.597        2809.086  
      2188.809          38.000          41.000  
 128023913.861 6  99758986.020 7  24362139.626    24362160.993         291.156  
       226.902          40.000          42.000  
 112812519.313 7  87905923.535 7  21467510.888    21467525.020       -1794.844  
     -1398.102          44.000          45.000  
 109492818.530 7  85319137.074 7  20835791.942    20835806.268       -1821.602  
     -1419.340          44.000          43.000  
 107501505.494 7  83767474.812 7  20456856.929    20456873.980          76.359  
        59.438          42.000          44.000  
 115493980.542 7  89995396.342 7  21977773.571    21977793.065        2885.137  
      2248.125          44.000          44.000  
 126691940.660 6  98721068.290 6  24108677.827    24108695.602       -3362.625  
     -2619.883          40.000          39.000  
 24  1 10  3 19 15.1000000  0  7G08G24G18G23G10G32G15
 128914203.107 6 100452707.987 6  24531569.974    24531591.132        2809.152  
      2189.043          39.000          41.000  
 128023884.717 6  99758963.333 7  24362134.080    24362155.453         291.332  
       226.781          40.000          42.000  
 112812698.745 7  87906063.331 7  21467545.033    21467559.159       -1794.477  
     -1398.297          43.000          46.000  
 109493000.711 7  85319279.007 7  20835826.610    20835840.929       -1821.688  
     -1419.676          44.000          43.000  
 107501497.860 7  83767468.863 7  20456855.476    20456872.527          76.488  
        59.625          42.000          43.000  
 115493692.049 7  89995171.555 7  21977718.673    21977738.170        2885.176  
      2247.914          44.000          43.000  
 126692276.881 6  98721330.313 6  24108741.808    24108759.591       -3362.141  
     -2619.824          40.000          40.000  
 24  1 10  3 19 15.2000000  0  7G08G24G18G23G10G32G15
 128913922.212 6 100452489.101 6  24531516.717    24531537.794        2809.141  
      2188.988          38.000          41.000  
 128023855.571 6  99758940.635 7  24362128.636    24362150.472         291.238  
       227.023          39.000          42.000  
 112812878.209 7  87906203.169 7  21467578.590    21467593.926       -1794.602  
     -1398.137          43.000          46.000  
 109493182.842 7  85319420.956 7  20835861.214    20835875.595       -1821.449  
     -1419.215          44.000          43.000  
 107501490.180 7  83767462.871 7  20456854.554    20456870.759          76.555  
        59.711          42.000          43.000  
 115493403.517 7  89994946.717 7  21977663.845    21977683.340        2885.121  
      2248.254          44.000          43.000  
 126692613.069 6  98721592.295 6  24108805.243    24108823.382       -3362.148  
     -2620.078          41.000          40.000  
 24  1 10  3 19 15.3000000  0  7G08G24G18G23G10G32G15
 128913641.264 6 100452270.163 6  24531463.254    24531484.328        2809.336  
      2189.270          39.000          41.000  
 128023826.515 6  99758917.931 7  24362123.106    24362144.928         291.160  
       227.004          39.000          42.000  
 112813057.598 7  87906342.958 7  21467612.726    21467628.064       -1794.082  
     -1397.977          44.000          46.000  
 109493364.932 7  85319562.859 7  20835895.865    20835910.249       -1820.984  
     -1418.898          44.000          43.000  
 107501482.475 7  83767456.863 7  20456853.088    20456869.292          76.941  
        60.215          42.000          43.000  
 115493114.971 7  89994721.877 7  21977608.937    21977628.432        2885.395  
      2248.531          44.000          43.000  
 126692949.250 6  98721854.276 6  24108869.216    24108887.360       -3361.871  
     -2619.492          41.000          40.000  
 24  1 10  3 19 15.4000000  0  7G08G24G18G23G10G32G15
 128913360.316 6 100452051.274 6  24531409.596    24531431.006        2809.348  
      2188.941          39.000          41.000  
 128023797.391 6  99758895.271 7  24362117.681    24362139.503         290.887  
       226.703          39.000          43.000  
 112813236.983 7  87906482.761 7  21467647.175    21467662.057       -1793.930  
     -1397.902          43.000          46.000  
 109493547.027 7  85319704.750 7  20835930.711    20835944.978       -1821.000  
     -1418.742          44.000          43.000  
 107501474.751 7  83767450.823 7  20456850.985    20456868.247          77.086  
        60.203          42.000          44.000  
 115492826.421 7  89994497.024 7  21977554.090    21977573.364        2885.430  
      2248.508          44.000          43.000  
 126693285.503 6  98722116.246 6  24108933.172    24108951.492       -3362.180  
     -2619.598          41.000          40.000  
 24  1 10  3 19 15.5000000  0  7G08G24G18G23G10G32G15
 128913079.368 6 100451832.358 6  24531356.134    24531377.544        2809.445  
      2189.281          39.000          41.000  
 128023768.365 6  99758872.598 7  24362112.158    24362133.967         290.723  
       226.730          39.000          43.000  
 112813416.386 7  87906622.540 7  21467681.314    21467696.193       -1794.098  
     -1397.871          44.000          46.000  
 109493729.094 7  85319846.606 7  20835965.358    20835979.621       -1820.840  
     -1418.719          44.000          43.000  
 107501466.986 7  83767444.799 7  20456849.507    20456866.775          77.527  
        60.383          42.000          44.000  
 115492537.851 7  89994272.169 7  21977499.177    21977518.452        2885.637  
      2248.570          45.000          43.000  
 126693621.713 6  98722378.153 6  24108997.151    24109015.453       -3362.320  
     -2619.586          41.000          40.000  
 24  1 10  3 19 15.6000000  0  7G08G24G18G23G10G32G15
 128912798.416 6 100451613.415 6  24531302.764    24531323.701        2809.480  
      2189.234          39.000          40.000  
 128023739.225 6  99758849.971 7  24362106.636    24362129.113         291.109  
       226.297          39.000          43.000  
 112813595.768 7  87906762.309 7  21467715.066    21467730.607       -1793.793  
     -1397.770          43.000          46.000  
 109493911.208 7  85319988.472 7  20835999.833    20836013.821       -1820.887  
     -1418.660          44.000          43.000  
 107501459.259 7  83767438.787 7  20456848.076    20456865.339          77.383  
        60.320          42.000          44.000  
 115492249.301 7  89994047.334 7  21977444.393    21977463.780        2885.512  
      2248.297          45.000          44.000  
 126693957.928 6  98722640.230 6  24109061.341    24109079.595       -3362.031  
     -2620.020          41.000          40.000  
 24  1 10  3 19 15.7000000  0  7G08G24G18G23G10G32G15
 128912517.466 6 100451394.487 6  24531249.301    24531270.237        2809.465  
      2189.289          39.000          40.000  
 128023710.108 6  99758827.307 7  24362101.096    24362123.578         291.000  
       226.750          39.000          43.000  
 112813775.219 7  87906902.175 7  21467749.215    21467764.764       -1794.281  
     -1398.309          43.000          46.000  
 109494093.273 7  85320130.354 7  20836034.479    20836048.470       -1820.945  
     -1419.191          44.000          43.000  
 107501451.529 7  83767432.749 7  20456846.605    20456863.864          77.250  
        60.152          43.000          44.000  
 115491960.763 7  89993822.485 7  21977389.486    21977408.869        2885.484  
      2248.359          45.000          44.000  
 126694294.123 6  98722902.181 6  24109125.317    24109143.566       -3362.106  
     -2619.965          41.000          39.000  
 24  1 10  3 19 15.8000000  0  7G08G24G18G23G10G32G15
 128912236.548 6 100451175.616 6  24531195.727    24531216.481        2809.387  
      2188.789          39.000          40.000  
 128023681.167 6  99758804.608 7  24362095.166    24362118.644         290.133  
       226.672          38.000          43.000  
 112813954.683 7  87907041.949 7  21467783.045    21467798.734       -1794.586  
     -1398.172          43.000          46.000  
 109494275.371 7  85320272.281 7  20836068.881    20836083.075       -1820.855  
     -1418.988          44.000          43.000  
 107501443.806 7  83767426.765 7  20456845.628    20456862.434          77.320  
        60.109          43.000          44.000  
 115491672.225 7  89993597.688 7  21977334.649    21977354.042        2885.410  
      2248.172          45.000          44.000  
 126694630.395 6  98723164.169 6  24109189.096    24109207.773       -3362.547  
     -2619.957          41.000          40.000  
 24  1 10  3 19 15.9000000  0  7G08G24G18G23G10G32G15
 128911955.613 6 100450956.715 6  24531142.267    24531163.023        2809.328  
      2189.121          39.000          40.000  
 128023652.123 6  99758781.998 7  24362089.639    24362113.122         290.457  
       226.215          38.000          43.000  
 112814134.007 7  87907181.716 7  21467817.169    21467832.866       -1793.711  
     -1397.770          44.000          46.000  
 109494457.431 7  85320414.132 7  20836103.526    20836117.717       -1820.789  
     -1418.594          44.000          43.000  
 107501436.028 7  83767420.669 7  20456844.147    20456860.945          77.441  
        60.676          42.000          44.000  
 115491383.649 7  89993372.768 7  21977279.735    21977299.114        2885.621  
      2248.922          45.000          44.000  
 126694966.596 6  98723426.214 6  24109253.073    24109271.767       -3362.137  
     -2620.168          41.000          40.000  
 24  1 10  3 19 16.0000000  0  7G08G24G18G23G10G32G15
 128911674.652 6 100450737.781 6  24531088.239    24531109.370        2809.555  
      2189.262          39.000          41.000  
 128023623.021 6  99758759.337 7  24362083.703    24362107.268         290.891  
       226.641          38.000          43.000  
 112814313.398 7  87907321.593 7  21467852.142    21467866.737       -1793.695  
     -1398.020          44.000          46.000  
 109494639.497 7  85320555.984 7  20836137.906    20836152.358       -1820.707  
     -1418.645          43.000          43.000  
 107501428.310 7  83767414.648 7  20456842.835    20456859.490          77.363  
        60.320          42.000          44.000  
 115491095.071 7  89993147.923 7  21977224.852    21977244.541        2885.785  
      2248.625          45.000          44.000  
 126695302.795 6  98723688.187 6  24109316.878    24109335.907       -3362.094  
     -2619.777          41.000          40.000  
 24  1 10  3 19 16.1000000  0  7G08G24G18G23G10G32G15
 128911393.760 6 100450518.889 6  24531034.787    24531055.914        2809.199  
      2189.035          39.000          40.000  
 128023593.868 6  99758736.690 7  24362078.155    24362101.738         291.031  
       226.320          38.000          43.000  
 112814492.811 7  87907461.323 7  21467886.284    21467900.860       -1794.156  
     -1397.805          43.000          46.000  
 109494821.586 7  85320697.871 7  20836172.557    20836187.009       -1820.750  
     -1418.590          44.000          42.000  
 107501420.546 7  83767408.595 7  20456841.358    20456858.012          77.492  
        60.516          42.000          44.000  
 115490806.504 7  89992923.073 7  21977169.939    21977189.630        2885.684  
      2248.582          45.000          43.000  
 126695639.085 7  98723950.193 6  24109380.872    24109399.892       -3362.508  
     -2620.199          42.000          40.000  
 24  1 10  3 19 16.2000000  0  7G08G24G18G23G10G32G15
 128911112.795 6 100450299.968 6  24530981.314    24531002.186        2809.348  
      2189.012          39.000          40.000  
 128023564.848 6  99758714.060 7  24362072.453    24362097.008         290.559  
       226.359          38.000          43.000  
 112814672.179 7  87907601.093 7  21467919.752    21467934.962       -1793.820  
     -1397.652          44.000          46.000  
 109495003.597 7  85320839.729 7  20836207.583    20836221.730       -1820.352  
     -1418.547          44.000          42.000  
 107501412.744 7  83767402.484 7  20456839.592    20456856.184          77.668  
        60.672          42.000          43.000  
 115490517.903 7  89992698.196 7  21977115.005    21977134.557        2885.902  
      2248.824          45.000          43.000  
 126695975.285 7  98724212.151 6  24109444.888    24109463.459       -3362.297  
     -2619.590          42.000          39.000  
 24  1 10  3 19 16.3000000  0  7G08G24G18G23G10G32G15
 128910831.891 6 100450081.079 6  24530927.859    24530948.731        2809.363  
      2189.094          39.000          40.000  
 128023535.757 6  99758691.359 7  24362066.918    24362091.464         290.785  
       226.840          38.000          43.000  
 112814851.566 7  87907740.826 7  21467953.888    21467969.086       -1793.871  
     -1397.508          43.000          46.000  
 109495185.633 7  85320981.587 7  20836242.223    20836256.373       -1820.312  
     -1418.523          44.000          43.000  
 107501404.939 7  83767396.460 7  20456838.106    20456854.713          78.062  
        60.727          42.000          43.000  
 115490229.306 7  89992473.306 7  21977060.087    21977079.636        2885.855  
      2248.824          45.000          43.000  
 126696311.471 7  98724474.102 6  24109508.862    24109527.430       -3362.066  
     -2619.746          43.000          39.000  
 24  1 10  3 19 16.4000000  0  7G08G24G18G23G10G32G15
 128910550.944 6 100449862.161 6  24530874.389    24530895.542        2809.238  
      2188.969          39.000          41.000  
 128023506.707 6  99758668.727 7  24362061.265    24362085.429         290.777  
       226.461          39.000          43.000  
 112815030.939 7  87907880.613 7  21467987.990    21468002.856       -1793.820  
     -1397.758          43.000          46.000  
 109495367.659 7  85321123.400 7  20836276.737    20836291.075       -1820.359  
     -1418.270          44.000          43.000  
 107501397.175 7  83767390.389 7  20456836.403    20456853.238          77.805  
        60.539          42.000          43.000  
 115489940.750 7  89992248.439 7  21977005.043    21977024.628        2885.840  
      2248.844          45.000          43.000  
 126696647.687 7  98724736.130 6  24109573.217    24109591.459       -3362.062  
     -2620.117          43.000          39.000  
 24  1 10  3 19 16.5000000  0  7G08G24G18G23G10G32G15
 128910270.068 6 100449643.294 6  24530820.940    24530842.093        2809.090  
      2189.027          38.000          41.000  
 128023477.595 6  99758646.084 7  24362055.725    24362079.900         290.793  
       226.496          40.000          42.000  
 112815210.319 7  87908020.344 7  21468022.125    21468036.980       -1793.977  
     -1397.930          43.000          46.000  
 109495549.753 7  85321265.309 7  20836311.388    20836325.731       -1820.664  
     -1418.914          44.000          43.000  
 107501389.420 7  83767384.337 7  20456834.927    20456851.760          77.566  
        60.395          42.000          43.000  
 115489652.169 7  89992023.600 7  21976950.128    21976969.720        2885.676  
      2248.266          45.000          43.000  
 126696983.935 7  98724998.116 6  24109637.202    24109655.438       -3362.312  
     -2619.852          42.000          39.000  
 24  1 10  3 19 16.6000000  0  7G08G24G18G23G10G32G15
 128909989.198 6 100449424.446 6  24530767.610    24530788.625        2808.801  
      2188.363          38.000          41.000  
 128023448.632 6  99758623.440 7  24362050.533    24362073.948         290.273  
       226.391          40.000          42.000  
 112815389.675 7  87908160.236 7  21468056.592    21468071.432       -1793.383  
     -1398.016          44.000          46.000  
 109495731.803 7  85321407.130 7  20836346.187    20836360.693       -1820.691  
     -1418.816          44.000          43.000  
 107501381.706 7  83767378.336 7  20456833.842    20456850.045          77.355  
        60.004          43.000          43.000  
 115489363.636 7  89991798.792 7  21976895.004    21976914.468        2885.500  
      2248.348          45.000          43.000  
 126697320.168 7  98725260.128 6  24109701.209    24109719.510       -3362.344  
     -2620.164          43.000          40.000  
 24  1 10  3 19 16.7000000  0  7G08G24G18G23G10G32G15
 128909708.372 6 100449205.619 6  24530714.170    24530735.185        2808.625  
      2188.363          38.000          41.000  
 128023419.560 6  99758600.851 7  24362045.001    24362068.431         290.586  
       226.051          40.000          42.000  
 112815569.080 7  87908299.968 7  21468090.731    21468105.556       -1794.094  
     -1397.883          43.000          46.000  
 109495913.876 7  85321549.015 7  20836380.834    20836395.343       -1820.688  
     -1418.680          44.000          42.000  
 107501373.987 7  83767372.345 7  20456832.373    20456848.582          77.262  
        60.059          43.000          43.000  
 115489075.136 7  89991573.944 7  21976840.104    21976859.557        2885.270  
      2248.301          45.000          43.000  
 126697656.433 7  98725522.156 6  24109765.198    24109783.500       -3362.430  
     -2620.031          43.000          40.000  
 24  1 10  3 19 16.8000000  0  7G08G24G18G23G10G32G15
 128909427.481 6 100448986.724 6  24530660.922    24530681.947        2808.730  
      2188.773          38.000          41.000  
 128023390.487 6  99758578.148 7  24362039.914    24362062.676         290.590  
       226.836          40.000          42.000  
 112815748.451 7  87908439.750 7  21468124.732    21468140.060       -1793.660  
     -1397.688          44.000          46.000  
 109496095.917 7  85321690.891 7  20836415.851    20836429.608       -1820.453  
     -1418.512          44.000          42.000  
 107501366.282 7  83767366.331 7  20456831.149    20456846.746          77.215  
        60.133          42.000          43.000  
 115488786.585 7  89991349.121 7  21976785.148    21976804.997        2885.484  
      2248.336          44.000          43.000  
 126697992.622 7  98725784.111 6  24109829.618    24109847.535       -3362.219  
     -2619.855          42.000          40.000  
 24  1 10  3 19 16.9000000  0  7G08G24G18G23G10G32G15
 128909146.650 6 100448767.907 6  24530607.481    24530628.510        2808.547  
      2188.293          38.000          41.000  
 128023361.386 6  99758555.547 7  24362034.376    24362057.157         290.863  
       226.164          40.000          42.000  
 112815927.763 7  87908579.517 7  21468158.854    21468174.192       -1793.461  
     -1397.660          44.000          46.000  
 109496277.994 7  85321832.784 7  20836450.499    20836464.260       -1820.551  
     -1418.742          44.000          42.000  
 107501358.549 7  83767360.272 7  20456829.677    20456845.266          77.055  
        60.148          42.000          43.000  
 115488498.044 7  89991124.290 7  21976730.240    21976750.091        2885.348  
      2248.418          44.000          43.000  
 126698328.846 7  98726046.101 6  24109893.599    24109911.516       -3362.192  
     -2619.938          42.000          40.000  
 24  1 10  3 19 17.0000000  0  7G08G24G18G23G10G32G15
 128908865.817 6 100448549.056 6  24530553.751    24530574.861        2808.406  
      2188.336          38.000          41.000  
 128023332.321 6  99758532.890 7  24362029.049    24362051.397         290.734  
       226.496          41.000          42.000  
 112816107.152 7  87908719.255 7  21468193.178    21468208.630       -1793.648  
     -1397.231          44.000          46.000  
 109496460.025 7  85321974.583 7  20836485.044    20836498.904       -1820.461  
     -1418.262          44.000          42.000  
 107501350.827 7  83767354.272 7  20456828.145    20456843.809          77.434  
        60.359          42.000          43.000  
 115488209.491 7  89990899.438 7  21976675.236    21976694.883        2885.434  
      2248.324          44.000          43.000  
 126698665.077 7  98726308.091 6  24109957.308    24109975.332       -3362.176  
     -2619.609          42.000          40.000  
 24  1 10  3 19 17.1000000  0  7G08G24G18G23G10G32G15
 128908585.009 6 100448330.256 6  24530500.315    24530521.428        2808.254  
      2188.344          39.000          41.000  
 128023303.284 6  99758510.193 6  24362023.523    24362045.854         290.590  
       226.891          41.000          41.000  
 112816286.473 7  87908859.019 7  21468227.301    21468242.762       -1793.422  
     -1397.742          44.000          46.000  
 109496642.061 7  85322116.436 7  20836519.685    20836533.546       -1820.453  
     -1418.273          44.000          42.000  
 107501343.121 7  83767348.277 7  20456826.679    20456842.345          77.289  
        60.117          43.000          43.000  
 115487920.977 7  89990674.614 7  21976620.334    21976639.979        2885.324  
      2248.199          44.000          43.000  
 126699001.255 7  98726570.058 6  24110021.281    24110039.307       -3362.109  
     -2619.910          42.000          40.000  
 24  1 10  3 19 17.2000000  0  7G08G24G18G23G10G32G15
 128908304.202 6 100448111.421 6  24530447.020    24530468.017        2808.223  
      2188.277          39.000          40.000  
 128023274.170 6  99758487.459 6  24362018.350    24362039.365         290.980  
       227.285          40.000          40.000  
 112816465.849 7  87908998.803 7  21468261.342    21468276.907       -1793.496  
     -1397.438          44.000          46.000  
 109496824.069 7  85322258.240 7  20836554.296    20836568.332       -1820.168  
     -1418.445          44.000          42.000  
 107501335.383 7  83767342.226 7  20456825.261    20456841.273          77.250  
        60.297          42.000          43.000  
 115487632.455 7  89990449.793 7  21976565.649    21976585.013        2885.285  
      2248.160          44.000          43.000  
 126699337.482 7  98726832.098 6  24110085.232    24110103.190       -3362.000  
     -2620.090          42.000          40.000  
 24  1 10  3 19 17.3000000  0  7G08G24G18G23G10G32G15
 128908023.404 6 100447892.649 6  24530393.586    24530414.591        2808.051  
      2187.652          39.000          40.000  
 128023245.100 6  99758464.804 6  24362012.818    24362033.832         290.750  
       226.473          40.000          40.000  
 112816645.187 7  87909138.471 7  21468295.468    21468311.015       -1793.645  
     -1397.461          44.000          46.000  
 109497006.089 7  85322400.093 7  20836588.933    20836602.974       -1820.352  
     -1418.246          44.000          42.000  
 107501327.653 7  83767336.216 7  20456823.790    20456839.805          77.277  
        60.141          42.000          43.000  
 115487343.930 7  89990224.960 7  21976510.745    21976530.106        2885.215  
      2248.227          44.000          43.000  
 126699673.679 7  98727094.028 6  24110149.208    24110167.156       -3362.192  
     -2619.707          42.000          40.000  
 24  1 10  3 19 17.4000000  0  7G08G24G18G23G10G32G15
 128907742.601 6 100447673.830 6  24530339.823    24530361.466        2808.035  
      2188.156          38.000          40.000  
 128023216.007 6  99758442.183 6  24362006.907    24362028.152         290.828  
       226.371          39.000          40.000  
 112816824.580 7  87909278.292 7  21468330.332    21468344.668       -1793.453  
     -1397.223          44.000          46.000  
 109497188.126 7  85322541.947 7  20836623.550    20836637.749       -1820.148  
     -1418.473          44.000          42.000  
 107501319.942 7  83767330.230 7  20456822.432    20456838.711          77.238  
        59.949          42.000          44.000  
 115487055.408 7  89990000.154 7  21976455.966    21976474.698        2885.238  
      2248.309          44.000          43.000  
 126700009.882 7  98727356.053 6  24110213.513    24110231.732       -3361.840  
     -2619.824          42.000          40.000  
 24  1 10  3 19 17.5000000  0  7G08G24G18G23G10G32G15
 128907461.847 6 100447455.070 6  24530286.397    24530308.042        2807.805  
      2187.609          39.000          40.000  
 128023186.979 6  99758419.526 6  24362001.383    24362022.619         290.516  
       226.719          39.000          40.000  
 112817003.954 7  87909418.035 7  21468364.466    21468378.795       -1793.770  
     -1397.918          44.000          46.000  
 109497370.204 7  85322683.821 7  20836658.199    20836672.396       -1820.527  
     -1418.625          44.000          42.000  
 107501312.308 7  83767324.278 7  20456820.979    20456837.257          76.754  
        59.531          42.000          44.000  
 115486766.938 7  89989775.362 7  21976401.072    21976419.802        2884.906  
      2247.699          45.000          43.000  
 126700346.105 7  98727617.994 6  24110277.494    24110295.700       -3362.293  
     -2619.758          42.000          40.000  
 24  1 10  3 19 17.6000000  0  7G08G24G18G23G10G32G15
 128907181.080 6 100447236.301 6  24530232.985    24530254.577        2807.758  
      2187.754          38.000          40.000  
 128023157.859 6  99758396.880 6  24361995.404    24362017.830         290.980  
       226.258          39.000          40.000  
 112817183.294 7  87909557.814 7  21468398.601    21468413.017       -1793.469  
     -1397.680          44.000          46.000  
 109497552.266 7  85322825.679 7  20836692.946    20836707.078       -1820.746  
     -1418.883          44.000          43.000  
 107501304.645 7  83767318.305 7  20456819.224    20456835.775          76.633  
        59.668          42.000          43.000  
 115486478.450 7  89989550.589 7  21976346.049    21976364.957        2884.848  
      2247.727          44.000          43.000  
 126700682.291 7  98727879.958 6  24110341.453    24110359.831       -3361.953  
     -2619.594          42.000          40.000  
 24  1 10  3 19 17.7000000  0  7G08G24G18G23G10G32G15
 128906900.326 6 100447017.524 6  24530179.559    24530201.150        2807.586  
      2187.688          38.000          40.000  
 128023128.817 6  99758374.215 6  24361989.878    24362012.295         290.527  
       226.582          40.000          40.000  
 112817362.665 7  87909697.568 7  21468432.734    21468447.146       -1793.723  
     -1397.496          44.000          46.000  
 109497734.314 7  85322967.518 7  20836727.588    20836741.717       -1820.609  
     -1418.512          44.000          43.000  
 107501296.997 7  83767312.326 7  20456817.769    20456834.315          76.523  
        59.582          42.000          43.000  
 115486190.005 7  89989325.810 7  21976291.160    21976310.063        2884.711  
      2247.789          44.000          43.000  
 126701018.497 7  98728141.977 6  24110405.430    24110423.819       -3361.992  
     -2620.094          42.000          40.000  
 24  1 10  3 19 17.8000000  0  7G08G24G18G23G10G32G15
 128906619.609 6 100446798.780 6  24530126.062    24530147.668        2807.426  
      2187.406          38.000          40.000  
 128023099.718 6  99758351.560 6  24361984.778    24362006.419         290.895  
       226.641          40.000          41.000  
 112817542.056 7  87909837.289 7  21468466.434    21468481.329       -1793.961  
     -1397.684          44.000          46.000  
 109497916.401 7  85323109.447 7  20836761.746    20836776.307       -1820.633  
     -1418.879          43.000          43.000  
 107501289.402 7  83767306.392 7  20456816.449    20456832.795          76.305  
        59.379          43.000          43.000  
 115485901.565 7  89989101.028 7  21976236.279    21976255.216        2884.562  
      2247.738          45.000          43.000  
 126701354.785 7  98728403.948 6  24110469.799    24110487.685       -3362.504  
     -2619.695          42.000          40.000  
 24  1 10  3 19 17.9000000  0  7G08G24G18G23G10G32G15
 128906338.900 6 100446580.048 6  24530072.645    24530094.251        2807.215  
      2187.383          38.000          40.000  
 128023070.633 6  99758328.936 6  24361979.243    24362000.894         290.777  
       226.109          40.000          41.000  
 112817721.463 7  87909977.173 7  21468500.574    21468515.491       -1793.805  
     -1398.309          44.000          46.000  
 109498098.565 7  85323251.389 7  20836796.411    20836810.971       -1821.074  
     -1419.309          44.000          43.000  
 107501281.848 7  83767300.508 7  20456815.011    20456831.359          75.797  
        58.699          43.000          43.000  
 115485613.156 7  89988876.318 7  21976181.397    21976200.340        2884.336  
      2247.203          45.000          43.000  
 126701690.992 7  98728665.928 6  24110533.777    24110551.663       -3362.398  
     -2620.102          42.000          40.000  
 24  1 10  3 19 18.0000000  0  7G08G24G18G23G10G32G15
 128906058.236 6 100446361.344 6  24530018.940    24530040.506        2806.520  
      2186.898          38.000          41.000  
 128023041.632 6  99758306.382 6  24361973.951    24361995.933         290.227  
       225.773          40.000          41.000  
 112817900.944 7  87910117.030 7  21468535.322    21468549.489       -1794.621  
     -1398.625          45.000          46.000  
 109498280.755 7  85323393.344 7  20836830.627    20836845.747       -1822.234  
     -1420.090          43.000          43.000  
 107501274.351 7  83767294.680 7  20456813.975    20456829.873          75.035  
        58.488          43.000          44.000  
 115485324.791 7  89988651.622 7  21976126.492    21976145.881        2883.488  
      2246.836          45.000          43.000  
 126702027.264 7  98728928.022 6  24110598.041    24110615.748       -3362.418  
     -2620.395          43.000          40.000  
 24  1 10  3 19 18.1000000  0  7G08G24G18G23G10G32G15
 128905777.607 6 100446142.681 6  24529965.538    24529987.106        2806.359  
      2186.879          38.000          40.000  
 128023012.645 6  99758283.738 6  24361968.435    24361990.403         290.070  
       226.363          39.000          41.000  
 112818080.458 7  87910256.915 7  21468569.482    21468583.650       -1795.328  
     -1398.707          44.000          46.000  
 109498463.006 7  85323535.360 7  20836865.308    20836880.429       -1822.500  
     -1419.848          43.000          43.000  
 107501266.878 7  83767288.877 7  20456812.553    20456828.455          74.656  
        58.125          43.000          44.000  
 115485036.437 7  89988426.927 7  21976071.620    21976091.008        2883.391  
      2246.984          45.000          43.000  
 126702363.543 7  98729190.009 6  24110662.033    24110679.727       -3362.832  
     -2620.188          44.000          41.000  
 24  1 10  3 19 18.2000000  0  7G08G24G18G23G10G32G15
 128905496.970 6 100445923.977 6  24529912.587    24529934.165        2806.551  
      2186.906          38.000          40.000  
 128022983.587 6  99758261.073 6  24361962.702    24361984.712         290.336  
       226.641          39.000          41.000  
 112818259.915 7  87910396.713 7  21468602.452    21468617.868       -1794.688  
     -1398.352          43.000          46.000  
 109498645.189 7  85323677.339 7  20836899.773    20836914.437       -1821.836  
     -1419.633          43.000          42.000  
 107501259.387 7  83767283.046 7  20456811.425    20456827.188          74.973  
        58.234          43.000          44.000  
 115484748.072 7  89988202.242 7  21976016.878    21976035.802        2883.742  
      2246.875          45.000          43.000  
 126702699.819 7  98729452.056 6  24110726.540    24110743.730       -3362.789  
     -2620.559          44.000          40.000  
 24  1 10  3 19 18.3000000  0  7G08G24G18G23G10G32G15
 128905216.262 6 100445705.257 6  24529859.170    24529880.751        2806.852  
      2187.172          38.000          40.000  
 128022954.575 6  99758238.451 6  24361957.182    24361979.187         290.352  
       226.254          39.000          41.000  
 112818439.324 7  87910536.511 7  21468636.592    21468652.009       -1794.512  
     -1398.207          44.000          46.000  
 109498827.356 7  85323819.242 7  20836934.439    20836949.092       -1821.820  
     -1419.328          43.000          42.000  
 107501251.862 7  83767277.169 7  20456809.993    20456825.753          75.145  
        58.867          43.000          44.000  
 115484459.670 7  89987977.502 7  21975961.997    21975980.918        2883.883  
      2247.426          45.000          43.000  
 126703036.054 7  98729714.051 6  24110790.523    24110807.712       -3362.492  
     -2620.023          43.000          40.000  
 24  1 10  3 19 18.4000000  0  7G08G24G18G23G10G32G15
 128904935.591 6 100445486.552 6  24529805.917    24529827.661        2806.762  
      2187.109          38.000          41.000  
 128022925.564 6  99758215.873 7  24361951.380    24361973.799         290.090  
       225.773          39.000          42.000  
 112818618.792 7  87910676.365 7  21468670.971    21468686.256       -1794.328  
     -1397.914          45.000          46.000  
 109499009.485 7  85323961.176 7  20836969.753    20836983.605       -1821.531  
     -1419.223          44.000          43.000  
 107501244.306 7  83767271.278 7  20456808.336    20456824.236          75.477  
        58.934          42.000          44.000  
 115484171.256 7  89987752.759 7  21975906.903    21975926.268        2884.156  
      2247.488          44.000          43.000  
 126703372.296 7  98729976.064 6  24110854.234    24110871.612       -3362.297  
     -2619.938          43.000          40.000  
 24  1 10  3 19 18.5000000  0  7G08G24G18G23G10G32G15
 128904654.858 6 100445267.840 6  24529752.495    24529774.250        2807.059  
      2187.297          38.000          41.000  
 128022896.485 6  99758193.257 7  24361945.846    24361968.275         290.555  
       226.195          39.000          42.000  
 112818798.149 7  87910816.109 7  21468705.101    21468720.383       -1793.895  
     -1397.785          45.000          46.000  
 109499191.595 7  85324103.150 7  20837004.407    20837018.277       -1821.086  
     -1419.043          44.000          43.000  
 107501236.688 7  83767265.340 7  20456806.886    20456822.786          75.879  
        59.281          43.000          44.000  
 115483882.804 7  89987527.978 7  21975852.013    21975871.374        2884.289  
      2247.789          44.000          43.000  
 126703708.520 7  98730238.075 6  24110918.215    24110935.598       -3362.398  
     -2620.141          43.000          40.000  
 24  1 10  3 19 18.6000000  0  7G08G24G18G23G10G32G15
 128904374.156 6 100445049.093 6  24529699.173    24529720.970        2807.066  
      2187.438          38.000          40.000  
 128022867.457 6  99758170.593 7  24361940.221    24361963.670         290.352  
       226.430          39.000          42.000  
 112818977.555 7  87910955.933 7  21468740.514    21468754.217       -1793.949  
     -1397.965          45.000          46.000  
 109499373.645 7  85324244.950 7  20837039.167    20837053.655       -1820.891  
     -1418.586          44.000          42.000  
 107501229.086 7  83767259.428 7  20456805.330    20456821.694          76.164  
        59.410          43.000          44.000  
 115483594.336 7  89987303.205 7  21975797.220    21975815.873        2884.445  
      2247.574          44.000          43.000  
 126704044.791 7  98730500.080 6  24110981.924    24110999.324       -3362.453  
     -2619.820          43.000          40.000  
 24  1 10  3 19 18.7000000  0  7G08G24G18G23G10G32G15
 128904093.466 6 100444830.370 6  24529645.759    24529667.556        2806.922  
      2187.262          38.000          40.000  
 128022838.450 6  99758148.045 7  24361934.701    24361958.164         290.051  
       225.680          39.000          43.000  
 112819156.973 7  87911095.711 7  21468774.656    21468788.352       -1794.051  
     -1397.883          45.000          46.000  
 109499555.735 7  85324386.812 7  20837073.818    20837088.300       -1820.758  
     -1418.199          44.000          42.000  
 107501221.433 7  83767253.442 7  20456803.874    20456820.232          76.145  
        59.531          42.000          44.000  
 115483305.914 7  89987078.477 7  21975742.336    21975760.992        2884.531  
      2247.578          44.000          43.000  
 126704381.082 7  98730762.126 6  24111045.918    24111063.318       -3362.644  
     -2620.387          43.000          39.000  
 24  1 10  3 19 18.8000000  0  7G08G24G18G23G10G32G15
 128903812.708 6 100444611.593 6  24529592.677    24529613.714        2807.375  
      2187.805          38.000          40.000  
 128022809.505 6  99758125.438 7  24361928.927    24361953.229         289.855  
       226.031          39.000          43.000  
 112819336.357 7  87911235.476 7  21468809.316    21468822.461       -1794.098  
     -1397.926          45.000          45.000  
 109499737.753 7  85324528.701 7  20837108.260    20837122.724       -1820.461  
     -1419.059          44.000          42.000  
 107501213.740 7  83767247.487 7  20456802.277    20456818.723          76.723  
        59.754          42.000          44.000  
 115483017.436 7  89986853.666 7  21975687.573    21975705.903        2884.570  
      2247.742          44.000          43.000  
 126704717.283 7  98731024.076 6  24111109.700    24111127.203       -3362.516  
     -2620.043          42.000          40.000  
 24  1 10  3 19 18.9000000  0  7G08G24G18G23G10G32G15
 128903531.977 6 100444392.839 6  24529539.255    24529560.292        2807.297  
      2187.434          39.000          40.000  
 128022780.449 6  99758102.879 7  24361923.398    24361947.720         290.172  
       225.547          39.000          43.000  
 112819515.731 7  87911375.288 7  21468843.449    21468856.604       -1793.930  
     -1398.199          46.000          45.000  
 109499919.876 7  85324670.587 7  20837142.916    20837157.374       -1820.855  
     -1418.824          44.000          42.000  
 107501206.109 7  83767241.540 7  20456800.825    20456817.270          76.500  
        59.656          42.000          44.000  
 115482728.991 7  89986628.915 7  21975632.683    21975651.017        2884.488  
      2247.699          45.000          43.000  
 126705053.579 7  98731286.149 6  24111173.695    24111191.204       -3362.672  
     -2620.273          42.000          40.000  
 24  1 10  3 19 18.9000000  5  0
 24  1 10  3 19 18.9000000  5  0
 24  1 10  3 19 19.0000000  0  7G08G24G18G23G10G32G15
 128903251.261 6 100444174.105 6  24529485.891    24529506.664        2807.156  
      2187.207          38.000          40.000  
 128022751.573 6  99758080.332 7  24361918.364    24361942.292         289.430  
       225.562          39.000          43.000  
 112819695.167 7  87911515.079 7  21468877.540    21468890.930       -1794.254  
     -1398.117          45.000          45.000  
 109500101.987 7  85324812.478 7  20837178.095    20837192.244       -1821.117  
     -1419.020          44.000          43.000  
 107501198.495 7  83767235.567 7  20456799.118    20456815.351          76.227  
        59.449          42.000          44.000  
 115482440.563 7  89986404.171 7  21975577.563    21975596.648        2884.414  
      2247.438          45.000          43.000  
 126705389.865 7  98731548.236 6  24111237.360    24111255.560       -3362.707  
     -2620.680          43.000          39.000  
 24  1 10  3 19 19.1000000  0  7G08G24G18G23G10G32G15
 128902970.563 6 100443955.386 6  24529432.477    24529453.251        2807.172  
      2187.254          38.000          40.000  
 128022722.556 6  99758057.770 7  24361912.842    24361936.782         289.824  
       225.617          39.000          43.000  
 112819874.668 7  87911654.986 7  21468911.698    21468925.097       -1794.500  
     -1398.332          45.000          45.000  
 109500284.111 7  85324954.391 7  20837212.752    20837226.901       -1821.020  
     -1419.023          44.000          42.000  
 107501190.874 7  83767229.658 7  20456797.668    20456813.908          76.215  
        59.199          42.000          44.000  
 115482152.162 7  89986179.436 7  21975522.682    21975541.765        2884.105  
      2247.246          45.000          43.000  
 126705726.128 7  98731810.284 6  24111301.349    24111319.555       -3362.625  
     -2620.656          42.000          39.000  
 24  1 10  3 19 19.2000000  0  7G08G24G18G23G10G32G15
 128902689.834 6 100443736.634 6  24529378.813    24529400.048        2807.238  
      2187.203          38.000          40.000  
 128022693.657 6  99758035.204 7  24361907.601    24361931.107         289.340  
       225.578          39.000          43.000  
 112820054.165 7  87911794.816 7  21468945.285    21468958.706       -1794.770  
     -1398.617          44.000          45.000  
 109500466.199 7  85325096.274 7  20837247.355    20837261.643       -1821.129  
     -1419.242          44.000          42.000  
 107501183.289 7  83767223.714 7  20456796.225    20456811.948          75.984  
        59.301          42.000          44.000  
 115481863.760 7  89985954.714 7  21975467.934    21975486.972        2884.023  
      2247.273          45.000          43.000  
 126706062.463 7  98732072.316 6  24111365.351    24111383.155       -3362.918  
     -2620.215          42.000          39.000  
 24  1 10  3 19 19.3000000  0  7G08G24G18G23G10G32G15
 128902409.143 6 100443517.921 6  24529325.400    24529346.636        2806.961  
      2187.199          38.000          40.000  
 128022664.703 6  99758012.682 7  24361902.091    24361925.607         289.449  
       225.074          39.000          43.000  
 112820233.595 7  87911934.710 7  21468979.429    21468992.869       -1794.406  
     -1398.758          43.000          45.000  
 109500648.356 7  85325238.272 7  20837282.018    20837296.321       -1821.211  
     -1419.484          44.000          42.000  
 107501175.704 7  83767217.821 7  20456794.781    20456810.509          75.773  
        58.832          42.000          44.000  
 115481575.383 7  89985730.009 7  21975413.058    21975432.096        2883.879  
      2247.012          45.000          43.000  
 126706398.811 7  98732334.358 6  24111429.356    24111447.149       -3363.445  
     -2620.891          42.000          39.000  
 24  1 10  3 19 19.4000000  0  7G08G24G18G23G10G32G15
 128902128.443 6 100443299.177 6  24529272.367    24529293.107        2806.926  
      2187.477          38.000          40.000  
 128022635.878 6  99757990.180 7  24361896.723    24361919.596         288.684  
       225.074          40.000          43.000  
 112820413.196 7  87912074.588 7  21469012.716    21469027.177       -1796.000  
     -1398.859          44.000          45.000  
 109500830.558 7  85325380.157 7  20837316.878    20837331.283       -1822.277  
     -1419.375          44.000          42.000  
 107501168.166 7  83767211.951 7  20456793.355    20456809.396          75.574  
        58.828          42.000          44.000  
 115481287.055 7  89985505.331 7  21975358.183    21975377.079        2883.383  
      2246.746          45.000          43.000  
 126706735.071 7  98732596.395 6  24111493.165    24111511.156       -3362.808  
     -2620.574          43.000          39.000  
 24  1 10  3 19 19.5000000  0  7G08G24G18G23G10G32G15
 128901847.739 6 100443080.449 6  24529218.951    24529239.692        2807.148  
      2187.207          38.000          40.000  
 128022606.989 6  99757967.666 7  24361891.226    24361914.098         288.719  
       225.031          39.000          43.000  
 112820592.673 7  87912214.458 7  21469046.869    21469061.335       -1795.078  
     -1399.074          44.000          45.000  
 109501012.725 7  85325522.168 7  20837351.543    20837365.963       -1821.629  
     -1419.961          44.000          42.000  
 107501160.636 7  83767206.073 7  20456791.922    20456807.960          75.215  
        58.840          42.000          44.000  
 115480998.702 7  89985280.651 7  21975303.311    21975322.210        2883.508  
      2246.746          45.000          44.000  
 126707071.477 7  98732858.510 6  24111557.180    24111575.168       -3363.453  
     -2620.441          43.000          39.000  
 24  1 10  3 19 19.6000000  0  7G08G24G18G23G10G32G15
 128901567.029 6 100442861.715 6  24529165.229    24529186.103        2807.105  
      2187.336          39.000          40.000  
 128022578.093 6  99757945.141 7  24361885.727    24361908.074         288.848  
       225.078          39.000          42.000  
 112820772.193 7  87912354.412 7  21469081.851    21469095.623       -1794.965  
     -1398.981          45.000          45.000  
 109501194.899 7  85325664.125 7  20837385.983    20837400.545       -1821.637  
     -1419.379          44.000          43.000  
 107501153.071 7  83767200.186 7  20456790.100    20456806.468          75.551  
        58.859          42.000          44.000  
 115480710.358 7  89985055.960 7  21975248.511    21975267.369        2883.551  
      2246.969          45.000          43.000  
 126707407.739 7  98733120.534 6  24111621.435    24111639.219       -3363.226  
     -2621.109          42.000          39.000  
 24  1 10  3 19 19.7000000  0  7G08G24G18G23G10G32G15
 128901286.355 6 100442643.008 6  24529111.818    24529132.692        2806.922  
      2187.164          39.000          40.000  
 128022549.260 6  99757922.669 7  24361880.240    24361902.586         288.590  
       224.867          40.000          42.000  
 112820951.823 7  87912494.325 7  21469116.033    21469129.791       -1795.848  
     -1399.356          45.000          46.000  
 109501377.156 7  85325806.134 7  20837420.665    20837435.225       -1822.184  
     -1420.164          43.000          43.000  
 107501145.587 7  83767194.362 7  20456788.675    20456805.046          75.156  
        58.336          42.000          44.000  
 115480422.082 7  89984831.323 7  21975193.654    21975212.511        2883.133  
      2246.414          44.000          43.000  
 126707744.089 6  98733382.715 6  24111685.440    24111703.246       -3363.121  
     -2621.066          41.000          40.000  
 24  1 10  3 19 19.8000000  0  7G08G24G18G23G10G32G15
 128901005.656 6 100442424.273 6  24529058.481    24529079.658        2806.977  
      2187.359          39.000          40.000  
 128022520.397 6  99757900.145 7  24361874.951    24361897.132         288.582  
       225.203          39.000          42.000  
 112821131.470 7  87912634.254 7  21469150.172    21469164.525       -1796.344  
     -1399.484          44.000          46.000  
 109501559.376 7  85325948.115 7  20837455.176    20837469.375       -1822.285  
     -1419.941          44.000          43.000  
 107501138.109 7  83767188.506 7  20456786.924    20456803.428          74.875  
        58.273          42.000          44.000  
 115480133.786 7  89984606.704 7  21975138.684    21975157.836        2882.918  
      2246.074          44.000          43.000  
 126708080.427 6  98733644.782 6  24111748.826    24111766.722       -3363.394  
     -2620.949          41.000          40.000  
 24  1 10  3 19 19.9000000  0  7G08G24G18G23G10G32G15
 128900724.979 6 100442205.568 6  24529005.070    24529026.248        2806.918  
      2186.949          39.000          40.000  
 128022491.565 6  99757877.749 7  24361869.465    24361891.663         288.457  
       224.258          39.000          42.000  
 112821311.022 7  87912774.166 7  21469184.340    21469198.693       -1795.867  
     -1399.344          44.000          46.000  
 109501741.602 7  85326090.115 7  20837489.853    20837504.053       -1822.199  
     -1420.090          44.000          43.000  
 107501130.612 7  83767182.680 7  20456785.497    20456802.006          74.992  
        58.391          42.000          44.000  
 115479845.497 7  89984382.050 7  21975083.824    21975102.973        2882.855  
      2246.438          44.000          44.000  
 126708416.763 6  98733906.856 6  24111812.828    24111830.723       -3363.371  
     -2620.809          41.000          40.000  
 24  1 10  3 19 20.0000000  0  7G08G24G18G23G10G32G15
 128900444.265 6 100441986.824 6  24528952.043    24528972.797        2807.035  
      2187.406          39.000          40.000  
 128022462.712 6  99757855.238 7  24361863.544    24361886.072         288.535  
       225.195          39.000          42.000  
 112821490.622 7  87912914.146 7  21469218.407    21469232.558       -1795.695  
     -1399.137          44.000          46.000  
 109501923.810 7  85326232.113 7  20837524.784    20837538.511       -1822.047  
     -1419.391          44.000          43.000  
 107501123.079 7  83767176.819 7  20456784.306    20456800.551          75.266  
        58.629          42.000          44.000  
 115479557.192 7  89984157.404 7  21975028.813    21975048.339        2883.039  
      2246.539          44.000          44.000  
 126708753.121 7  98734168.947 6  24111876.679    24111894.127       -3363.391  
     -2620.641          42.000          40.000  
 24  1 10  3 19 20.1000000  0  7G08G24G18G23G10G32G15
 128900163.588 6 100441768.112 6  24528898.632    24528919.385        2806.895  
      2187.023          39.000          40.000  
 128022433.814 6  99757832.738 6  24361858.045    24361880.577         288.824  
       224.957          39.000          41.000  
 112821670.197 7  87913054.095 7  21469252.579    21469266.735       -1795.762  
     -1399.488          44.000          46.000  
 109502106.029 7  85326374.031 7  20837559.459    20837573.169       -1822.168  
     -1419.750          44.000          42.000  
 107501115.586 7  83767170.977 7  20456782.880    20456799.124          75.102  
        58.527          42.000          44.000  
 115479268.931 7  89983932.773 7  21974973.959    21974993.482        2882.801  
      2246.340          45.000          43.000  
 126709089.478 7  98734430.995 6  24111940.686    24111958.122       -3363.629  
     -2620.668          42.000          40.000  
 24  1 10  3 19 20.2000000  0  7G08G24G18G23G10G32G15
 128899882.894 6 100441549.401 6  24528845.108    24528866.052        2806.840  
      2187.258          39.000          41.000  
 128022404.954 6  99757810.263 6  24361852.647    24361874.580         288.508  
       224.617          39.000          41.000  
 112821849.825 7  87913194.066 7  21469286.956    21469300.933       -1796.039  
     -1399.598          44.000          46.000  
 109502288.256 7  85326516.058 7  20837593.800    20837607.822       -1822.301  
     -1420.215          44.000          43.000  
 107501108.136 7  83767165.188 7  20456782.080    20456797.734          74.746  
        57.961          43.000          44.000  
 115478980.677 7  89983708.165 7  21974919.122    21974938.318        2882.621  
      2245.914          45.000          44.000  
 126709425.795 7  98734693.095 6  24112005.286    24112022.309       -3363.312  
     -2620.902          43.000          40.000  
 24  1 10  3 19 20.3000000  0  7G08G24G18G23G10G32G15
 128899602.244 6 100441330.680 6  24528791.702    24528812.638        2806.727  
      2187.219          39.000          41.000  
 128022376.146 6  99757787.810 6  24361847.165    24361869.097         288.359  
       224.520          40.000          41.000  
 112822029.424 7  87913333.995 7  21469321.133    21469335.105       -1796.305  
     -1399.832          44.000          46.000  
 109502470.520 7  85326658.124 7  20837628.483    20837642.516       -1822.500  
     -1420.570          44.000          43.000  
 107501100.696 7  83767159.379 7  20456780.664    20456796.315          74.441  
        57.906          43.000          44.000  
 115478692.455 7  89983483.579 7  21974864.275    21974883.472        2882.449  
      2246.105          45.000          43.000  
 126709762.231 7  98734955.274 6  24112069.308    24112086.336       -3363.684  
     -2621.027          42.000          40.000  
 24  1 10  3 19 20.4000000  0  7G08G24G18G23G10G32G15
 128899321.562 6 100441112.013 6  24528738.360    24528759.347        2806.742  
      2186.777          39.000          41.000  
 128022347.308 6  99757765.375 6  24361842.162    24361863.564         288.445  
       224.453          40.000          41.000  
 112822209.023 7  87913473.980 7  21469354.934    21469368.728       -1795.961  
     -1399.465          44.000          46.000  
 109502652.775 7  85326800.102 7  20837663.736    20837677.525       -1822.551  
     -1419.969          44.000          43.000  
 107501093.240 7  83767153.556 7  20456779.300    20456795.378          74.453  
        58.113          43.000          44.000  
 115478404.193 7  89983258.964 7  21974809.389    21974828.712        2882.473  
      2246.027          45.000          43.000  
 126710098.492 7  98735217.226 6  24112133.343    24112150.612       -3363.402  
     -2620.441          42.000          40.000  
 24  1 10  3 19 20.5000000  0  7G08G24G18G23G10G32G15
 128899040.910 6 100440893.317 6  24528684.954    24528705.939        2806.609  
      2187.090          39.000          41.000  
 128022318.461 6  99757742.875 7  24361836.672    24361858.069         288.500  
       225.035          39.000          42.000  
 112822388.706 7  87913613.899 7  21469389.127    21469402.898       -1796.496  
     -1399.328          44.000          46.000  
 109502835.014 7  85326942.112 7  20837698.414    20837712.205       -1822.316  
     -1419.898          44.000          43.000  
 107501085.794 7  83767147.763 7  20456777.883    20456793.963          74.590  
        58.145          42.000          44.000  
 115478115.954 7  89983034.355 7  21974754.539    21974773.860        2882.512  
      2246.316          44.000          43.000  
 126710434.868 6  98735479.368 6  24112197.353    24112214.630       -3363.445  
     -2620.906          41.000          40.000  
 24  1 10  3 19 20.6000000  0  7G08G24G18G23G10G32G15
 128898760.226 6 100440674.618 6  24528631.315    24528652.335        2806.824  
      2187.023          39.000          41.000  
 128022289.549 6  99757720.390 7  24361831.069    24361853.312         288.766  
       224.848          39.000          42.000  
 112822568.198 7  87913753.820 7  21469422.955    21469437.708       -1795.492  
     -1399.555          44.000          46.000  
 109503017.238 7  85327084.076 7  20837733.137    20837747.202       -1822.348  
     -1419.969          44.000          43.000  
 107501078.310 7  83767141.927 7  20456776.107    20456792.788          74.660  
        58.195          43.000          44.000  
 115477827.690 7  89982809.727 7  21974699.708    21974719.043        2882.633  
      2246.207          45.000          43.000  
 126710771.179 6  98735741.429 6  24112260.882    24112279.151       -3363.332  
     -2620.715          41.000          40.000  
 24  1 10  3 19 20.7000000  0  7G08G24G18G23G10G32G15
 128898479.556 6 100440455.900 6  24528577.905    24528598.922        2806.734  
      2187.129          39.000          40.000  
 128022260.696 6  99757697.898 7  24361825.578    24361847.820         288.805  
       224.957          39.000          42.000  
 112822747.822 7  87913893.851 7  21469457.136    21469471.905       -1795.883  
     -1399.344          43.000          46.000  
 109503199.462 7  85327226.112 7  20837767.814    20837781.889       -1822.082  
     -1419.840          44.000          43.000  
 107501070.824 7  83767136.105 7  20456774.683    20456791.366          74.770  
        58.188          43.000          44.000  
 115477539.414 7  89982585.113 7  21974644.851    21974664.190        2882.703  
      2246.227          45.000          43.000  
 126711107.512 7  98736003.535 6  24112324.884    24112343.160       -3363.230  
     -2621.055          42.000          40.000  
 24  1 10  3 19 20.8000000  0  7G08G24G18G23G10G32G15
 128898198.922 6 100440237.214 6  24528524.510    24528545.766        2806.500  
      2186.824          39.000          40.000  
 128022231.892 6  99757675.385 7  24361820.011    24361842.900         288.391  
       225.043          39.000          43.000  
 112822927.428 7  87914033.702 7  21469490.713    21469506.207       -1796.164  
     -1399.406          43.000          46.000  
 109503381.680 7  85327368.064 7  20837801.965    20837817.172       -1822.418  
     -1420.109          44.000          43.000  
 107501063.403 7  83767130.339 7  20456773.849    20456789.825          74.590  
        58.109          43.000          44.000  
 115477251.166 7  89982360.494 7  21974590.101    21974609.515        2882.516  
      2246.012          45.000          43.000  
 126711443.848 7  98736265.638 6  24112388.934    24112407.278       -3363.262  
     -2620.973          42.000          41.000  
 24  1 10  3 19 20.9000000  0  7G08G24G18G23G10G32G15
 128897918.262 6 100440018.519 6  24528471.102    24528492.359        2806.547  
      2187.047          39.000          41.000  
 128022203.069 6  99757652.956 7  24361814.526    24361837.422         288.266  
       224.426          40.000          43.000  
 112823107.035 7  87914173.651 7  21469524.891    21469540.384       -1796.023  
     -1399.340          44.000          46.000  
 109503563.871 7  85327510.097 7  20837836.635    20837851.858       -1821.840  
     -1420.039          44.000          43.000  
 107501055.928 7  83767124.484 7  20456772.426    20456788.395          74.656  
        58.438          43.000          44.000  
 115476962.915 7  89982135.891 7  21974535.248    21974554.665        2882.691  
      2246.234          45.000          43.000  
 126711780.240 7  98736527.715 6  24112452.947    24112471.280       -3363.555  
     -2620.648          42.000          41.000  
 24  1 10  3 19 21.0000000  0  7G08G24G18G23G10G32G15
 128897637.612 6 100439799.837 6  24528417.579    24528439.244        2806.578  
      2186.691          39.000          41.000  
 128022174.269 6  99757630.517 7  24361808.812    24361831.856         288.285  
       224.395          40.000          43.000  
 112823286.582 7  87914313.637 7  21469559.745    21469574.359       -1795.613  
     -1399.844          44.000          46.000  
 109503746.132 7  85327652.078 7  20837871.341    20837886.516       -1822.328  
     -1419.828          44.000          43.000  
 107501048.464 7  83767118.675 7  20456770.561    20456787.305          74.637  
        57.969          43.000          44.000  
 115476674.620 7  89981911.232 7  21974480.716    21974499.629        2882.594  
      2246.219          45.000          43.000  
 126712116.582 7  98736789.779 6  24112517.498    24112535.684       -3363.516  
     -2620.828          42.000          41.000  
 24  1 10  3 19 21.1000000  0  7G08G24G18G23G10G32G15
 128897356.963 6 100439581.164 6  24528364.174    24528385.841        2806.457  
      2186.707          39.000          41.000  
 128022145.443 6  99757608.075 7  24361803.326    24361826.376         288.129  
       224.395          40.000          43.000  
 112823466.122 7  87914453.532 7  21469593.910    21469608.523       -1795.668  
     -1398.992          44.000          45.000  
 109503928.348 7  85327794.072 7  20837906.016    20837921.192       -1822.328  
     -1420.078          44.000          43.000  
 107501040.968 7  83767112.830 7  20456769.134    20456785.877          74.750  
        58.195          43.000          44.000  
 115476386.357 7  89981686.616 7  21974425.861    21974444.776        2882.691  
      2246.297          45.000          44.000  
 126712452.945 7  98737051.822 6  24112581.506    24112599.678       -3363.680  
     -2620.676          42.000          41.000  
 24  1 10  3 19 21.2000000  0  7G08G24G18G23G10G32G15
 128897076.315 6 100439362.444 6  24528310.604    24528332.006        2806.535  
      2187.039          39.000          41.000  
 128022116.606 6  99757585.601 7  24361797.886    24361821.309         288.320  
       224.887          39.000          43.000  
 112823645.746 7  87914593.457 7  21469627.842    21469642.670       -1795.828  
     -1399.086          43.000          45.000  
 109504110.529 7  85327936.024 7  20837940.395    20837955.460       -1821.875  
     -1419.359          44.000          43.000  
 107501033.454 7  83767106.977 7  20456767.751    20456784.456          75.023  
        58.625          43.000          44.000  
 115476098.064 7  89981461.975 7  21974371.094    21974390.182        2882.910  
      2246.500          45.000          44.000  
 126712789.307 7  98737313.999 6  24112645.740    24112663.712       -3363.406  
     -2621.141          42.000          41.000  
 24  1 10  3 19 21.3000000  0  7G08G24G18G23G10G32G15
 128896795.676 6 100439143.794 6  24528257.200    24528278.609        2806.504  
      2186.684          39.000          40.000  
 128022087.823 6  99757563.136 7  24361792.408    24361815.823         288.191  
       224.449          39.000          43.000  
 112823825.290 7  87914733.385 7  21469662.008    21469676.842       -1795.746  
     -1399.648          43.000          45.000  
 109504292.739 7  85328077.985 7  20837975.068    20837990.128       -1822.129  
     -1419.609          44.000          42.000  
 107501025.967 7  83767101.143 7  20456766.326    20456783.031          74.949  
        58.359          43.000          44.000  
 115475809.763 7  89981237.334 7  21974316.233    21974335.322        2882.984  
      2246.625          45.000          44.000  
 126713125.664 6  98737576.039 6  24112709.746    24112727.705       -3363.680  
     -2620.949          41.000          41.000  
 24  1 10  3 19 21.4000000  0  7G08G24G18G23G10G32G15
 128896515.041 6 100438925.090 6  24528203.703    24528225.215        2806.391  
      2186.742          39.000          41.000  
 128022058.987 6  99757540.707 7  24361786.898    24361809.971         288.137  
       224.332          40.000          43.000  
 112824004.935 7  87914873.374 7  21469696.146    21469711.232       -1796.102  
     -1399.668          44.000          46.000  
 109504474.995 7  85328220.020 7  20838009.821    20838024.252       -1822.207  
     -1420.441          44.000          42.000  
 107501018.532 7  83767095.365 7  20456764.802    20456781.589          74.633  
        57.949          43.000          44.000  
 115475521.493 7  89981012.686 7  21974260.986    21974280.664        2882.848  
      2246.195          45.000          44.000  
 126713462.029 6  98737838.200 6  24112773.520    24112791.806       -3363.484  
     -2621.188          41.000          41.000  
 24  1 10  3 19 21.5000000  0  7G08G24G18G23G10G32G15
 128896234.477 6 100438706.489 6  24528150.314    24528171.831        2805.941  
      2186.316          39.000          41.000  
 128022030.297 6  99757518.357 7  24361781.438    24361804.513         287.621  
       223.953          41.000          42.000  
 112824184.566 7  87915013.379 7  21469730.329    21469745.423       -1796.203  
     -1399.770          44.000          46.000  
 109504657.277 7  85328362.105 7  20838044.508    20838058.950       -1822.668  
     -1420.703          44.000          43.000  
 107501011.141 7  83767089.574 7  20456763.396    20456780.174          74.145  
        57.660          43.000          44.000  
 115475233.242 7  89980788.099 7  21974206.134    21974225.817        2882.633  
      2246.059          45.000          43.000  
 126713798.443 7  98738100.372 6  24112837.538    24112855.831       -3363.828  
     -2621.527          42.000          41.000  
 24  1 10  3 19 21.6000000  0  7G08G24G18G23G10G32G15
 128895953.879 6 100438487.784 6  24528097.012    24528118.585        2805.941  
      2186.801          39.000          41.000  
 128022001.509 6  99757495.899 7  24361776.429    24361797.872         287.594  
       224.012          40.000          42.000  
 112824364.291 7  87915153.400 7  21469764.607    21469779.578       -1796.773  
     -1400.145          44.000          46.000  
 109504839.637 7  85328504.163 7  20838079.108    20838093.502       -1823.152  
     -1420.566          44.000          43.000  
 107501003.750 7  83767083.826 7  20456762.083    20456778.755          73.965  
        57.586          43.000          44.000  
 115474945.011 7  89980563.488 7  21974151.207    21974170.676        2882.352  
      2245.891          45.000          43.000  
 126714134.867 7  98738362.482 6  24112901.385    24112919.872       -3364.141  
     -2621.375          42.000          40.000  
 24  1 10  3 19 21.7000000  0  7G08G24G18G23G10G32G15
 128895673.351 6 100438269.234 6  24528043.629    24528065.213        2805.637  
      2185.695          39.000          40.000  
 128021972.788 6  99757473.534 7  24361770.963    24361792.410         287.555  
       224.023          41.000          42.000  
 112824544.003 7  87915293.404 7  21469798.805    21469813.768       -1797.051  
     -1400.387          44.000          46.000  
 109505021.975 7  85328646.238 7  20838113.806    20838128.198       -1823.336  
     -1420.977          44.000          43.000  
 107500996.399 7  83767078.106 7  20456760.684    20456777.358          73.746  
        57.184          43.000          44.000  
 115474656.769 7  89980338.891 7  21974096.356    21974115.827        2882.352  
      2245.883          45.000          43.000  
 126714471.362 7  98738624.656 6  24112965.418    24112983.897       -3364.527  
     -2621.754          42.000          40.000  
 24  1 10  3 19 21.8000000  0  7G08G24G18G23G10G32G15
 128895392.808 6 100438050.606 6  24527990.087    24528011.735        2805.504  
      2186.082          39.000          41.000  
 128021944.103 6  99757451.134 7  24361765.653    24361786.940         287.191  
       223.941          40.000          42.000  
 112824723.717 7  87915433.468 7  21469833.152    21469848.146       -1797.062  
     -1400.520          44.000          46.000  
 109505204.392 7  85328788.374 7  20838148.862    20838162.956       -1823.762  
     -1421.328          44.000          43.000  
 107500989.103 7  83767072.433 7  20456759.351    20456775.277          73.344  
        56.891          42.000          44.000  
 115474368.579 7  89980114.349 7  21974041.625    21974060.992        2882.281  
      2245.824          45.000          43.000  
 126714807.843 7  98738886.849 6  24113029.401    24113047.599       -3364.699  
     -2621.883          42.000          40.000  
 24  1 10  3 19 21.9000000  0  7G08G24G18G23G10G32G15
 128895112.293 6 100437832.065 6  24527936.707    24527958.366        2805.289  
      2185.602          39.000          40.000  
 128021915.341 6  99757428.763 7  24361760.180    24361781.477         287.453  
       223.773          40.000          42.000  
 112824903.514 7  87915573.514 7  21469867.366    21469882.346       -1797.570  
     -1400.598          44.000          46.000  
 109505386.805 7  85328930.508 7  20838183.574    20838197.667       -1824.074  
     -1421.582          44.000          43.000  
 107500981.841 7  83767066.756 7  20456757.969    20456773.891          72.777  
        56.480          43.000          44.000  
 115474080.388 7  89979889.763 7  21973986.784    21974006.145        2882.004  
      2245.383          45.000          44.000  
 126715144.302 7  98739149.021 6  24113093.427    24113111.624       -3364.797  
     -2622.062          42.000          40.000  
 24  1 10  3 19 22.0000000  0  7G08G24G18G23G10G32G15
 128894831.822 6 100437613.473 6  24527883.397    24527904.866        2805.047  
      2185.945          39.000          40.000  
 128021886.659 6  99757406.421 7  24361754.667    24361776.427         287.051  
       223.254          40.000          42.000  
 112825083.213 7  87915713.619 7  21469901.828    21469916.819       -1797.137  
     -1400.789          43.000          46.000  
 109505569.235 7  85329072.711 7  20838218.071    20838232.191       -1824.145  
     -1421.777          44.000          43.000  
 107500974.586 7  83767061.117 7  20456756.080    20456772.694          72.781  
        56.535          43.000          44.000  
 115473792.210 7  89979665.216 7  21973932.258    21973951.348        2881.898  
      2245.703          45.000          43.000  
 126715480.778 7  98739411.257 6  24113157.917    24113175.657       -3364.754  
     -2622.141          43.000          40.000  
 24  1 10  3 19 22.1000000  0  7G08G24G18G23G10G32G15
 128894551.297 6 100437394.927 6  24527830.015    24527851.495        2805.082  
      2185.398          39.000          40.000  
 128021857.961 6  99757384.077 7  24361749.206    24361770.970         287.012  
       223.586          39.000          42.000  
 112825263.035 7  87915853.648 7  21469936.047    21469951.016       -1797.953  
     -1400.734          43.000          46.000  
 109505751.703 7  85329214.833 7  20838252.793    20838266.899       -1824.367  
     -1421.488          44.000          43.000  
 107500967.356 7  83767055.468 7  20456754.704    20456771.314          72.527  
        56.582          43.000          44.000  
 115473504.025 7  89979440.645 7  21973877.418    21973896.505        2881.902  
      2245.672          45.000          43.000  
 126715817.338 7  98739673.463 6  24113221.963    24113239.691       -3365.058  
     -2621.746          43.000          40.000  
 24  1 10  3 19 22.2000000  0  7G08G24G18G23G10G32G15
 128894270.855 6 100437176.392 6  24527776.829    24527797.696        2804.719  
      2185.293          39.000          41.000  
 128021829.288 6  99757361.710 7  24361743.680    24361765.016         286.863  
       223.289          39.000          42.000  
 112825442.784 7  87915993.749 7  21469970.010    21469984.925       -1797.539  
     -1400.906          43.000          46.000  
 109505934.175 7  85329357.039 7  20838287.368    20838301.853       -1824.609  
     -1422.121          44.000          43.000  
 107500960.153 7  83767049.869 7  20456753.849    20456769.931          72.320  
        56.070          43.000          44.000  
 115473215.873 7  89979216.115 7  21973822.780    21973841.641        2881.621  
      2245.152          45.000          43.000  
 126716153.837 7  98739935.689 6  24113286.012    24113303.229       -3364.922  
     -2622.352          43.000          40.000  
 24  1 10  3 19 22.3000000  0  7G08G24G18G23G10G32G15
 128893990.417 6 100436957.888 6  24527723.463    24527744.336        2804.617  
      2185.125          39.000          41.000  
 128021800.567 6  99757339.344 7  24361738.214    24361759.554         287.012  
       223.672          40.000          42.000  
 112825622.589 7  87916133.901 7  21470004.225    21470019.152       -1797.828  
     -1401.070          44.000          46.000  
 109506116.675 7  85329499.264 7  20838322.097    20838336.586       -1824.723  
     -1421.945          44.000          43.000  
 107500952.970 7  83767044.258 7  20456752.483    20456768.561          71.902  
        55.957          42.000          44.000  
 115472927.718 7  89978991.568 7  21973767.946    21973786.805        2881.488  
      2245.199          45.000          43.000  
 126716490.347 7  98740197.906 6  24113350.048    24113367.265       -3365.215  
     -2622.430          42.000          40.000  
 24  1 10  3 19 22.4000000  0  7G08G24G18G23G10G32G15
 128893709.959 6 100436739.322 6  24527669.930    24527691.061        2804.602  
      2185.395          39.000          40.000  
 128021771.891 6  99757316.991 7  24361732.726    24361754.236         286.883  
       223.637          40.000          42.000  
 112825802.388 7  87916273.962 7  21470038.190    21470053.356       -1797.980  
     -1400.953          43.000          46.000  
 109506299.151 7  85329641.433 7  20838357.493    20838371.539       -1824.812  
     -1421.809          44.000          43.000  
 107500945.767 7  83767038.666 7  20456751.315    20456767.390          72.062  
        56.055          42.000          44.000  
 115472639.580 7  89978767.063 7  21973713.209    21973731.861        2881.555  
      2245.266          45.000          43.000  
 126716826.895 7  98740460.137 6  24113414.169    24113431.102       -3365.152  
     -2621.848          42.000          40.000  
 24  1 10  3 19 22.5000000  0  7G08G24G18G23G10G32G15
 128893429.500 6 100436520.815 6  24527616.560    24527637.700        2804.570  
      2185.277          39.000          40.000  
 128021743.255 6  99757294.628 7  24361727.277    24361748.774         286.605  
       223.418          40.000          42.000  
 112825982.187 7  87916414.043 7  21470072.405    21470087.565       -1798.016  
     -1400.789          44.000          46.000  
 109506481.633 7  85329783.634 7  20838392.218    20838406.266       -1824.809  
     -1422.062          44.000          43.000  
 107500938.550 7  83767033.028 7  20456749.942    20456766.014          72.215  
        56.281          42.000          44.000  
 115472351.433 7  89978542.539 7  21973658.377    21973677.030        2881.535  
      2245.328          45.000          43.000  
 126717163.427 7  98740722.340 6  24113478.208    24113495.134       -3365.387  
     -2622.422          42.000          40.000  
 24  1 10  3 19 22.6000000  0  7G08G24G18G23G10G32G15
 128893149.021 6 100436302.232 6  24527563.273    24527584.288        2804.688  
      2185.691          39.000          40.000  
 128021714.566 6  99757272.327 7  24361721.716    24361743.758         286.816  
       223.285          39.000          42.000  
 112826161.978 7  87916554.168 7  21470106.516    21470122.035       -1797.684  
     -1400.672          44.000          46.000  
 109506664.048 7  85329925.777 7  20838426.852    20838440.300       -1824.375  
     -1421.543          44.000          43.000  
 107500931.311 7  83767027.381 7  20456748.244    20456764.494          72.207  
        56.379          42.000          44.000  
 115472063.272 7  89978317.990 7  21973603.057    21973622.271        2881.680  
      2245.586          45.000          43.000  
 126717499.899 7  98740984.547 6  24113541.925    24113559.011       -3364.957  
     -2621.918          42.000          39.000  
 24  1 10  3 19 22.7000000  0  7G08G24G18G23G10G32G15
 128892868.539 6 100436083.682 6  24527509.899    24527530.916        2804.762  
      2185.477          39.000          40.000  
 128021685.813 6  99757249.960 7  24361716.244    24361738.296         287.059  
       223.582          39.000          43.000  
 112826341.706 7  87916694.214 7  21470140.717    21470156.236       -1797.629  
     -1401.070          44.000          45.000  
 109506846.528 7  85330067.972 7  20838461.577    20838475.025       -1824.535  
     -1421.656          44.000          43.000  
 107500924.090 7  83767021.760 7  20456746.870    20456763.121          72.352  
        56.395          42.000          44.000  
 115471775.121 7  89978093.453 7  21973548.224    21973567.437        2881.582  
      2245.477          44.000          43.000  
 126717836.458 6  98741246.811 6  24113605.970    24113623.059       -3365.301  
     -2622.766          41.000          39.000  
 24  1 10  3 19 22.8000000  0  7G08G24G18G23G10G32G15
 128892588.103 6 100435865.158 6  24527456.737    24527477.620        2804.543  
      2185.309          39.000          40.000  
 128021657.247 6  99757227.668 7  24361710.308    24361733.500         286.465  
       222.953          39.000          43.000  
 112826521.556 7  87916834.395 7  21470175.348    21470189.665       -1798.062  
     -1401.184          44.000          45.000  
 109507028.988 7  85330210.135 7  20838495.782    20838510.212       -1824.711  
     -1422.039          44.000          43.000  
 107500916.893 7  83767016.165 7  20456745.734    20456761.888          72.098  
        55.945          42.000          44.000  
 115471487.012 7  89977868.961 7  21973493.172    21973512.309        2881.254  
      2244.977          44.000          43.000  
 126718172.959 7  98741509.065 6  24113669.847    24113686.776       -3364.945  
     -2622.215          42.000          39.000  
 24  1 10  3 19 22.9000000  0  7G08G24G18G23G10G32G15
 128892307.651 6 100435646.647 6  24527403.368    24527424.258        2804.605  
      2185.238          39.000          40.000  
 128021628.570 6  99757205.369 7  24361704.851    24361728.054         286.613  
       223.227          40.000          43.000  
 112826701.324 7  87916974.427 7  21470209.556    21470223.862       -1797.926  
     -1400.988          43.000          45.000  
 109507211.468 7  85330352.310 7  20838530.507    20838544.932       -1824.770  
     -1421.680          44.000          43.000  
 107500909.707 7  83767010.554 7  20456744.367    20456760.517          71.945  
        56.035          42.000          44.000  
 115471198.883 7  89977644.438 7  21973438.343    21973457.478        2881.199  
      2244.996          45.000          43.000  
 126718509.516 6  98741771.317 6  24113733.892    24113750.821       -3365.363  
     -2622.410          41.000          39.000  
 24  1 10  3 19 23.0000000  0  7G08G24G18G23G10G32G15
 128892027.165 6 100435428.081 6  24527349.845    24527371.288        2804.750  
      2185.695          39.000          40.000  
 128021599.956 6  99757183.016 7  24361699.344    24361723.174         286.461  
       223.461          40.000          43.000  
 112826881.158 7  87917114.544 7  21470242.895    21470257.916       -1798.215  
     -1400.969          43.000          46.000  
 109507393.912 7  85330494.463 7  20838565.366    20838579.725       -1824.621  
     -1421.875          44.000          43.000  
 107500902.460 7  83767004.905 7  20456742.824    20456759.060          72.297  
        56.348          42.000          44.000  
 115470910.754 7  89977419.926 7  21973383.943    21973402.697        2881.316  
      2245.062          45.000          43.000  
 126718846.023 6  98742033.466 6  24113797.919    24113814.801       -3365.414  
     -2622.047          41.000          39.000  
 24  1 10  3 19 23.1000000  0  7G08G24G18G23G10G32G15
 128891746.695 6 100435209.549 6  24527296.474    24527317.920        2804.566  
      2185.293          39.000          40.000  
 128021571.284 6  99757160.646 7  24361693.888    24361717.711         286.441  
       223.527          40.000          43.000  
 112827060.921 7  87917254.638 7  21470277.103    21470292.128       -1797.809  
     -1401.035          43.000          46.000  
 109507576.352 7  85330636.692 7  20838600.083    20838614.459       -1824.297  
     -1421.598          44.000          43.000  
 107500895.210 7  83766999.263 7  20456741.444    20456757.682          72.422  
        56.539          42.000          44.000  
 115470622.629 7  89977195.416 7  21973329.115    21973347.869        2881.348  
      2245.188          45.000          43.000  
 126719182.519 7  98742295.734 6  24113861.952    24113878.850       -3364.988  
     -2622.305          42.000          39.000  
 24  1 10  3 19 23.2000000  0  7G08G24G18G23G10G32G15
 128891466.222 6 100434990.961 6  24527242.914    24527264.289        2804.668  
      2185.613          38.000          40.000  
 128021542.677 6  99757138.314 7  24361688.686    24361712.077         286.371  
       223.336          39.000          43.000  
 112827240.679 7  87917394.747 7  21470311.661    21470326.665       -1797.605  
     -1400.930          43.000          46.000  
 109507758.773 7  85330778.784 7  20838634.664    20838649.292       -1824.387  
     -1421.371          44.000          43.000  
 107500887.976 7  83766993.612 7  20456740.068    20456756.458          72.246  
        56.359          42.000          44.000  
 115470334.497 7  89976970.894 7  21973273.762    21973292.836        2881.262  
      2244.988          45.000          43.000  
 126719519.058 7  98742557.962 6  24113926.158    24113942.982       -3365.203  
     -2622.168          42.000          39.000  
 24  1 10  3 19 23.3000000  0  7G08G24G18G23G10G32G15
 128891185.751 6 100434772.427 6  24527189.542    24527210.921        2804.738  
      2185.504          38.000          40.000  
 128021514.041 6  99757116.005 7  24361683.237    24361706.629         286.320  
       223.062          39.000          42.000  
 112827420.488 7  87917534.856 7  21470345.878    21470360.881       -1797.855  
     -1400.836          44.000          46.000  
 109507941.188 7  85330920.956 7  20838669.376    20838684.012       -1824.227  
     -1421.629          44.000          43.000  
 107500880.721 7  83766987.960 7  20456738.687    20456755.078          72.457  
        56.586          42.000          44.000  
 115470046.377 7  89976746.391 7  21973218.934    21973238.010        2881.227  
      2245.207          44.000          43.000  
 126719855.549 7  98742820.150 6  24113990.190    24114007.011       -3365.051  
     -2621.957          43.000          40.000  
 24  1 10  3 19 23.4000000  0  7G08G24G18G23G10G32G15
 128890905.282 6 100434553.866 6  24527136.358    24527157.741        2804.852  
      2185.605          39.000          40.000  
 128021485.404 6  99757093.760 7  24361677.881    24361700.212         286.398  
       222.551          39.000          43.000  
 112827600.261 7  87917674.893 7  21470380.736    21470394.993       -1797.969  
     -1400.750          44.000          46.000  
 109508123.605 7  85331063.084 7  20838704.269    20838718.667       -1824.207  
     -1421.395          44.000          43.000  
 107500873.430 7  83766982.297 7  20456737.354    20456753.820          72.688  
        56.691          42.000          44.000  
 115469758.244 7  89976521.867 7  21973164.183    21973183.796        2881.359  
      2245.316          44.000          43.000  
 126720192.033 7  98743082.410 6  24114054.885    24114071.558       -3364.891  
     -2622.324          43.000          40.000  
 24  1 10  3 19 23.5000000  0  7G08G24G18G23G10G32G15
 128890624.792 6 100434335.311 6  24527082.983    24527104.368        2804.816  
      2185.688          38.000          40.000  
 128021456.775 6  99757071.449 7  24361672.433    24361694.764         286.137  
       223.082          39.000          43.000  
 112827780.044 7  87917815.001 7  21470414.947    21470429.209       -1797.828  
     -1400.875          44.000          46.000  
 109508305.971 7  85331205.188 7  20838738.972    20838753.370       -1823.852  
     -1421.043          44.000          43.000  
 107500866.150 7  83766976.609 7  20456735.969    20456752.431          72.734  
        56.938          42.000          44.000  
 115469470.107 7  89976297.355 7  21973109.352    21973128.968        2881.375  
      2245.230          44.000          43.000  
 126720528.594 7  98743344.604 6  24114118.930    24114135.588       -3365.262  
     -2622.027          43.000          40.000  
 24  1 10  3 19 23.6000000  0  7G08G24G18G23G10G32G15
 128890344.318 6 100434116.737 6  24527029.376    24527051.115        2804.844  
      2185.637          38.000          40.000  
 128021428.179 6  99757049.084 7  24361666.710    24361689.451         286.262  
       223.488          39.000          42.000  
 112827959.692 7  87917955.020 7  21470448.860    21470463.684       -1797.055  
     -1400.324          43.000          46.000  
 109508488.340 7  85331347.296 7  20838773.847    20838787.644       -1823.762  
     -1420.879          44.000          43.000  
 107500858.826 7  83766970.922 7  20456734.591    20456751.308          73.090  
        56.973          42.000          44.000  
 115469181.940 7  89976072.801 7  21973054.523    21973074.090        2881.508  
      2245.324          44.000          43.000  
 126720865.034 7  98743606.746 6  24114183.328    24114200.231       -3364.879  
     -2621.664          43.000          40.000  
 24  1 10  3 19 23.7000000  0  7G08G24G18G23G10G32G15
 128890063.828 6 100433898.199 6  24526976.000    24526997.746        2804.777  
      2185.461          38.000          40.000  
 128021399.513 6  99757026.757 7  24361661.255    24361683.998         286.430  
       223.367          39.000          43.000  
 112828139.505 7  87918095.174 7  21470483.077    21470497.911       -1797.371  
     -1400.617          43.000          46.000  
 109508670.682 7  85331489.371 7  20838808.546    20838822.340       -1823.562  
     -1420.957          44.000          43.000  
 107500851.524 7  83766965.215 7  20456733.201    20456749.914          73.055  
        57.105          43.000          44.000  
 115468893.798 7  89975848.276 7  21972999.692    21973019.259        2881.484  
      2245.289          45.000          43.000  
 126721201.564 7  98743869.004 6  24114247.367    24114264.277       -3364.973  
     -2622.555          42.000          40.000  
 24  1 10  3 19 23.8000000  0  7G08G24G18G23G10G32G15
 128889783.353 6 100433679.631 6  24526921.995    24526944.463        2804.754  
      2185.609          38.000          40.000  
 128021370.852 6  99757004.473 7  24361655.801    24361678.462         286.527  
       222.805          40.000          43.000  
 112828319.270 7  87918235.174 7  21470517.309    21470532.038       -1797.812  
     -1400.578          44.000          46.000  
 109508853.049 7  85331631.499 7  20838843.249    20838856.807       -1823.457  
     -1421.020          44.000          42.000  
 107500844.202 7  83766959.504 7  20456731.745    20456748.246          73.199  
        57.000          43.000          44.000  
 115468605.633 7  89975623.734 7  21972944.918    21972964.455        2881.590  
      2245.500          45.000          43.000  
 126721538.060 6  98744131.208 6  24114310.978    24114328.263       -3365.086  
     -2622.020          41.000          40.000  
 24  1 10  3 19 23.9000000  0  7G08G24G18G23G10G32G15
 128889502.896 6 100433461.080 6  24526868.626    24526891.090        2804.691  
      2185.629          38.000          40.000  
 128021342.258 6  99756982.210 7  24361650.360    24361673.025         286.094  
       222.824          40.000          43.000  
 112828498.981 7  87918375.208 7  21470551.507    21470566.236       -1797.387  
     -1400.887          44.000          45.000  
 109509035.444 7  85331773.625 7  20838877.958    20838891.516       -1823.840  
     -1421.133          44.000          42.000  
 107500836.892 7  83766953.798 7  20456730.355    20456746.852          73.055  
        56.797          43.000          44.000  
 115468317.491 7  89975399.227 7  21972890.087    21972909.628        2881.488  
      2245.223          45.000          43.000  
 126721874.590 7  98744393.423 6  24114375.018    24114392.299       -3365.164  
     -2622.184          42.000          41.000  
 24  1 10  3 19 24.0000000  0  7G08G24G18G23G10G32G15
 128889222.420 6 100433242.557 6  24526815.089    24526837.295        2804.715  
      2185.242          38.000          40.000  
 128021313.682 6  99756959.893 7  24361645.164    24361667.982         286.043  
       222.992          39.000          43.000  
 112828678.782 7  87918515.352 7  21470585.979    21470600.640       -1797.633  
     -1400.711          44.000          46.000  
 109509217.832 7  85331915.696 7  20838912.274    20838926.641       -1823.887  
     -1421.133          43.000          42.000  
 107500829.599 7  83766948.135 7  20456728.998    20456745.477          72.949  
        56.793          43.000          44.000  
 115468029.350 7  89975174.688 7  21972835.224    21972854.590        2881.395  
      2245.258          45.000          43.000  
 126722211.092 7  98744655.666 6  24114438.794    24114456.458       -3365.066  
     -2622.355          42.000          41.000  
 24  1 10  3 19 24.1000000  0  7G08G24G18G23G10G32G15
 128888941.987 6 100433024.014 6  24526761.724    24526783.925        2804.477  
      2185.238          38.000          40.000  
 128021285.058 6  99756937.654 7  24361639.717    24361662.551         286.113  
       222.484          40.000          43.000  
 112828858.547 7  87918655.382 7  21470620.187    21470634.837       -1797.840  
     -1400.734          44.000          46.000  
 109509400.198 7  85332057.813 7  20838946.978    20838961.347       -1823.852  
     -1421.078          43.000          43.000  
 107500822.296 7  83766942.441 7  20456727.608    20456744.087          72.984  
        56.734          43.000          44.000  
 115467741.224 7  89974950.169 7  21972780.395    21972799.760        2881.363  
      2245.312          45.000          43.000  
 126722547.634 7  98744917.881 6  24114502.836    24114520.494       -3365.281  
     -2622.066          42.000          41.000  
 24  1 10  3 19 24.2000000  0  7G08G24G18G23G10G32G15
 128888661.573 6 100432805.525 6  24526708.340    24526730.622        2804.375  
      2185.031          38.000          40.000  
 128021256.505 6  99756915.384 7  24361634.097    24361656.589         285.832  
       222.922          40.000          43.000  
 112829038.334 7  87918795.464 7  21470654.759    21470669.461       -1797.680  
     -1400.820          45.000          46.000  
 109509582.616 7  85332200.008 7  20838981.144    20838996.346       -1823.906  
     -1421.492          43.000          43.000  
 107500815.056 7  83766936.816 7  20456726.230    20456742.705          72.805  
        56.578          43.000          44.000  
 115467453.083 7  89974725.648 7  21972725.595    21972744.844        2881.445  
      2245.250          45.000          43.000  
 126722884.165 7  98745180.172 6  24114566.782    24114584.829       -3365.356  
     -2622.895          42.000          41.000  
 24  1 10  3 19 24.3000000  0  7G08G24G18G23G10G32G15
 128888381.162 6 100432587.020 6  24526654.979    24526677.261        2804.152  
      2185.039          38.000          40.000  
 128021227.889 6  99756893.068 7  24361628.651    24361651.139         285.840  
       222.473          40.000          42.000  
 112829218.054 7  87918935.539 7  21470688.959    21470703.668       -1797.609  
     -1401.121          45.000          46.000  
 109509765.039 7  85332342.139 7  20839015.858    20839031.056       -1824.258  
     -1421.715          43.000          43.000  
 107500807.843 7  83766931.165 7  20456724.858    20456741.325          72.359  
        56.340          43.000          44.000  
 115467164.963 7  89974501.129 7  21972670.768    21972690.014        2881.297  
      2245.012          45.000          43.000  
 126723220.732 6  98745442.425 6  24114630.828    24114648.874       -3365.434  
     -2622.371          41.000          41.000  
 24  1 10  3 19 24.4000000  0  7G08G24G18G23G10G32G15
 128888100.781 6 100432368.548 6  24526601.742    24526624.212        2803.957  
      2184.750          38.000          40.000  
 128021199.351 6  99756870.870 7  24361622.885    24361645.554         285.867  
       222.758          40.000          42.000  
 112829397.889 7  87919075.743 7  21470723.602    21470737.892       -1797.742  
     -1401.383          44.000          46.000  
 109509947.491 7  85332484.291 7  20839050.139    20839065.857       -1824.258  
     -1421.500          43.000          43.000  
 107500800.601 7  83766925.535 7  20456723.308    20456739.708          72.402  
        56.215          43.000          44.000  
 115466876.816 7  89974276.616 7  21972615.849    21972635.514        2881.320  
      2245.160          45.000          43.000  
 126723557.260 7  98745704.588 6  24114695.000    24114713.342       -3365.558  
     -2622.246          42.000          41.000  
 24  1 10  3 19 24.5000000  0  7G08G24G18G23G10G32G15
 128887820.375 6 100432150.052 6  24526548.382    24526570.854        2804.062  
      2184.941          38.000          40.000  
 128021170.749 6  99756848.539 7  24361617.442    24361640.100         285.898  
       222.891          40.000          42.000  
 112829577.720 7  87919215.755 7  21470757.823    21470772.084       -1798.262  
     -1400.707          44.000          46.000  
 109510129.927 7  85332626.477 7  20839084.856    20839100.580       -1824.379  
     -1421.930          43.000          43.000  
 107500793.378 7  83766919.907 7  20456721.933    20456738.334          72.258  
        56.379          43.000          44.000  
 115466588.701 7  89974052.105 7  21972561.023    21972580.686        2881.316  
      2245.312          45.000          43.000  
 126723893.905 7  98745966.931 6  24114759.062    24114777.409       -3365.824  
     -2622.711          42.000          40.000  
 24  1 10  3 19 24.6000000  0  7G08G24G18G23G10G32G15
 128887540.008 6 100431931.608 6  24526494.944    24526517.484        2803.883  
      2184.434          38.000          40.000  
 128021142.187 6  99756826.311 7  24361612.280    24361634.758         285.672  
       222.289          40.000          42.000  
 112829757.529 7  87919355.892 7  21470791.141    21470806.034       -1798.004  
     -1401.125          43.000          46.000  
 109510312.383 7  85332768.647 7  20839119.764    20839135.339       -1824.430  
     -1421.379          43.000          43.000  
 107500786.146 7  83766914.269 7  20456720.745    20456736.949          72.355  
        56.293          43.000          44.000  
 115466300.573 7  89973827.592 7  21972506.280    21972525.998        2881.324  
      2245.281          45.000          43.000  
 126724230.429 7  98746229.162 6  24114823.178    24114841.464       -3365.859  
     -2623.137          42.000          41.000  
 24  1 10  3 19 24.7000000  0  7G08G24G18G23G10G32G15
 128887259.635 6 100431713.134 6  24526441.591    24526464.130        2803.785  
      2184.664          38.000          40.000  
 128021113.653 6  99756804.081 7  24361606.850    24361629.329         285.566  
       222.461          41.000          43.000  
 112829937.328 7  87919496.042 7  21470825.355    21470840.260       -1797.793  
     -1400.910          43.000          45.000  
 109510494.801 7  85332910.771 7  20839154.477    20839170.047       -1824.234  
     -1421.504          44.000          43.000  
 107500778.897 7  83766908.638 7  20456719.365    20456735.574          72.402  
        56.391          43.000          44.000  
 115466012.432 7  89973603.041 7  21972451.448    21972471.161        2881.379  
      2245.227          45.000          43.000  
 126724567.020 7  98746491.498 6  24114887.230    24114905.529       -3365.394  
     -2622.676          42.000          41.000  
 24  1 10  3 19 24.8000000  0  7G08G24G18G23G10G32G15
 128886979.277 6 100431494.667 6  24526388.389    24526410.872        2803.691  
      2184.770          39.000          40.000  
 128021085.099 6  99756781.844 7  24361601.448    24361624.414         285.453  
       222.289          40.000          43.000  
 112830117.103 7  87919636.101 7  21470858.894    21470874.175       -1797.793  
     -1400.953          42.000          45.000  
 109510677.230 7  85333052.931 7  20839189.473    20839204.287       -1824.301  
     -1421.430          43.000          43.000  
 107500771.669 7  83766903.003 7  20456718.006    20456733.924          72.414  
        56.395          42.000          44.000  
 115465724.294 7  89973378.549 7  21972396.485    21972416.431        2881.348  
      2245.164          45.000          43.000  
 126724903.620 7  98746753.697 6  24114951.345    24114969.194       -3366.117  
     -2622.605          42.000          40.000  
 24  1 10  3 19 24.9000000  0  7G08G24G18G23G10G32G15
 128886698.929 6 100431276.214 6  24526335.041    24526357.524        2803.586  
      2184.605          39.000          40.000  
 128021056.558 6  99756759.612 7  24361596.017    24361618.985         285.535  
       222.418          40.000          43.000  
 112830296.881 7  87919776.133 7  21470893.104    21470908.372       -1798.242  
     -1401.254          43.000          45.000  
 109510859.667 7  85333195.089 7  20839224.189    20839239.004       -1824.301  
     -1421.891          43.000          43.000  
 107500764.433 7  83766897.349 7  20456716.628    20456732.544          72.332  
        56.414          42.000          44.000  
 115465436.188 7  89973154.057 7  21972341.660    21972361.608        2881.230  
      2244.992          45.000          43.000  
 126725240.217 7  98747016.035 6  24115015.397    24115033.260       -3365.824  
     -2623.043          42.000          40.000  
 24  1 10  3 19 25.0000000  0  7G08G24G18G23G10G32G15
 128886418.599 6 100431057.765 6  24526281.961    24526304.426        2803.508  
      2184.531          39.000          40.000  
 128021028.030 6  99756737.355 7  24361590.549    24361613.886         285.191  
       222.422          40.000          43.000  
 112830476.748 7  87919916.358 7  21470926.949    21470942.483       -1798.090  
     -1401.254          43.000          45.000  
 109511042.093 7  85333337.251 7  20839258.568    20839274.252       -1824.340  
     -1421.703          43.000          43.000  
 107500757.231 7  83766891.760 7  20456715.008    20456731.163          72.230  
        56.230          42.000          44.000  
 115465148.094 7  89972929.548 7  21972286.447    21972306.390        2881.035  
      2244.895          45.000          43.000  
 126725576.857 6  98747278.302 6  24115079.153    24115096.847       -3366.336  
     -2622.953          41.000          40.000  
 24  1 10  3 19 25.1000000  0  7G08G24G18G23G10G32G15
 128886138.235 6 100430839.304 6  24526228.610    24526251.076        2803.469  
      2184.527          39.000          40.000  
 128020999.578 6  99756715.177 7  24361585.135    24361608.469         285.051  
       221.949          40.000          43.000  
 112830656.581 7  87920056.442 7  21470961.170    21470976.693       -1798.496  
     -1401.266          43.000          45.000  
 109511224.541 7  85333479.428 7  20839293.287    20839308.973       -1824.477  
     -1421.676          44.000          43.000  
 107500749.989 7  83766886.082 7  20456713.630    20456729.777          72.152  
        56.348          42.000          44.000  
 115464859.961 7  89972705.026 7  21972231.617    21972251.559        2881.066  
      2245.023          45.000          43.000  
 126725913.393 6  98747540.564 6  24115143.194    24115160.894       -3365.781  
     -2622.949          41.000          40.000  
 24  1 10  3 19 25.2000000  0  7G08G24G18G23G10G32G15
 128885857.856 6 100430620.824 6  24526175.201    24526197.791        2803.711  
      2184.938          39.000          40.000  
 128020970.994 6  99756692.929 7  24361579.805    24361602.419         285.398  
       222.379          40.000          43.000  
 112830836.330 7  87920196.457 7  21470995.672    21471011.082       -1797.812  
     -1400.812          43.000          45.000  
 109511406.955 7  85333621.567 7  20839328.522    20839344.060       -1824.094  
     -1421.324          44.000          43.000  
 107500742.726 7  83766880.440 7  20456712.310    20456728.563          72.512  
        56.527          42.000          44.000  
 115464571.848 7  89972480.541 7  21972176.619    21972196.769        2881.180  
      2244.973          44.000          43.000  
 126726249.970 6  98747802.875 6  24115207.203    24115224.750       -3365.500  
     -2622.223          41.000          40.000  
 24  1 10  3 19 25.3000000  0  7G08G24G18G23G10G32G15
 128885577.447 6 100430402.312 6  24526121.841    24526144.428        2803.832  
      2184.797          39.000          40.000  
 128020942.477 6  99756670.688 7  24361574.378    24361596.988         285.312  
       222.582          40.000          43.000  
 112831016.172 7  87920336.658 7  21471029.895    21471045.320       -1797.867  
     -1401.004          43.000          45.000  
 109511589.365 7  85333763.718 7  20839363.234    20839378.775       -1824.156  
     -1421.258          44.000          43.000  
 107500735.480 7  83766874.810 7  20456710.932    20456727.188          72.535  
        56.625          42.000          44.000  
 115464283.756 7  89972256.039 7  21972121.797    21972141.943        2881.051  
      2244.980          44.000          43.000  
 126726586.589 6  98748065.102 6  24115271.260    24115288.788       -3366.039  
     -2622.777          40.000          40.000  
 24  1 10  3 19 25.4000000  0  7G08G24G18G23G10G32G15
 128885297.103 6 100430183.869 6  24526068.696    24526091.223        2803.703  
      2184.699          39.000          40.000  
 128020913.935 6  99756648.439 7  24361568.806    24361591.007         285.383  
       222.492          40.000          43.000  
 112831195.882 7  87920476.726 7  21471064.257    21471079.581       -1797.598  
     -1400.840          43.000          45.000  
 109511771.743 7  85333905.793 7  20839398.275    20839413.127       -1823.992  
     -1421.246          44.000          43.000  
 107500728.186 7  83766869.099 7  20456709.348    20456725.754          72.559  
        56.668          42.000          44.000  
 115463995.637 7  89972031.539 7  21972067.337    21972087.103        2881.184  
      2245.031          44.000          43.000  
 126726923.152 6  98748327.357 6  24115335.008    24115352.701       -3365.867  
     -2622.766          41.000          39.000  
 24  1 10  3 19 25.5000000  0  7G08G24G18G23G10G32G15
 128885016.727 6 100429965.371 6  24526015.342    24526037.863        2803.715  
      2184.930          39.000          40.000  
 128020885.379 6  99756626.223 7  24361563.372    24361585.582         285.422  
       222.234          40.000          43.000  
 112831375.655 7  87920616.818 7  21471098.466    21471113.793       -1797.559  
     -1400.770          42.000          45.000  
 109511954.087 7  85334047.851 7  20839432.974    20839447.819       -1823.766  
     -1420.781          44.000          42.000  
 107500720.894 7  83766863.443 7  20456707.961    20456724.373          72.895  
        56.707          42.000          44.000  
 115463707.496 7  89971807.024 7  21972012.506    21972032.274        2881.312  
      2245.285          44.000          43.000  
 126727259.709 6  98748589.615 6  24115399.053    24115416.747       -3365.574  
     -2622.488          41.000          39.000  
 24  1 10  3 19 25.6000000  0  7G08G24G18G23G10G32G15
 128884736.341 6 100429746.905 6  24525962.463    24525984.379        2803.816  
      2184.574          39.000          41.000  
 128020856.871 6  99756603.980 7  24361557.994    24361580.244         285.293  
       222.312          40.000          43.000  
 112831555.426 7  87920756.832 7  21471132.504    21471148.353       -1797.754  
     -1400.621          43.000          45.000  
 109512136.423 7  85334189.982 7  20839467.515    20839482.646       -1823.375  
     -1420.957          43.000          43.000  
 107500713.603 7  83766857.725 7  20456706.268    20456722.898          72.945  
        56.996          42.000          44.000  
 115463419.360 7  89971582.498 7  21971958.097    21971977.676        2881.289  
      2245.016          44.000          43.000  
 126727596.297 6  98748851.822 6  24115463.080    24115480.733       -3365.805  
     -2622.211          41.000          39.000  
 24  1 10  3 19 25.7000000  0  7G08G24G18G23G10G32G15
 128884455.962 6 100429528.416 6  24525909.109    24525931.022        2803.812  
      2184.758          39.000          40.000  
 128020828.323 6  99756581.753 7  24361552.562    24361574.816         285.281  
       222.254          40.000          43.000  
 112831735.196 7  87920896.894 7  21471166.713    21471182.557       -1797.902  
     -1400.488          44.000          45.000  
 109512318.792 7  85334332.096 7  20839502.219    20839517.352       -1823.602  
     -1421.043          43.000          43.000  
 107500706.258 7  83766852.023 7  20456704.871    20456721.506          73.086  
        56.863          43.000          44.000  
 115463131.215 7  89971357.973 7  21971903.265    21971922.845        2881.387  
      2245.395          44.000          43.000  
 126727932.789 6  98749114.105 6  24115527.113    24115544.786       -3365.289  
     -2622.914          41.000          39.000  
 24  1 10  3 19 25.8000000  0  7G08G24G18G23G10G32G15
 128884175.562 6 100429309.940 6  24525855.649    24525877.355        2803.836  
      2184.695          39.000          40.000  
 128020799.771 6  99756559.487 7  24361547.332    24361569.691         285.516  
       222.648          41.000          43.000  
 112831914.923 7  87921036.989 7  21471201.507    21471216.856       -1797.258  
     -1400.652          43.000          45.000  
 109512501.146 7  85334474.142 7  20839537.013    20839551.908       -1823.566  
     -1420.492          44.000          42.000  
 107500698.985 7  83766846.345 7  20456703.666    20456720.205          72.969  
        57.086          43.000          44.000  
 115462843.108 7  89971133.473 7  21971848.479    21971867.864        2881.234  
      2244.988          44.000          43.000  
 126728269.332 7  98749376.337 6  24115590.647    24115608.755       -3365.328  
     -2622.188          42.000          39.000  
 24  1 10  3 19 25.9000000  0  7G08G24G18G23G10G32G15
 128883895.248 6 100429091.508 6  24525802.307    24525824.012        2803.566  
      2184.539          38.000          40.000  
 128020771.217 6  99756537.220 7  24361541.898    24361564.253         285.531  
       222.578          41.000          43.000  
 112832094.685 7  87921177.048 7  21471235.715    21471251.060       -1797.547  
     -1400.750          43.000          45.000  
 109512683.498 7  85334616.203 7  20839571.714    20839586.601       -1823.605  
     -1420.891          44.000          42.000  
 107500691.711 7  83766840.683 7  20456702.282    20456718.822          72.867  
        56.762          43.000          44.000  
 115462555.003 7  89970908.966 7  21971793.654    21971813.037        2881.090  
      2245.102          45.000          43.000  
 126728605.868 6  98749638.590 6  24115654.687    24115672.800       -3365.344  
     -2622.430          41.000          39.000  
 24  1 10  3 19 26.0000000  0  7G08G24G18G23G10G32G15
 128883614.872 6 100428873.037 6  24525748.930    24525770.534        2803.641  
      2184.621          38.000          41.000  
 128020742.700 7  99756515.001 7  24361536.917    24361558.842         285.332  
       222.410          42.000          43.000  
 112832274.415 7  87921317.111 7  21471270.385    21471284.960       -1797.582  
     -1400.684          44.000          45.000  
 109512865.847 7  85334758.391 7  20839606.828    20839620.731       -1823.422  
     -1421.410          44.000          43.000  
 107500684.461 7  83766835.033 7  20456701.075    20456717.700          72.668  
        56.367          43.000          44.000  
 115462266.906 7  89970684.470 7  21971738.792    21971757.916        2881.047  
      2244.844          45.000          43.000  
 126728942.461 6  98749900.846 6  24115718.747    24115736.658       -3365.684  
     -2622.516          41.000          39.000  
 24  1 10  3 19 26.1000000  0  7G08G24G18G23G10G32G15
 128883334.521 6 100428654.603 6  24525695.581    24525717.190        2803.613  
      2184.414          38.000          41.000  
 128020714.129 6  99756492.730 7  24361531.480    24361553.404         285.539  
       222.609          41.000          43.000  
 112832454.196 7  87921457.208 7  21471304.596    21471319.173       -1797.707  
     -1401.070          43.000          45.000  
 109513048.260 7  85334900.477 7  20839641.540    20839655.430       -1823.918  
     -1421.074          44.000          43.000  
 107500677.216 7  83766829.413 7  20456699.696    20456716.328          72.500  
        56.379          43.000          44.000  
 115461978.827 7  89970460.020 7  21971683.973    21971703.103        2880.953  
      2244.547          45.000          43.000  
 126729278.968 6  98750163.082 6  24115782.782    24115800.699       -3365.344  
     -2622.477          41.000          39.000  
 24  1 10  3 19 26.2000000  0  7G08G24G18G23G10G32G15
 128883054.227 6 100428436.142 6  24525642.235    24525664.105        2803.160  
      2184.426          38.000          41.000  
 128020685.595 6  99756470.533 7  24361526.104    24361548.334         285.527  
       222.086          41.000          43.000  
 112832634.041 7  87921597.323 7  21471338.507    21471353.383       -1798.051  
     -1400.930          43.000          45.000  
 109513230.671 7  85335042.630 7  20839676.556    20839690.598       -1824.078  
     -1421.598          45.000          43.000  
 107500670.038 7  83766823.789 7  20456698.267    20456714.814          72.098  
        56.078          43.000          44.000  
 115461690.760 7  89970235.538 7  21971629.038    21971648.548        2880.797  
      2244.578          45.000          43.000  
 126729615.531 6  98750425.296 6  24115846.710    24115864.859       -3365.539  
     -2622.109          41.000          39.000  
 24  1 10  3 19 26.3000000  0  7G08G24G18G23G10G32G15
 128882773.919 6 100428217.748 6  24525588.894    24525610.771        2803.102  
      2184.078          38.000          41.000  
 128020657.068 6  99756448.333 7  24361520.676    24361542.913         285.352  
       221.965          41.000          43.000  
 112832813.783 7  87921737.369 7  21471372.711    21471387.583       -1797.750  
     -1401.047          43.000          45.000  
 109513413.129 7  85335184.816 7  20839711.277    20839725.322       -1824.188  
     -1421.606          44.000          42.000  
 107500662.837 7  83766818.179 7  20456696.897    20456713.444          71.957  
        56.012          43.000          44.000  
 115461402.712 7  89970011.086 7  21971574.224    21971593.734        2880.531  
      2244.672          45.000          43.000  
 126729952.106 6  98750687.564 6  24115910.759    24115928.908       -3365.652  
     -2622.637          41.000          39.000  
 24  1 10  3 19 26.4000000  0  7G08G24G18G23G10G32G15
 128882493.615 6 100427999.351 6  24525534.804    24525557.343        2803.055  
      2183.930          39.000          40.000  
 128020628.553 6  99756426.099 7  24361514.937    24361538.327         285.301  
       222.445          41.000          44.000  
 112832993.612 7  87921877.560 7  21471406.736    21471421.202       -1797.832  
     -1401.008          43.000          45.000  
 109513595.542 7  85335326.923 7  20839746.504    20839760.002       -1824.332  
     -1421.582          45.000          42.000  
 107500655.684 7  83766812.628 7  20456695.731    20456712.463          71.797  
        55.715          43.000          44.000  
 115461114.653 7  89969786.608 7  21971519.252    21971538.742        2880.535  
      2244.438          45.000          43.000  
 126730288.615 6  98750949.800 6  24115974.966    24115992.823       -3365.512  
     -2622.715          41.000          39.000  
 24  1 10  3 19 26.5000000  0  7G08G24G18G23G10G32G15
 128882213.315 6 100427780.929 6  24525481.465    24525504.002        2803.070  
      2184.223          39.000          41.000  
 128020600.016 6  99756403.865 7  24361509.507    24361532.897         285.305  
       222.176          40.000          44.000  
 112833173.451 7  87922017.640 7  21471440.958    21471455.411       -1798.207  
     -1401.191          43.000          45.000  
 109513778.005 7  85335469.139 7  20839781.226    20839794.733       -1824.254  
     -1421.590          44.000          42.000  
 107500648.514 7  83766807.023 7  20456694.367    20456711.094          71.727  
        55.910          43.000          44.000  
 115460826.601 7  89969562.164 7  21971464.438    21971483.931        2880.617  
      2244.562          45.000          43.000  
 126730625.200 6  98751212.113 6  24116039.016    24116056.883       -3365.387  
     -2622.484          41.000          39.000  
 24  1 10  3 19 26.6000000  0  7G08G24G18G23G10G32G15
 128881932.999 6 100427562.505 6  24525428.505    24525450.567        2803.066  
      2184.160          39.000          41.000  
 128020571.521 6  99756381.652 7  24361504.170    24361527.973         285.191  
       222.340          41.000          44.000  
 112833353.246 7  87922157.750 7  21471475.157    21471490.096       -1798.148  
     -1401.223          44.000          45.000  
 109513960.428 7  85335611.247 7  20839815.620    20839829.015       -1824.348  
     -1421.430          44.000          42.000  
 107500641.361 7  83766801.481 7  20456693.021    20456709.788          71.699  
        55.699          43.000          44.000  
 115460538.579 7  89969337.743 7  21971409.692    21971429.539        2880.539  
      2244.504          45.000          43.000  
 126730961.835 6  98751474.383 6  24116103.615    24116121.010       -3365.848  
     -2622.641          41.000          39.000  
 24  1 10  3 19 26.7000000  0  7G08G24G18G23G10G32G15
 128881652.727 6 100427344.114 6  24525375.171    24525397.234        2802.871  
      2183.805          39.000          41.000  
 128020543.000 6  99756359.434 7  24361498.743    24361522.547         285.172  
       222.172          40.000          44.000  
 112833533.078 7  87922297.872 7  21471509.377    21471524.316       -1798.324  
     -1401.562          44.000          45.000  
 109514142.904 7  85335753.449 7  20839850.344    20839863.742       -1824.543  
     -1422.027          44.000          42.000  
 107500634.227 7  83766795.882 7  20456691.664    20456708.421          71.488  
        55.699          43.000          44.000  
 115460250.542 7  89969113.276 7  21971354.880    21971374.722        2880.273  
      2244.402          45.000          43.000  
 126731298.404 6  98751736.626 6  24116167.661    24116185.053       -3366.031  
     -2622.785          41.000          39.000  
 24  1 10  3 19 26.8000000  0  7G08G24G18G23G10G32G15
 128881372.442 6 100427125.712 6  24525322.163    24525343.843        2802.844  
      2184.047          39.000          41.000  
 128020514.503 6  99756337.200 7  24361493.219    24361516.992         285.031  
       222.086          41.000          44.000  
 112833712.941 7  87922438.079 7  21471543.612    21471558.985       -1798.336  
     -1401.500          43.000          45.000  
 109514325.380 7  85335895.655 7  20839884.677    20839898.470       -1824.691  
     -1422.047          44.000          42.000  
 107500627.112 7  83766790.359 7  20456690.474    20456706.681          71.359  
        55.434          43.000          44.000  
 115459962.553 7  89968888.883 7  21971299.937    21971319.556        2880.156  
      2244.125          45.000          43.000  
 126731634.962 7  98751998.889 6  24116231.769    24116249.147       -3365.723  
     -2622.477          42.000          39.000  
 24  1 10  3 19 26.9000000  0  7G08G24G18G23G10G32G15
 128881092.125 6 100426907.290 6  24525268.820    24525290.502        2803.082  
      2183.953          39.000          41.000  
 128020486.085 6  99756315.023 7  24361487.811    24361511.576         284.609  
       222.062          41.000          43.000  
 112833892.927 7  87922578.252 7  21471577.862    21471593.217       -1799.301  
     -1401.570          43.000          45.000  
 109514507.920 7  85336037.885 7  20839919.413    20839933.204       -1824.992  
     -1422.074          44.000          42.000  
 107500620.048 7  83766784.855 7  20456689.129    20456705.337          70.941  
        55.090          43.000          44.000  
 115459674.586 7  89968664.497 7  21971245.139    21971264.758        2879.848  
      2243.844          45.000          43.000  
 126731971.543 7  98752261.184 6  24116295.818    24116313.202       -3365.707  
     -2622.766          42.000          39.000  
 24  1 10  3 19 27.0000000  0  7G08G24G18G23G10G32G15
 128880811.888 6 100426688.910 6  24525215.399    24525237.499        2802.652  
      2183.895          39.000          41.000  
 128020457.576 6  99756292.799 7  24361482.370    24361505.508         284.887  
       222.000          40.000          43.000  
 112834072.826 7  87922718.408 7  21471611.338    21471627.210       -1799.219  
     -1402.125          43.000          45.000  
 109514690.417 7  85336180.080 7  20839954.259    20839968.274       -1825.082  
     -1422.434          45.000          43.000  
 107500612.948 7  83766779.309 7  20456687.966    20456703.936          70.820  
        55.145          42.000          44.000  
 115459386.624 7  89968440.102 7  21971190.341    21971209.763        2879.566  
      2243.766          44.000          43.000  
 126732308.204 7  98752523.514 6  24116359.922    24116377.328       -3366.320  
     -2623.328          42.000          39.000  
 24  1 10  3 19 27.1000000  0  7G08G24G18G23G10G32G15
 128880531.612 6 100426470.501 6  24525162.064    24525184.162        2802.816  
      2184.145          39.000          40.000  
 128020429.104 6  99756270.646 7  24361476.952    24361500.098         284.797  
       221.559          40.000          43.000  
 112834252.701 7  87922858.606 7  21471645.567    21471661.448       -1798.934  
     -1402.086          43.000          45.000  
 109514872.937 7  85336322.332 7  20839988.991    20840003.013       -1825.020  
     -1422.199          45.000          43.000  
 107500605.882 7  83766773.824 7  20456686.621    20456702.596          70.867  
        55.109          42.000          44.000  
 115459098.680 7  89968215.734 7  21971135.547    21971154.971        2879.516  
      2243.562          45.000          43.000  
 126732644.795 7  98752785.821 6  24116423.973    24116441.386       -3366.012  
     -2622.848          42.000          39.000  
 24  1 10  3 19 27.2000000  0  7G08G24G18G23G10G32G15
 128880251.315 6 100426252.087 6  24525108.632    24525130.659        2802.895  
      2184.113          39.000          40.000  
 128020400.690 6  99756248.522 7  24361471.678    24361494.211         284.594  
       221.488          40.000          43.000  
 112834432.671 7  87922998.880 7  21471680.088    21471695.204       -1799.133  
     -1402.344          42.000          45.000  
 109515055.496 7  85336464.554 7  20840023.840    20840037.331       -1825.391  
     -1422.500          44.000          43.000  
 107500598.834 7  83766768.309 7  20456684.819    20456701.273          70.637  
        55.066          42.000          44.000  
 115458810.784 7  89967991.403 7  21971080.778    21971100.116        2879.262  
      2243.367          44.000          43.000  
 126732981.441 6  98753048.097 6  24116487.675    24116505.694       -3366.430  
     -2623.262          41.000          40.000  
 24  1 10  3 19 27.3000000  0  7G08G24G18G23G10G32G15
 128879971.004 6 100426033.678 6  24525055.290    24525077.321        2803.055  
      2184.254          39.000          40.000  
 128020372.244 6  99756226.344 7  24361466.265    24361488.795         284.359  
       221.480          40.000          43.000  
 112834612.627 7  87923139.122 7  21471714.332    21471729.453       -1799.270  
     -1402.070          42.000          45.000  
 109515238.022 7  85336606.807 7  20840058.574    20840072.071       -1825.266  
     -1422.523          44.000          42.000  
 107500591.763 7  83766762.803 7  20456683.474    20456699.928          70.676  
        55.012          42.000          44.000  
 115458522.854 7  89967767.037 7  21971025.987    21971045.324        2879.203  
      2243.555          45.000          43.000  
 126733318.034 7  98753310.357 6  24116551.727    24116569.741       -3366.051  
     -2622.723          42.000          40.000  
 24  1 10  3 19 27.4000000  0  7G08G24G18G23G10G32G15
 128879690.705 6 100425815.259 6  24525002.037    24525023.989        2802.961  
      2184.031          39.000          40.000  
 128020343.883 6  99756204.225 7  24361460.688    24361482.643         284.000  
       221.391          40.000          42.000  
 112834792.569 7  87923279.282 7  21471747.871    21471764.103       -1799.598  
     -1402.258          42.000          45.000  
 109515420.560 7  85336749.003 7  20840092.896    20840106.218       -1825.363  
     -1422.098          44.000          42.000  
 107500584.711 7  83766757.336 7  20456681.702    20456698.874          70.734  
        55.059          42.000          44.000  
 115458234.971 7  89967542.708 7  21970971.423    21970990.900        2879.148  
      2243.422          45.000          43.000  
 126733654.670 7  98753572.648 6  24116615.786    24116633.709       -3366.172  
     -2622.609          42.000          39.000  
 24  1 10  3 19 27.5000000  0  7G08G24G18G23G10G32G15
 128879410.420 6 100425596.859 6  24524948.701    24524970.653        2802.914  
      2183.930          39.000          40.000  
 128020315.455 6  99756182.088 7  24361455.279    24361477.237         284.203  
       221.090          41.000          42.000  
 112834972.497 7  87923419.573 7  21471782.110    21471798.364       -1799.207  
     -1402.387          42.000          45.000  
 109515603.138 7  85336891.293 7  20840127.639    20840140.967       -1825.508  
     -1422.594          44.000          42.000  
 107500577.659 7  83766751.806 7  20456680.360    20456697.524          70.426  
        54.926          42.000          44.000  
 115457947.107 7  89967318.423 7  21970916.645    21970936.127        2878.898  
      2243.102          45.000          43.000  
 126733991.252 7  98753834.909 6  24116679.836    24116697.756       -3365.871  
     -2623.062          42.000          39.000  
 24  1 10  3 19 27.6000000  0  7G08G24G18G23G10G32G15
 128879130.123 6 100425378.460 6  24524895.206    24524917.318        2803.004  
      2184.117          39.000          40.000  
 128020287.054 6  99756159.948 7  24361449.897    24361472.158         284.125  
       221.445          40.000          42.000  
 112835152.466 7  87923559.752 7  21471815.833    21471833.058       -1799.711  
     -1402.441          42.000          45.000  
 109515785.665 7  85337033.499 7  20840161.912    20840176.070       -1825.582  
     -1422.367          43.000          42.000  
 107500570.604 7  83766746.287 7  20456678.986    20456696.199          70.422  
        54.836          42.000          44.000  
 115457659.233 7  89967094.085 7  21970862.161    21970881.466        2878.660  
      2243.109          45.000          43.000  
 126734327.873 6  98754097.288 6  24116744.150    24116761.738       -3366.180  
     -2623.391          41.000          39.000  
 24  1 10  3 19 27.7000000  0  7G08G24G18G23G10G32G15
 128878849.839 6 100425160.024 6  24524841.869    24524863.974        2802.844  
      2184.137          39.000          40.000  
 128020258.606 6  99756137.814 7  24361444.484    24361466.753         284.199  
       221.387          40.000          42.000  
 112835332.462 7  87923700.006 7  21471850.086    21471867.309       -1799.832  
     -1402.309          43.000          45.000  
 109515968.204 7  85337175.762 7  20840196.648    20840210.812       -1825.219  
     -1422.262          44.000          42.000  
 107500563.537 7  83766740.829 7  20456677.642    20456694.867          70.602  
        54.953          42.000          44.000  
 115457371.354 7  89966869.765 7  21970807.379    21970826.685        2878.797  
      2243.211          45.000          43.000  
 126734664.505 6  98754359.568 6  24116808.209    24116825.789       -3366.262  
     -2622.969          41.000          39.000  
 24  1 10  3 19 27.8000000  0  7G08G24G18G23G10G32G15
 128878569.587 6 100424941.640 6  24524788.867    24524811.009        2802.688  
      2183.930          39.000          40.000  
 128020230.243 6  99756115.694 7  24361438.845    24361461.648         283.930  
       221.094          39.000          42.000  
 112835512.477 7  87923840.279 7  21471885.818    21471900.753       -1799.930  
     -1402.398          44.000          45.000  
 109516150.753 7  85337318.021 7  20840231.628    20840245.960       -1825.453  
     -1422.719          44.000          42.000  
 107500556.518 7  83766735.330 7  20456676.423    20456693.477          70.406  
        54.949          42.000          44.000  
 115457083.505 7  89966645.468 7  21970752.635    21970771.894        2878.578  
      2242.914          45.000          43.000  
 126735001.162 6  98754621.901 6  24116871.945    24116889.189       -3366.387  
     -2622.957          41.000          39.000  
 24  1 10  3 19 27.9000000  0  7G08G24G18G23G10G32G15
 128878289.294 6 100424723.235 6  24524735.529    24524757.673        2802.918  
      2184.008          39.000          41.000  
 128020201.907 6  99756093.532 7  24361433.452    24361456.236         283.656  
       221.562          40.000          42.000  
 112835692.457 7  87923980.452 7  21471920.067    21471934.984       -1799.988  
     -1402.312          44.000          45.000  
 109516333.254 7  85337460.240 7  20840266.357    20840280.691       -1825.227  
     -1422.117          44.000          42.000  
 107500549.429 7  83766729.821 7  20456675.074    20456692.131          70.629  
        54.930          42.000          44.000  
 115456795.633 7  89966421.174 7  21970697.855    21970717.119        2878.684  
      2243.125          45.000          43.000  
 126735337.723 6  98754884.145 6  24116935.990    24116953.232       -3366.125  
     -2622.672          41.000          39.000  
 24  1 10  3 19 28.0000000  0  7G08G24G18G23G10G32G15
 128878008.985 6 100424504.809 6  24524681.852    24524704.057        2802.898  
      2184.090          39.000          41.000  
 128020173.460 6  99756071.401 7  24361428.141    24361450.019         284.133  
       221.270          40.000          42.000  
 112835872.363 7  87924120.702 7  21471954.935    21471969.500       -1799.285  
     -1402.238          44.000          45.000  
 109516515.757 7  85337602.419 7  20840301.351    20840315.709       -1825.082  
     -1421.922          44.000          43.000  
 107500542.381 7  83766724.341 7  20456674.100    20456690.629          70.691  
        55.090          42.000          44.000  
 115456507.768 7  89966196.853 7  21970642.818    21970662.439        2878.742  
      2243.145          45.000          43.000  
 126735674.373 7  98755146.488 6  24116999.935    24117017.143       -3366.098  
     -2623.074          42.000          39.000  
 24  1 10  3 19 28.1000000  0  7G08G24G18G23G10G32G15
 128877728.715 6 100424286.444 6  24524628.519    24524650.730        2802.832  
      2183.770          39.000          41.000  
 128020145.034 6  99756049.303 7  24361422.731    24361444.622         284.230  
       221.125          40.000          43.000  
 112836052.340 7  87924260.988 7  21471989.183    21472003.760       -1799.500  
     -1402.191          44.000          45.000  
 109516698.276 7  85337744.651 7  20840336.084    20840350.444       -1825.254  
     -1422.316          44.000          43.000  
 107500535.304 7  83766718.802 7  20456672.753    20456689.277          70.586  
        55.078          42.000          44.000  
 115456219.902 7  89965972.551 7  21970588.039    21970607.662        2878.668  
      2243.047          45.000          43.000  
 126736010.950 7  98755408.765 6  24117063.984    24117081.193       -3365.976  
     -2622.590          42.000          39.000  
 24  1 10  3 19 28.2000000  0  7G08G24G18G23G10G32G15
 128877448.501 6 100424068.062 6  24524575.376    24524597.337        2802.133  
      2183.734          39.000          41.000  
 128020116.687 6  99756027.233 7  24361417.306    24361439.490         283.555  
       220.871          40.000          43.000  
 112836232.335 7  87924401.194 7  21472023.779    21472038.101       -1800.195  
     -1402.754          44.000          45.000  
 109516880.850 7  85337886.922 7  20840370.959    20840385.344       -1825.441  
     -1422.535          44.000          43.000  
 107500528.323 7  83766713.369 7  20456671.479    20456687.973          70.059  
        54.590          43.000          44.000  
 115455932.068 7  89965748.236 7  21970533.102    21970552.718        2878.422  
      2242.859          45.000          43.000  
 126736347.626 7  98755671.060 6  24117128.286    24117145.663       -3366.652  
     -2623.121          42.000          39.000  
 24  1 10  3 19 28.3000000  0  7G08G24G18G23G10G32G15
 128877168.298 6 100423849.755 6  24524522.055    24524544.024        2802.145  
      2183.270          39.000          41.000  
 128020088.300 6  99756005.067 7  24361411.904    24361434.077         283.656  
       221.387          40.000          43.000  
 112836412.361 7  87924541.504 7  21472058.037    21472072.366       -1800.129  
     -1402.754          43.000          45.000  
 109517063.491 7  85338029.194 7  20840405.715    20840420.088       -1826.414  
     -1423.293          44.000          42.000  
 107500521.358 7  83766707.954 7  20456670.154    20456686.651          69.621  
        54.207          43.000          44.000  
 115455644.272 7  89965523.986 7  21970478.336    21970497.954        2877.910  
      2242.508          45.000          43.000  
 126736684.290 7  98755933.405 6  24117192.351    24117209.730       -3366.938  
     -2623.641          42.000          39.000  
 24  1 10  3 19 28.4000000  0  7G08G24G18G23G10G32G15
 128876888.125 6 100423631.408 6  24524468.935    24524490.451        2802.031  
      2183.551          39.000          41.000  
 128020059.957 6  99755982.967 7  24361406.604    24361429.094         283.609  
       221.121          41.000          43.000  
 112836592.336 7  87924681.754 7  21472091.472    21472106.500       -1800.082  
     -1403.078          43.000          45.000  
 109517246.072 7  85338171.505 7  20840440.544    20840454.561       -1825.973  
     -1423.125          44.000          42.000  
 107500514.412 7  83766702.524 7  20456669.145    20456685.669          69.566  
        54.094          42.000          44.000  
 115455356.477 7  89965299.744 7  21970423.453    21970442.950        2878.051  
      2242.465          45.000          43.000  
 126737020.915 7  98756195.774 6  24117256.674    24117274.342       -3366.356  
     -2623.543          42.000          39.000  
 24  1 10  3 19 28.5000000  0  7G08G24G18G23G10G32G15
 128876607.868 6 100423413.051 6  24524415.604    24524437.126        2802.277  
      2183.438          39.000          41.000  
 128020031.534 6  99755960.841 7  24361401.196    24361423.691         283.980  
       221.191          40.000          43.000  
 112836772.494 7  87924822.140 7  21472125.755    21472140.783       -1800.648  
     -1402.750          43.000          45.000  
 109517428.688 7  85338313.827 7  20840475.295    20840489.317       -1826.055  
     -1422.949          44.000          42.000  
 107500507.509 7  83766697.167 7  20456667.831    20456684.360          69.312  
        53.688          42.000          44.000  
 115455068.677 7  89965075.495 7  21970368.687    21970388.186        2878.004  
      2242.480          45.000          43.000  
 126737357.546 7  98756458.048 6  24117320.733    24117338.392       -3366.398  
     -2622.855          43.000          39.000  
 24  1 10  3 19 28.6000000  0  7G08G24G18G23G10G32G15
 128876327.688 6 100423194.739 6  24524362.209    24524383.804        2801.988  
      2183.156          39.000          41.000  
 128020003.240 6  99755938.795 7  24361395.725    24361418.322         283.645  
       220.941          40.000          42.000  
 112836952.504 7  87924962.262 7  21472159.455    21472175.010       -1800.609  
     -1402.781          42.000          45.000  
 109517611.327 7  85338456.098 7  20840509.808    20840524.702       -1826.312  
     -1423.215          44.000          42.000  
 107500500.580 7  83766691.761 7  20456666.606    20456682.829          69.277  
        53.863          43.000          44.000  
 115454780.911 7  89964851.248 7  21970314.169    21970333.626        2877.832  
      2242.395          45.000          43.000  
 126737694.193 7  98756720.392 6  24117384.833    24117402.545       -3366.324  
     -2623.441          42.000          40.000  
 24  1 10  3 19 28.7000000  0  7G08G24G18G23G10G32G15
 128876047.537 6 100422976.399 6  24524308.898    24524330.484        2801.777  
      2183.406          39.000          41.000  
 128019974.895 6  99755916.613 7  24361390.331    24361412.905         283.348  
       221.000          40.000          42.000  
 112837132.535 7  87925102.703 7  21472193.714    21472209.307       -1800.164  
     -1403.168          42.000          45.000  
 109517794.001 7  85338598.480 7  20840544.570    20840559.473       -1826.512  
     -1423.227          44.000          42.000  
 107500493.697 7  83766686.392 7  20456665.297    20456681.518          68.977  
        53.707          42.000          44.000  
 115454493.151 7  89964627.018 7  21970259.410    21970278.866        2877.770  
      2242.402          45.000          43.000  
 126738030.827 7  98756982.688 6  24117448.893    24117466.601       -3366.344  
     -2622.957          42.000          39.000  
 24  1 10  3 19 28.8000000  0  7G08G24G18G23G10G32G15
 128875767.319 6 100422758.104 6  24524255.379    24524277.096        2802.008  
      2182.980          40.000          41.000  
 128019946.451 6  99755894.580 6  24361384.786    24361407.157         283.965  
       220.379          40.000          41.000  
 112837312.618 7  87925242.967 7  21472227.662    21472243.265       -1800.645  
     -1402.758          42.000          46.000  
 109517976.640 7  85338740.759 7  20840579.122    20840594.547       -1826.383  
     -1423.250          44.000          42.000  
 107500486.839 7  83766681.036 7  20456663.796    20456680.436          68.887  
        53.656          42.000          44.000  
 115454205.400 7  89964402.809 7  21970204.903    21970224.104        2877.625  
      2242.047          45.000          43.000  
 126738367.497 6  98757245.038 6  24117512.889    24117530.724       -3366.476  
     -2623.422          41.000          39.000  
 24  1 10  3 19 28.9000000  0  7G08G24G18G23G10G32G15
 128875487.220 6 100422539.800 6  24524202.078    24524223.783        2801.402  
      2182.949          39.000          41.000  
 128019918.132 6  99755872.539 6  24361379.397    24361401.775         283.430  
       220.637          40.000          41.000  
 112837492.725 7  87925383.314 7  21472261.936    21472277.539       -1800.957  
     -1403.816          43.000          46.000  
 109518159.363 7  85338883.166 7  20840613.893    20840629.324       -1826.996  
     -1423.906          44.000          42.000  
 107500480.066 7  83766675.759 7  20456662.507    20456679.148          68.172  
        52.910          42.000          44.000  
 115453917.723 7  89964178.632 7  21970150.160    21970169.358        2877.070  
      2241.641          45.000          43.000  
 126738704.196 6  98757507.363 6  24117576.960    24117594.786       -3366.875  
     -2623.457          41.000          39.000  
 24  1 10  3 19 29.0000000  0  7G08G24G18G23G10G32G15
 128875207.051 6 100422321.502 6  24524148.654    24524170.379        2801.672  
      2183.016          39.000          41.000  
 128019889.713 6  99755850.384 6  24361373.794    24361395.466         283.777  
       221.211          40.000          41.000  
 112837672.792 7  87925523.611 7  21472296.553    21472312.277       -1801.066  
     -1403.352          43.000          45.000  
 109518342.096 7  85339025.520 7  20840648.580    20840663.206       -1827.223  
     -1423.586          44.000          42.000  
 107500473.211 7  83766670.433 7  20456661.148    20456677.613          68.238  
        52.969          43.000          44.000  
 115453630.024 7  89963954.458 7  21970095.514    21970114.792        2877.008  
      2241.797          45.000          43.000  
 126739040.791 6  98757769.661 6  24117640.395    24117658.897       -3366.465  
     -2622.969          41.000          39.000  
 24  1 10  3 19 29.1000000  0  7G08G24G18G23G10G32G15
 128874926.823 6 100422103.165 6  24524095.329    24524117.059        2801.965  
      2183.285          39.000          41.000  
 128019861.382 6  99755828.274 6  24361368.403    24361390.066         283.949  
       221.586          40.000          41.000  
 112837852.907 7  87925663.956 7  21472330.828    21472346.551       -1800.820  
     -1402.902          43.000          45.000  
 109518524.703 7  85339167.844 7  20840683.329    20840697.963       -1826.523  
     -1423.059          44.000          43.000  
 107500466.345 7  83766665.097 7  20456659.842    20456676.310          68.547  
        53.543          43.000          44.000  
 115453342.289 7  89963730.255 7  21970040.760    21970060.040        2877.234  
      2242.004          44.000          43.000  
 126739377.420 6  98758031.955 6  24117704.453    24117722.952       -3366.344  
     -2622.785          40.000          39.000  
 24  1 10  3 19 29.2000000  0  7G08G24G18G23G10G32G15
 128874646.648 6 100421884.820 6  24524042.326    24524063.667        2801.824  
      2183.484          40.000          41.000  
 128019833.049 6  99755806.144 6  24361363.089    24361383.920         283.387  
       220.902          40.000          40.000  
 112838032.957 7  87925804.282 7  21472365.176    21472380.570       -1800.602  
     -1403.176          43.000          45.000  
 109518707.341 7  85339310.189 7  20840718.365    20840732.600       -1826.215  
     -1423.125          44.000          42.000  
 107500459.465 7  83766659.719 7  20456658.876    20456674.754          68.742  
        53.684          42.000          44.000  
 115453054.588 7  89963506.048 7  21969985.700    21970005.005        2877.043  
      2241.992          44.000          43.000  
 126739714.099 6  98758294.304 6  24117767.951    24117787.364       -3366.426  
     -2623.035          40.000          39.000  
 24  1 10  3 19 29.3000000  0  7G08G24G18G23G10G32G15
 128874366.443 6 100421666.510 6  24523989.004    24524010.353        2801.973  
      2183.258          40.000          41.000  
 128019804.637 6  99755784.042 6  24361357.682    24361378.522         283.734  
       221.152          39.000          40.000  
 112838212.931 7  87925944.517 7  21472399.424    21472414.817       -1800.211  
     -1402.656          44.000          45.000  
 109518889.947 7  85339452.446 7  20840753.114    20840767.341       -1826.305  
     -1422.731          44.000          42.000  
 107500452.562 7  83766654.358 7  20456657.563    20456673.445          69.059  
        53.855          42.000          44.000  
 115452766.844 7  89963281.841 7  21969930.944    21969950.251        2877.328  
      2241.996          44.000          43.000  
 126740050.663 6  98758556.559 6  24117831.997    24117851.409       -3366.226  
     -2623.016          40.000          39.000  
 24  1 10  3 19 29.4000000  0  7G08G24G18G23G10G32G15
 128874086.246 6 100421448.160 6  24523935.528    24523957.061        2801.957  
      2183.391          40.000          41.000  
 128019776.261 6  99755761.914 6  24361352.540    24361373.056         283.820  
       221.000          39.000          41.000  
 112838393.007 7  87926084.882 7  21472434.160    21472449.158       -1800.227  
     -1403.094          44.000          45.000  
 109519072.518 7  85339594.737 7  20840787.996    20840801.300       -1825.855  
     -1423.004          44.000          42.000  
 107500445.639 7  83766648.942 7  20456655.925    20456672.427          68.996  
        53.844          42.000          44.000  
 115452479.137 7  89963057.663 7  21969876.046    21969895.661        2877.195  
      2241.961          44.000          43.000  
 126740387.300 6  98758818.862 6  24117895.705    24117914.857       -3366.199  
     -2622.809          41.000          39.000  
 24  1 10  3 19 29.5000000  0  7G08G24G18G23G10G32G15
 128873805.978 6 100421229.751 6  24523882.195    24523903.723        2802.406  
      2183.926          40.000          41.000  
 128019747.915 6  99755739.902 6  24361347.146    24361367.680         283.609  
       220.391          39.000          41.000  
 112838573.018 7  87926225.127 7  21472468.415    21472483.407       -1800.391  
     -1402.859          44.000          45.000  
 109519255.079 7  85339736.991 7  20840822.736    20840836.040       -1825.855  
     -1422.465          44.000          42.000  
 107500438.641 7  83766643.506 7  20456654.593    20456671.099          69.547  
        54.410          43.000          44.000  
 115452191.383 7  89962833.436 7  21969821.289    21969840.902        2877.453  
      2242.387          44.000          43.000  
 126740723.876 7  98759081.107 6  24117959.754    24117978.900       -3365.938  
     -2622.789          42.000          39.000  
 24  1 10  3 19 29.6000000  0  7G08G24G18G23G10G32G15
 128873525.733 6 100421011.409 6  24523828.687    24523849.879        2802.281  
      2183.492          40.000          41.000  
 128019719.551 6  99755717.785 6  24361341.780    24361362.599         283.570  
       221.070          39.000          41.000  
 112838753.047 7  87926365.369 7  21472502.509    21472517.640       -1800.359  
     -1402.484          43.000          45.000  
 109519437.608 7  85339879.191 7  20840857.596    20840870.564       -1825.445  
     -1421.961          44.000          42.000  
 107500431.636 7  83766638.034 7  20456653.346    20456670.052          69.844  
        54.758          42.000          44.000  
 115451903.622 7  89962609.193 7  21969766.592    21969786.093        2877.598  
      2242.348          44.000          43.000  
 126741060.482 7  98759343.413 6  24118024.706    24118043.145       -3365.992  
     -2622.773          42.000          39.000  
 24  1 10  3 19 29.7000000  0  7G08G24G18G23G10G32G15
 128873245.501 6 100420793.017 6  24523775.360    24523796.545        2802.367  
      2183.832          40.000          41.000  
 128019691.234 6  99755695.700 6  24361336.392    24361357.206         283.387  
       220.793          40.000          41.000  
 112838933.048 7  87926505.626 7  21472536.762    21472551.892       -1800.227  
     -1402.816          42.000          45.000  
 109519620.125 7  85340021.410 7  20840892.327    20840905.295       -1825.375  
     -1422.359          44.000          42.000  
 107500424.638 7  83766632.613 7  20456652.015    20456668.728          70.074  
        54.598          43.000          44.000  
 115451615.819 7  89962384.971 7  21969711.825    21969731.335        2877.723  
      2242.215          45.000          44.000  
 126741397.104 7  98759605.745 6  24118088.763    24118107.209       -3366.125  
     -2623.059          42.000          39.000  
 24  1 10  3 19 29.8000000  0  7G08G24G18G23G10G32G15
 128872965.241 6 100420574.636 6  24523721.818    24523743.480        2802.480  
      2183.547          39.000          41.000  
 128019662.856 6  99755673.592 6  24361330.960    24361352.182         283.559  
       220.879          40.000          40.000  
 112839113.023 7  87926645.906 7  21472570.331    21472585.462       -1799.758  
     -1402.352          43.000          45.000  
 109519802.627 7  85340163.642 7  20840927.009    20840940.303       -1825.090  
     -1422.078          44.000          42.000  
 107500417.598 7  83766627.089 7  20456650.417    20456667.090          70.176  
        54.848          43.000          44.000  
 115451328.054 7  89962160.707 7  21969657.385    21969675.951        2877.758  
      2242.691          45.000          44.000  
 126741733.631 7  98759867.965 6  24118153.232    24118171.410       -3365.766  
     -2622.699          42.000          39.000  
 24  1 10  3 19 29.9000000  0  7G08G24G18G23G10G32G15
 128872684.981 6 100420356.278 6  24523668.486    24523690.155        2802.508  
      2183.699          39.000          41.000  
 128019634.511 6  99755651.489 6  24361325.566    24361346.784         283.523  
       221.008          40.000          40.000  
 112839292.975 7  87926786.123 7  21472604.574    21472619.705       -1799.664  
     -1402.270          43.000          45.000  
 109519985.127 7  85340305.813 7  20840961.738    20840975.023       -1825.113  
     -1421.785          44.000          42.000  
 107500410.550 7  83766621.601 7  20456649.076    20456665.750          70.398  
        54.945          43.000          44.000  
 115451040.245 7  89961936.449 7  21969602.617    21969621.185        2878.020  
      2242.539          45.000          43.000  
 126742070.224 6  98760130.275 6  24118217.283    24118235.469       -3365.707  
     -2622.762          41.000          39.000  
 24  1 10  3 19 30.0000000  0  7G08G24G18G23G10G32G15
 128872404.801 6 100420137.914 6  24523615.443    24523637.281        2802.250  
      2183.594          39.000          41.000  
 128019606.141 6  99755629.429 6  24361320.301    24361340.928         283.574  
       220.605          40.000          40.000  
 112839473.017 7  87926926.419 7  21472639.476    21472654.232       -1800.012  
     -1402.438          43.000          45.000  
 109520167.626 7  85340448.058 7  20840996.334    20841010.800       -1824.941  
     -1422.258          44.000          42.000  
 107500403.558 7  83766616.154 7  20456648.206    20456664.037          70.117  
        54.648          43.000          44.000  
 115450752.468 7  89961712.218 7  21969547.410    21969566.597        2877.828  
      2242.418          45.000          43.000  
 126742406.895 6  98760392.561 6  24118280.787    24118299.444       -3366.328  
     -2623.012          40.000          39.000  
 24  1 10  3 19 30.1000000  0  7G08G24G18G23G10G32G15
 128872124.606 6 100419919.579 6  24523562.124    24523583.961        2802.035  
      2183.336          39.000          41.000  
 128019577.809 6  99755607.411 6  24361314.909    24361335.551         283.336  
       220.434          40.000          41.000  
 112839652.994 7  87927066.654 7  21472673.724    21472688.479       -1799.855  
     -1402.789          43.000          45.000  
 109520350.182 7  85340590.299 7  20841031.073    20841045.536       -1825.348  
     -1422.371          44.000          43.000  
 107500396.555 7  83766610.678 7  20456646.874    20456662.700          69.984  
        54.441          43.000          44.000  
 115450464.723 7  89961487.987 7  21969492.654    21969511.837        2877.488  
      2242.117          45.000          43.000  
 126742743.507 6  98760654.887 6  24118344.842    24118363.506       -3366.242  
     -2623.375          41.000          39.000  
 24  1 10  3 19 30.2000000  0  7G08G24G18G23G10G32G15
 128871844.446 6 100419701.272 6  24523508.952    24523530.758        2801.809  
      2183.027          39.000          41.000  
 128019549.533 6  99755585.308 6  24361309.607    24361330.349         283.125  
       220.809          40.000          41.000  
 112839833.034 7  87927206.944 7  21472707.539    21472722.989       -1800.324  
     -1402.867          43.000          45.000  
 109520532.766 7  85340732.566 7  20841065.630    20841080.443       -1825.668  
     -1422.535          44.000          43.000  
 107500389.617 7  83766605.283 7  20456645.905    20456661.617          69.676  
        54.168          43.000          44.000  
 115450176.967 7  89961263.771 7  21969437.817    21969456.863        2877.562  
      2241.945          45.000          43.000  
 126743080.165 6  98760917.233 6  24118408.937    24118427.965       -3366.406  
     -2623.348          41.000          39.000  
 24  1 10  3 19 30.3000000  0  7G08G24G18G23G10G32G15
 128871564.281 6 100419482.994 6  24523455.638    24523477.452        2801.668  
      2182.867          39.000          41.000  
 128019521.220 6  99755563.220 6  24361304.219    24361324.954         283.055  
       220.910          40.000          41.000  
 112840013.073 7  87927347.234 7  21472741.800    21472757.249       -1800.402  
     -1402.934          43.000          45.000  
 109520715.289 7  85340874.789 7  20841100.363    20841115.176       -1825.469  
     -1422.703          44.000          43.000  
 107500382.650 7  83766599.874 7  20456644.579    20456660.295          69.691  
        54.164          43.000          44.000  
 115449889.245 7  89961039.578 7  21969383.066    21969402.113        2877.465  
      2242.266          45.000          43.000  
 126743416.741 7  98761179.505 6  24118472.986    24118492.014       -3366.125  
     -2623.055          42.000          40.000  
 24  1 10  3 19 30.4000000  0  7G08G24G18G23G10G32G15
 128871284.118 6 100419264.670 6  24523402.309    24523423.909        2801.738  
      2183.160          39.000          41.000  
 128019492.853 6  99755541.164 6  24361298.969    24361319.709         283.605  
       220.949          40.000          41.000  
 112840193.014 7  87927487.436 7  21472776.596    21472792.066       -1799.820  
     -1402.383          43.000          45.000  
 109520897.825 7  85341017.067 7  20841135.223    20841150.007       -1825.418  
     -1422.285          44.000          43.000  
 107500375.667 7  83766594.420 7  20456643.297    20456659.026          69.621  
        54.262          43.000          44.000  
 115449601.470 7  89960815.314 7  21969328.468    21969347.775        2877.539  
      2242.395          45.000          43.000  
 126743753.347 6  98761441.838 6  24118537.204    24118556.164       -3366.043  
     -2623.016          41.000          40.000  
 24  1 10  3 19 30.5000000  0  7G08G24G18G23G10G32G15
 128871003.955 6 100419046.383 6  24523348.996    24523370.601        2801.719  
      2182.840          39.000          41.000  
 128019464.495 6  99755519.037 6  24361293.573    24361314.305         283.383  
       220.898          40.000          41.000  
 112840373.008 7  87927627.706 7  21472810.848    21472826.322       -1799.742  
     -1402.211          43.000          45.000  
 109521080.371 7  85341159.284 7  20841169.961    20841184.738       -1825.203  
     -1422.176          43.000          43.000  
 107500368.709 7  83766589.003 7  20456641.973    20456657.703          69.734  
        54.465          43.000          44.000  
 115449313.686 7  89960591.099 7  21969273.705    21969293.019        2877.758  
      2242.395          45.000          43.000  
 126744089.982 6  98761704.093 6  24118601.263    24118620.210       -3366.094  
     -2622.547          41.000          39.000  
 24  1 10  3 19 30.6000000  0  7G08G24G18G23G10G32G15
 128870723.825 6 100418828.104 6  24523295.611    24523317.935        2801.383  
      2183.008          39.000          41.000  
 128019436.158 6  99755497.017 6  24361288.266    24361308.990         283.645  
       220.852          40.000          40.000  
 112840552.967 7  87927767.925 7  21472845.132    21472860.572       -1799.613  
     -1402.285          43.000          45.000  
 109521262.898 7  85341301.488 7  20841204.491    20841219.356       -1825.402  
     -1422.301          44.000          43.000  
 107500361.739 7  83766583.562 7  20456640.420    20456656.015          69.781  
        54.281          43.000          44.000  
 115449025.942 7  89960366.872 7  21969218.761    21969238.144        2877.645  
      2242.469          45.000          43.000  
 126744426.522 7  98761966.395 6  24118665.430    24118683.798       -3365.875  
     -2623.180          42.000          39.000  
 24  1 10  3 19 30.7000000  0  7G08G24G18G23G10G32G15
 128870443.694 6 100418609.803 6  24523242.304    24523264.624        2801.406  
      2182.820          39.000          41.000  
 128019407.825 6  99755474.864 6  24361282.875    24361303.580         283.309  
       221.250          40.000          40.000  
 112840732.993 7  87927908.197 7  21472879.390    21472894.828       -1800.152  
     -1402.625          43.000          45.000  
 109521445.437 7  85341443.736 7  20841239.227    20841254.095       -1825.383  
     -1422.582          44.000          42.000  
 107500354.802 7  83766578.195 7  20456639.100    20456654.704          69.441  
        53.781          42.000          44.000  
 115448738.177 7  89960142.614 7  21969164.001    21969183.377        2877.523  
      2242.195          45.000          43.000  
 126744763.179 7  98762228.716 6  24118729.493    24118747.859       -3366.172  
     -2622.938          42.000          40.000  
 24  1 10  3 19 30.8000000  0  7G08G24G18G23G10G32G15
 128870163.554 6 100418391.520 6  24523188.815    24523211.223        2801.414  
      2182.949          39.000          41.000  
 128019379.465 6  99755452.784 6  24361277.306    24361298.790         283.406  
       220.711          40.000          40.000  
 112840912.961 7  87928048.462 7  21472913.402    21472929.215       -1799.863  
     -1402.914          43.000          45.000  
 109521627.995 7  85341586.012 7  20841274.029    20841287.692       -1825.430  
     -1422.719          44.000          42.000  
 107500347.895 7  83766572.779 7  20456637.387    20456653.608          69.188  
        53.887          42.000          44.000  
 115448450.470 7  89959918.448 7  21969109.206    21969128.673        2877.348  
      2241.949          45.000          43.000  
 126745099.805 7  98762491.016 6  24118794.028    24118811.791       -3366.262  
     -2622.945          42.000          40.000  
