     2.11           OBSERVATION DATA    M (MIXED)           RINEX VERSION / TYPE
GPP.DLL V3.2.21                         18 - MAR - 24 07:42 PGM / RUN BY / DATE 
                                                            MARKER NAME         
                                                            MARKER NUMBER       
                                                            OBSERVER / AGENCY   
6028C00128          APX-15v3 AV         5.50                REC # / TYPE / VERS 
                    E                                       ANT # / TYPE        
 -4667996.3580  2554563.1982 -3504599.3873                  APPROX POSITION XYZ 
        0.0000       -0.0000       -0.0000                  ANTENNA: DELTA H/E/N
     1     1                                                WAVELENGTH FACT L1/2
     8    L1    L2    C1    C2    D1    D2    S1    S2      # / TYPES OF OBSERV 
     0.100                                                  INTERVAL            
  2024     1    10     3    14    0.0000000     GPS         TIME OF FIRST OBS   
  2024     1    10     3    14   59.9000000     GPS         TIME OF LAST OBS    
    18                                                      LEAP SECONDS        
     6                                                      # OF SATELLITES     
   G10   600   600   600   600   600   600   600   600      PRN / # OF OBS      
   G15   600   600   600   600   600   600   600   600      PRN / # OF OBS      
   G18   600   600   600   600   600   600   600   600      PRN / # OF OBS      
   G23   600   600   600   600   600   600   600   600      PRN / # OF OBS      
   G24   600   600   600   600   600   600   600   600      PRN / # OF OBS      
   G32   600   600   600   600   600   600   600   600      PRN / # OF OBS      
                                                            END OF HEADER       
 24  1 10  3 14  0.0000000  0  6G24G10G18G23G32G15
 129738230.425 6 101094816.527 6  24688364.081    24688387.119         654.168  
       509.668          40.000          41.000  
 109150038.711 7  85052046.264 7  20770562.581    20770579.269         434.102  
       338.074          46.000          44.000  
 113865081.299 7  88726102.392 7  21667805.696    21667820.722       -1459.180  
     -1137.109          47.000          46.000  
 110536778.151 7  86132612.681 7  21034450.212    21034464.983       -1507.973  
     -1175.121          43.000          44.000  
 118017343.660 7  91961651.910 7  22457954.755    22457974.695        3215.836  
      2505.965          44.000          44.000  
 127249288.600 5  99155368.029 7  24214736.332    24214754.245       -3057.125  
     -2382.188          35.000          43.000  
 24  1 10  3 14  0.1000000  0  6G24G10G18G23G32G15
 129738165.082 6 101094765.647 7  24688351.646    24688374.693         654.098  
       509.195          40.000          42.000  
 109149995.332 7  85052012.458 7  20770554.326    20770571.013         433.906  
       338.031          46.000          44.000  
 113865227.254 7  88726216.116 7  21667833.470    21667848.494       -1459.414  
     -1137.262          47.000          47.000  
 110536928.983 7  86132730.210 7  21034478.915    21034493.685       -1508.102  
     -1175.234          44.000          45.000  
 118017022.112 7  91961401.365 7  22457893.567    22457913.509        3215.676  
      2505.500          44.000          44.000  
 127249594.261 5  99155606.240 7  24214794.498    24214812.418       -3057.035  
     -2382.266          35.000          43.000  
 24  1 10  3 14  0.2000000  0  6G24G10G18G23G32G15
 129738099.693 6 101094714.662 7  24688339.289    24688362.172         653.816  
       509.559          40.000          42.000  
 109149951.966 7  85051978.664 7  20770545.972    20770562.448         433.715  
       337.852          46.000          44.000  
 113865373.200 7  88726329.831 7  21667861.133    21667876.374       -1459.598  
     -1137.473          46.000          46.000  
 110537079.832 7  86132847.771 7  21034507.706    21034522.411       -1508.250  
     -1175.504          44.000          45.000  
 118016700.572 7  91961150.832 7  22457832.208    22457852.240        3215.520  
      2505.477          44.000          44.000  
 127249900.012 6  99155844.490 7  24214852.657    24214870.336       -3057.254  
     -2382.316          36.000          43.000  
 24  1 10  3 14  0.3000000  0  6G24G10G18G23G32G15
 129738034.329 6 101094663.721 7  24688326.851    24688349.731         653.754  
       509.406          40.000          42.000  
 109149908.619 7  85051944.882 7  20770537.723    20770554.198         433.613  
       337.859          46.000          44.000  
 113865519.160 7  88726443.584 7  21667888.909    21667904.154       -1459.516  
     -1137.367          46.000          46.000  
 110537230.694 7  86132965.307 7  21034536.414    21034551.114       -1508.473  
     -1175.312          43.000          45.000  
 118016379.032 7  91960900.254 7  22457771.021    22457791.046        3215.426  
      2505.410          44.000          44.000  
 127250205.734 6  99156082.716 7  24214910.834    24214928.513       -3057.180  
     -2382.363          36.000          43.000  
 24  1 10  3 14  0.4000000  0  6G24G10G18G23G32G15
 129737968.982 6 101094612.834 6  24688314.330    24688337.007         653.645  
       509.086          40.000          41.000  
 109149865.277 7  85051911.116 7  20770529.374    20770545.780         433.527  
       337.785          47.000          44.000  
 113865665.165 7  88726557.346 7  21667916.880    21667932.279       -1459.777  
     -1137.488          47.000          46.000  
 110537381.557 7  86133082.872 7  21034565.068    21034579.738       -1508.539  
     -1175.645          43.000          44.000  
 118016057.510 7  91960649.737 7  22457709.986    22457729.743        3215.273  
      2505.352          44.000          44.000  
 127250511.479 6  99156320.989 7  24214968.867    24214986.858       -3057.438  
     -2382.543          36.000          43.000  
 24  1 10  3 14  0.5000000  0  6G24G10G18G23G32G15
 129737903.634 6 101094561.897 6  24688301.895    24688324.568         653.508  
       509.211          40.000          41.000  
 109149821.951 7  85051877.343 7  20770521.129    20770537.532         433.363  
       337.539          47.000          44.000  
 113865811.167 7  88726671.101 7  21667944.663    21667960.059       -1459.996  
     -1137.695          46.000          45.000  
 110537532.415 7  86133200.412 7  21034593.775    21034608.443       -1508.707  
     -1175.578          43.000          44.000  
 118015736.033 7  91960399.211 7  22457648.811    22457668.562        3215.078  
      2505.266          44.000          43.000  
 127250817.279 6  99156559.246 7  24215027.059    24215045.043       -3057.664  
     -2382.496          36.000          43.000  
 24  1 10  3 14  0.6000000  0  6G24G10G18G23G32G15
 129737838.332 6 101094511.000 6  24688289.788    24688312.006         653.285  
       509.109          41.000          41.000  
 109149778.628 7  85051843.594 7  20770512.901    20770529.400         433.281  
       337.418          47.000          44.000  
 113865957.177 7  88726784.895 7  21667972.385    21667987.802       -1459.906  
     -1137.742          46.000          45.000  
 110537683.305 7  86133317.998 7  21034622.317    21034637.151       -1508.688  
     -1175.680          43.000          44.000  
 118015414.545 7  91960148.687 7  22457587.579    22457607.639        3215.031  
      2505.195          44.000          43.000  
 127251123.070 6  99156797.486 7  24215085.030    24215103.661       -3057.773  
     -2382.582          36.000          42.000  
 24  1 10  3 14  0.7000000  0  6G24G10G18G23G32G15
 129737773.016 6 101094460.101 6  24688277.359    24688299.576         653.137  
       508.816          41.000          40.000  
 109149735.336 7  85051809.855 7  20770504.663    20770521.160         433.129  
       337.438          47.000          44.000  
 113866103.204 7  88726898.676 7  21668000.174    21668015.589       -1460.043  
     -1137.820          47.000          46.000  
 110537834.187 7  86133435.536 7  21034651.029    21034665.855       -1508.984  
     -1175.801          43.000          44.000  
 118015093.066 7  91959898.206 7  22457526.404    22457546.469        3214.965  
      2505.023          44.000          42.000  
 127251428.857 6  99157035.769 7  24215143.219    24215161.852       -3057.883  
     -2382.742          36.000          42.000  
 24  1 10  3 14  0.8000000  0  6G24G10G18G23G32G15
 129737707.701 6 101094409.251 6  24688264.750    24688287.095         653.258  
       508.707          41.000          40.000  
 109149692.033 7  85051776.126 7  20770496.664    20770513.212         433.094  
       337.105          47.000          44.000  
 113866249.222 7  88727012.455 7  21668028.233    21668043.343       -1460.266  
     -1137.820          47.000          46.000  
 110537985.087 7  86133553.128 7  21034679.744    21034694.478       -1508.891  
     -1175.742          43.000          43.000  
 118014771.586 7  91959647.702 7  22457465.478    22457485.223        3214.883  
      2505.164          44.000          42.000  
 127251734.633 6  99157274.049 7  24215201.188    24215220.035       -3057.730  
     -2382.730          36.000          42.000  
 24  1 10  3 14  0.9000000  0  6G24G10G18G23G32G15
 129737642.448 6 101094358.417 6  24688252.333    24688274.681         652.859  
       508.410          41.000          40.000  
 109149648.765 7  85051742.438 7  20770488.431    20770504.985         432.867  
       337.059          47.000          44.000  
 113866395.290 7  88727126.266 7  21668056.029    21668071.137       -1460.504  
     -1138.231          47.000          46.000  
 110538136.041 7  86133670.753 7  21034708.470    21034723.204       -1509.172  
     -1176.242          43.000          43.000  
 118014450.136 7  91959397.197 7  22457404.308    22457424.047        3214.543  
      2504.602          45.000          42.000  
 127252040.427 6  99157512.356 7  24215259.378    24215278.232       -3057.863  
     -2383.109          36.000          42.000  
 24  1 10  3 14  1.0000000  0  6G24G10G18G23G32G15
 129737577.211 6 101094307.587 6  24688239.896    24688262.479         652.664  
       508.324          40.000          40.000  
 109149605.514 7  85051708.727 7  20770480.255    20770496.855         432.617  
       336.949          46.000          44.000  
 113866541.376 7  88727240.119 7  21668083.789    21668099.121       -1460.684  
     -1138.352          47.000          46.000  
 110538286.975 7  86133788.384 7  21034737.199    21034751.711       -1509.316  
     -1176.199          43.000          43.000  
 118014128.709 7  91959146.783 6  22457343.307    22457363.089        3214.430  
      2504.363          45.000          41.000  
 127252346.287 5  99157750.670 6  24215317.582    24215336.594       -3058.297  
     -2383.039          35.000          41.000  
 24  1 10  3 14  1.1000000  0  6G24G10G18G23G32G15
 129737511.958 6 101094256.729 6  24688227.478    24688250.059         652.441  
       508.379          40.000          40.000  
 109149562.283 7  85051675.043 7  20770472.029    20770488.629         432.414  
       336.742          46.000          43.000  
 113866687.453 7  88727353.905 7  21668111.587    21668126.909       -1460.883  
     -1138.273          47.000          46.000  
 110538437.923 7  86133906.006 7  21034765.924    21034780.436       -1509.395  
     -1176.305          43.000          43.000  
 118013807.275 7  91958896.309 6  22457282.140    22457301.920        3214.336  
      2504.715          45.000          41.000  
 127252652.170 6  99157988.986 6  24215375.789    24215394.794       -3058.441  
     -2383.156          37.000          41.000  
 24  1 10  3 14  1.2000000  0  6G24G10G18G23G32G15
 129737446.693 6 101094205.863 6  24688215.356    24688237.668         652.641  
       508.617          41.000          40.000  
 109149519.046 7  85051641.343 7  20770463.863    20770480.477         432.430  
       336.930          47.000          42.000  
 113866833.549 7  88727467.765 7  21668139.286    21668154.621       -1460.789  
     -1138.356          47.000          45.000  
 110538588.897 7  86134023.659 7  21034794.911    21034809.316       -1509.492  
     -1176.383          43.000          43.000  
 118013485.858 7  91958645.844 6  22457220.906    22457240.864        3214.246  
      2504.520          45.000          41.000  
 127252958.017 6  99158227.320 6  24215433.959    24215453.052       -3058.496  
     -2383.273          37.000          41.000  
 24  1 10  3 14  1.3000000  0  6G24G10G18G23G32G15
 129737381.473 6 101094155.063 6  24688202.945    24688225.262         652.379  
       508.047          40.000          40.000  
 109149475.830 7  85051607.682 7  20770455.640    20770472.256         432.297  
       336.770          46.000          42.000  
 113866979.665 7  88727581.627 7  21668167.091    21668182.427       -1460.875  
     -1138.457          46.000          45.000  
 110538739.883 7  86134141.283 7  21034823.643    21034838.042       -1509.676  
     -1176.402          43.000          43.000  
 118013164.470 7  91958395.424 6  22457159.748    22457179.709        3214.020  
      2504.324          45.000          41.000  
 127253263.839 6  99158465.647 6  24215492.155    24215511.254       -3058.375  
     -2383.344          37.000          41.000  
 24  1 10  3 14  1.4000000  0  6G24G10G18G23G32G15
 129737316.284 6 101094104.240 6  24688190.321    24688212.538         652.152  
       508.102          40.000          40.000  
 109149432.643 7  85051574.038 7  20770447.586    20770464.392         432.078  
       336.723          46.000          42.000  
 113867125.790 7  88727695.482 7  21668194.796    21668209.763       -1461.145  
     -1138.695          46.000          45.000  
 110538890.850 7  86134258.946 7  21034852.160    21034867.120       -1509.707  
     -1176.555          43.000          43.000  
 118012843.087 7  91958144.982 6  22457098.583    22457118.337        3214.043  
      2504.297          45.000          41.000  
 127253569.749 6  99158703.979 6  24215550.469    24215568.863       -3058.770  
     -2383.398          37.000          40.000  
 24  1 10  3 14  1.5000000  0  6G24G10G18G23G32G15
 129737251.108 6 101094053.479 6  24688177.918    24688200.142         651.992  
       507.797          40.000          40.000  
 109149389.495 7  85051540.380 7  20770439.375    20770456.172         431.703  
       336.617          46.000          42.000  
 113867271.937 7  88727809.370 7  21668222.607    21668237.575       -1461.305  
     -1138.840          46.000          45.000  
 110539041.874 7  86134376.598 7  21034880.899    21034895.852       -1510.117  
     -1176.809          43.000          42.000  
 118012521.733 7  91957894.594 6  22457037.431    22457057.190        3213.746  
      2504.031          45.000          41.000  
 127253875.613 6  99158942.385 6  24215608.673    24215627.084       -3058.648  
     -2383.848          37.000          40.000  
 24  1 10  3 14  1.6000000  0  6G24G10G18G23G32G15
 129737185.941 6 101094002.656 6  24688165.369    24688187.543         651.676  
       507.988          41.000          39.000  
 109149346.301 7  85051506.699 6  20770430.968    20770447.501         431.836  
       336.352          46.000          41.000  
 113867418.083 7  88727923.258 7  21668250.371    21668265.411       -1461.453  
     -1138.934          46.000          45.000  
 110539192.889 7  86134494.299 7  21034909.698    21034924.541       -1510.191  
     -1177.000          43.000          42.000  
 118012200.347 7  91957644.158 6  22456976.063    22456996.117        3213.531  
      2504.070          45.000          41.000  
 127254181.610 6  99159180.753 6  24215666.871    24215685.070       -3059.430  
     -2383.703          37.000          40.000  
 24  1 10  3 14  1.7000000  0  6G24G10G18G23G32G15
 129737120.796 6 101093951.882 6  24688152.972    24688175.143         651.570  
       507.871          41.000          39.000  
 109149303.135 7  85051473.112 6  20770422.753    20770439.299         431.742  
       336.168          46.000          41.000  
 113867564.255 7  88728037.159 7  21668278.186    21668293.227       -1461.609  
     -1138.973          46.000          45.000  
 110539343.925 7  86134611.989 7  21034938.439    21034953.282       -1510.121  
     -1176.773          43.000          42.000  
 118011879.041 7  91957393.773 6  22456914.920    22456934.970        3213.465  
      2503.828          44.000          41.000  
 127254487.477 6  99159419.121 6  24215725.075    24215743.282       -3058.848  
     -2383.684          37.000          40.000  
 24  1 10  3 14  1.8000000  0  6G24G10G18G23G32G15
 129737055.657 6 101093901.131 6  24688140.725    24688162.890         651.539  
       507.516          41.000          39.000  
 109149260.005 7  85051439.508 6  20770414.554    20770430.921         431.520  
       336.125          46.000          41.000  
 113867710.421 7  88728151.047 7  21668306.071    21668321.126       -1461.684  
     -1138.984          46.000          45.000  
 110539494.973 7  86134729.664 7  21034967.074    21034981.738       -1510.301  
     -1176.840          42.000          42.000  
 118011557.703 7  91957143.408 6  22456853.943    22456873.844        3213.438  
      2503.848          44.000          41.000  
 127254793.375 6  99159657.505 6  24215783.395    24215801.583       -3059.098  
     -2383.750          36.000          40.000  
 24  1 10  3 14  1.9000000  0  6G24G10G18G23G32G15
 129736990.540 6 101093850.386 6  24688128.334    24688150.497         651.395  
       507.652          41.000          39.000  
 109149216.886 7  85051405.913 6  20770406.349    20770422.717         431.348  
       335.969          46.000          41.000  
 113867856.637 7  88728264.980 7  21668333.895    21668348.949       -1461.895  
     -1139.141          46.000          45.000  
 110539646.015 7  86134847.382 7  21034995.816    21035010.486       -1510.395  
     -1177.160          42.000          42.000  
 118011236.395 7  91956893.011 6  22456792.800    22456812.695        3213.137  
      2503.676          44.000          41.000  
 127255099.362 6  99159895.898 6  24215841.623    24215859.801       -3059.371  
     -2383.934          36.000          41.000  
 24  1 10  3 14  2.0000000  0  6G24G10G18G23G32G15
 129736925.439 6 101093799.677 6  24688116.125    24688137.520         651.164  
       507.043          40.000          39.000  
 109149173.785 7  85051372.314 6  20770398.108    20770414.527         431.113  
       335.895          46.000          41.000  
 113868002.859 7  88728378.920 7  21668361.603    21668376.564       -1462.055  
     -1139.559          46.000          45.000  
 110539797.115 7  86134965.124 7  21035024.429    21035039.154       -1510.731  
     -1177.371          43.000          42.000  
 118010915.128 7  91956642.680 6  22456731.400    22456751.522        3212.988  
      2503.551          45.000          41.000  
 127255405.294 6  99160134.338 6  24215899.777    24215917.843       -3059.500  
     -2384.312          36.000          41.000  
 24  1 10  3 14  2.1000000  0  6G24G10G18G23G32G15
 129736860.338 6 101093748.929 6  24688103.737    24688125.127         650.934  
       507.176          40.000          38.000  
 109149130.702 7  85051338.739 6  20770389.909    20770406.328         431.016  
       335.676          46.000          41.000  
 113868149.106 7  88728492.892 7  21668389.433    21668404.397       -1462.227  
     -1139.574          46.000          45.000  
 110539948.204 7  86135082.849 7  21035053.180    21035067.903       -1511.020  
     -1177.434          43.000          42.000  
 118010593.859 7  91956392.345 6  22456670.264    22456690.388        3212.828  
      2503.305          45.000          41.000  
 127255711.329 6  99160372.751 6  24215958.014    24215976.066       -3059.852  
     -2384.262          36.000          41.000  
 24  1 10  3 14  2.2000000  0  6G24G10G18G23G32G15
 129736795.276 6 101093698.265 6  24688091.255    24688112.793         650.797  
       506.871          40.000          38.000  
 109149087.627 7  85051305.185 6  20770381.798    20770398.040         430.824  
       335.734          46.000          41.000  
 113868295.343 7  88728606.824 7  21668417.199    21668432.549       -1462.305  
     -1139.449          46.000          45.000  
 110540099.305 7  86135200.578 7  21035081.855    21035096.826       -1510.938  
     -1177.316          43.000          42.000  
 118010272.621 7  91956142.032 6  22456609.072    22456628.853        3212.578  
      2503.254          45.000          41.000  
 127256017.296 6  99160611.167 6  24216016.026    24216034.048       -3059.750  
     -2384.215          36.000          41.000  
 24  1 10  3 14  2.3000000  0  6G24G10G18G23G32G15
 129736730.205 6 101093647.531 6  24688078.872    24688100.403         650.754  
       507.180          40.000          38.000  
 109149044.565 7  85051271.603 6  20770373.604    20770389.839         430.699  
       335.453          46.000          41.000  
 113868441.603 7  88728720.797 7  21668445.031    21668460.382       -1462.465  
     -1139.793          46.000          45.000  
 110540250.425 7  86135318.333 7  21035110.613    21035125.583       -1510.992  
     -1177.465          42.000          42.000  
 118009951.367 7  91955891.699 6  22456547.940    22456567.719        3212.527  
      2503.094          44.000          41.000  
 127256323.281 5  99160849.629 6  24216074.253    24216092.282       -3059.789  
     -2384.434          35.000          41.000  
 24  1 10  3 14  2.4000000  0  6G24G10G18G23G32G15
 129736665.129 6 101093596.858 6  24688066.613    24688087.747         650.758  
       507.047          40.000          38.000  
 109149001.521 7  85051238.073 6  20770365.515    20770381.689         430.562  
       335.387          45.000          41.000  
 113868587.861 7  88728834.780 7  21668473.074    21668488.264       -1462.551  
     -1139.734          46.000          45.000  
 110540401.540 7  86135436.096 7  21035139.447    21035154.459       -1511.055  
     -1177.562          42.000          42.000  
 118009630.133 7  91955641.391 7  22456487.045    22456506.685        3212.387  
      2503.121          44.000          42.000  
 127256629.316 6  99161088.055 6  24216132.365    24216150.579       -3060.156  
     -2384.266          36.000          41.000  
 24  1 10  3 14  2.5000000  0  6G24G10G18G23G32G15
 129736600.145 6 101093546.184 6  24688054.247    24688075.372         650.316  
       506.730          40.000          38.000  
 109148958.487 7  85051204.548 6  20770357.325    20770373.502         430.395  
       335.164          45.000          41.000  
 113868734.154 7  88728948.750 7  21668500.912    21668516.097       -1462.816  
     -1139.961          46.000          45.000  
 110540552.684 7  86135553.865 7  21035168.209    21035183.219       -1511.336  
     -1177.844          43.000          42.000  
 118009308.935 7  91955391.122 7  22456425.923    22456445.566        3212.203  
      2502.766          45.000          42.000  
 127256935.362 6  99161326.536 6  24216190.604    24216208.818       -3060.258  
     -2384.809          36.000          41.000  
 24  1 10  3 14  2.6000000  0  6G24G10G18G23G32G15
 129736535.126 6 101093495.560 6  24688041.867    24688063.033         650.293  
       506.352          40.000          38.000  
 109148915.485 7  85051171.050 6  20770349.103    20770365.040         430.223  
       335.113          45.000          41.000  
 113868880.476 7  88729062.781 7  21668528.600    21668543.905       -1462.953  
     -1140.055          46.000          45.000  
 110540703.839 7  86135671.648 7  21035197.074    21035211.999       -1511.539  
     -1177.941          42.000          42.000  
 118008987.754 7  91955140.843 7  22456365.078    22456384.743        3211.961  
      2502.785          44.000          42.000  
 127257241.438 6  99161565.031 6  24216248.824    24216267.139       -3060.539  
     -2384.953          37.000          41.000  
 24  1 10  3 14  2.7000000  0  6G24G10G18G23G32G15
 129736470.116 6 101093444.930 6  24688029.496    24688050.668         650.129  
       506.520          41.000          38.000  
 109148872.493 7  85051137.531 6  20770340.922    20770356.855         430.082  
       335.039          46.000          41.000  
 113869026.801 7  88729176.797 7  21668556.445    21668571.750       -1463.129  
     -1140.191          45.000          45.000  
 110540855.023 7  86135789.468 7  21035225.843    21035240.772       -1511.477  
     -1178.145          43.000          42.000  
 118008666.565 7  91954890.546 7  22456303.958    22456323.617        3211.816  
      2502.613          45.000          42.000  
 127257547.439 6  99161803.501 6  24216307.055    24216325.376       -3060.258  
     -2384.617          36.000          41.000  
 24  1 10  3 14  2.8000000  0  6G24G10G18G23G32G15
 129736405.132 6 101093394.247 6  24688017.052    24688038.010         649.914  
       506.438          41.000          38.000  
 109148829.513 7  85051104.037 6  20770332.775    20770348.894         429.957  
       334.945          46.000          41.000  
 113869173.108 7  88729290.794 7  21668584.021    21668599.472       -1463.273  
     -1140.234          45.000          45.000  
 110541006.234 7  86135907.306 7  21035254.610    21035269.510       -1511.695  
     -1178.035          42.000          42.000  
 118008345.411 7  91954640.320 7  22456242.766    22456262.283        3211.777  
      2502.656          44.000          42.000  
 127257853.509 6  99162041.999 6  24216365.618    24216383.815       -3060.508  
     -2384.957          37.000          41.000  
 24  1 10  3 14  2.9000000  0  6G24G10G18G23G32G15
 129736340.146 6 101093343.625 6  24688004.685    24688025.648         649.938  
       506.465          41.000          38.000  
 109148786.525 7  85051070.563 6  20770324.594    20770340.719         429.840  
       334.590          46.000          41.000  
 113869319.486 7  88729404.858 7  21668611.876    21668627.327       -1463.340  
     -1140.352          45.000          45.000  
 110541157.395 7  86136025.079 7  21035283.375    21035298.271       -1511.789  
     -1178.145          42.000          42.000  
 118008024.243 7  91954390.066 7  22456181.650    22456201.169        3211.703  
      2502.469          45.000          42.000  
 127258159.569 6  99162280.517 6  24216423.859    24216442.064       -3060.469  
     -2385.141          36.000          41.000  
 24  1 10  3 14  3.0000000  0  6G24G10G18G23G32G15
 129736275.206 6 101093293.006 6  24687992.374    24688013.458         649.562  
       506.188          41.000          38.000  
 109148743.588 7  85051037.105 6  20770316.525    20770332.814         429.652  
       334.789          46.000          41.000  
 113869465.840 7  88729518.909 7  21668639.515    21668655.297       -1463.535  
     -1140.594          45.000          45.000  
 110541308.615 7  86136142.911 7  21035312.159    21035327.336       -1512.184  
     -1178.258          42.000          42.000  
 118007703.109 7  91954139.815 7  22456120.431    22456140.149        3211.488  
      2502.387          45.000          42.000  
 127258465.681 6  99162519.034 6  24216482.532    24216500.710       -3060.816  
     -2385.109          36.000          41.000  
 24  1 10  3 14  3.1000000  0  6G24G10G18G23G32G15
 129736210.267 6 101093242.409 6  24687980.017    24688001.101         649.539  
       505.906          40.000          38.000  
 109148700.643 7  85051003.630 6  20770308.353    20770324.639         429.508  
       334.523          45.000          41.000  
 113869612.223 7  88729632.967 7  21668667.371    21668683.151       -1463.711  
     -1140.617          45.000          45.000  
 110541459.836 7  86136260.749 7  21035340.936    21035356.113       -1512.152  
     -1178.418          42.000          42.000  
 118007381.982 7  91953889.599 7  22456059.322    22456079.043        3211.320  
      2502.191          45.000          42.000  
 127258771.803 6  99162757.562 6  24216540.785    24216558.962       -3061.035  
     -2385.402          36.000          41.000  
 24  1 10  3 14  3.2000000  0  6G24G10G18G23G32G15
 129736145.364 6 101093191.813 6  24687967.705    24687988.862         649.336  
       506.105          40.000          38.000  
 109148657.721 7  85050970.176 6  20770300.263    20770316.172         429.434  
       334.574          46.000          41.000  
 113869758.606 7  88729747.030 7  21668695.445    21668710.983       -1463.816  
     -1140.715          45.000          45.000  
 110541611.090 7  86136378.620 7  21035369.492    21035384.969       -1512.125  
     -1178.367          43.000          42.000  
 118007060.869 7  91953639.372 7  22455998.209    22456017.896        3211.215  
      2502.184          45.000          42.000  
 127259077.913 6  99162996.100 6  24216598.833    24216617.449       -3061.016  
     -2385.320          36.000          41.000  
 24  1 10  3 14  3.3000000  0  6G24G10G18G23G32G15
 129736080.452 6 101093141.283 6  24687955.353    24687976.523         649.086  
       505.395          40.000          38.000  
 109148614.819 7  85050936.746 6  20770292.099    20770308.008         429.168  
       334.387          45.000          41.000  
 113869905.013 7  88729861.117 7  21668723.306    21668738.844       -1464.016  
     -1140.898          45.000          45.000  
 110541762.335 7  86136496.445 7  21035398.273    21035413.743       -1512.512  
     -1178.531          43.000          42.000  
 118006739.780 7  91953389.184 7  22455937.107    22455956.798        3211.020  
      2502.023          44.000          42.000  
 127259384.030 6  99163234.652 6  24216657.085    24216675.706       -3061.176  
     -2385.566          36.000          41.000  
 24  1 10  3 14  3.4000000  0  6G24G10G18G23G32G15
 129736015.596 6 101093090.714 6  24687942.941    24687964.712         648.871  
       505.582          40.000          38.000  
 109148571.940 7  85050903.327 6  20770283.901    20770300.003         428.961  
       334.262          45.000          41.000  
 113870051.465 7  88729975.240 7  21668751.487    21668766.323       -1464.195  
     -1141.203          45.000          45.000  
 110541913.614 7  86136614.316 7  21035427.130    21035442.263       -1512.738  
     -1178.805          43.000          42.000  
 118006418.718 7  91953138.994 7  22455875.894    22455895.582        3210.707  
      2501.734          44.000          42.000  
 127259690.206 6  99163473.215 6  24216715.106    24216733.856       -3061.445  
     -2385.672          36.000          41.000  
 24  1 10  3 14  3.5000000  0  6G24G10G18G23G32G15
 129735950.745 6 101093040.181 6  24687930.600    24687952.371         648.699  
       505.215          39.000          38.000  
 109148529.077 7  85050869.936 6  20770275.744    20770291.849         428.762  
       333.941          45.000          41.000  
 113870197.929 7  88730089.370 7  21668779.358    21668794.195       -1464.410  
     -1141.137          45.000          45.000  
 110542064.954 7  86136732.233 7  21035455.929    21035471.059       -1512.973  
     -1178.996          43.000          42.000  
 118006097.688 7  91952888.849 7  22455814.804    22455834.494        3210.645  
      2501.574          44.000          42.000  
 127259996.415 6  99163711.814 6  24216773.376    24216792.125       -3061.742  
     -2385.875          36.000          41.000  
 24  1 10  3 14  3.6000000  0  6G24G10G18G23G32G15
 129735885.892 6 101092989.663 6  24687918.126    24687939.995         648.598  
       505.305          39.000          38.000  
 109148486.218 7  85050836.557 6  20770267.651    20770283.643         428.691  
       333.887          45.000          41.000  
 113870344.378 7  88730203.472 7  21668807.179    21668822.630       -1464.590  
     -1141.188          45.000          45.000  
 110542216.227 7  86136850.129 7  21035485.185    21035499.671       -1512.883  
     -1179.004          43.000          42.000  
 118005776.635 7  91952638.677 7  22455753.522    22455773.680        3210.434  
      2501.676          45.000          42.000  
 127260302.616 6  99163950.391 6  24216831.480    24216850.301       -3061.867  
     -2385.938          36.000          41.000  
 24  1 10  3 14  3.7000000  0  6G24G10G18G23G32G15
 129735821.021 6 101092939.146 6  24687905.782    24687927.659         648.664  
       505.176          40.000          38.000  
 109148443.385 7  85050803.155 6  20770259.500    20770275.486         428.543  
       333.898          45.000          41.000  
 113870490.858 7  88730317.607 7  21668835.054    21668850.503       -1464.637  
     -1141.465          45.000          45.000  
 110542367.543 7  86136968.029 7  21035513.979    21035528.463       -1513.000  
     -1178.934          43.000          42.000  
 118005455.608 7  91952388.528 7  22455692.433    22455712.591        3210.398  
      2501.430          44.000          42.000  
 127260608.798 5  99164189.002 6  24216889.744    24216908.573       -3061.957  
     -2386.082          35.000          41.000  
 24  1 10  3 14  3.8000000  0  6G24G10G18G23G32G15
 129735756.251 6 101092888.622 6  24687893.214    24687915.750         648.164  
       505.152          40.000          38.000  
 109148400.578 7  85050769.818 6  20770251.401    20770266.688         428.285  
       333.555          45.000          41.000  
 113870637.391 7  88730431.821 7  21668862.821    21668878.333       -1464.863  
     -1141.660          45.000          45.000  
 110542518.877 7  86137085.960 7  21035542.793    21035556.990       -1513.340  
     -1179.430          43.000          42.000  
 118005134.611 7  91952138.405 7  22455631.279    22455651.493        3210.051  
      2501.223          44.000          42.000  
 127260915.048 5  99164427.631 6  24216948.327    24216966.731       -3062.199  
     -2386.160          35.000          41.000  
 24  1 10  3 14  3.9000000  0  6G24G10G18G23G32G15
 129735691.478 6 101092838.162 6  24687880.888    24687903.427         647.961  
       504.688          39.000          39.000  
 109148357.784 7  85050736.446 6  20770243.258    20770258.539         428.031  
       333.371          45.000          41.000  
 113870783.909 7  88730545.972 7  21668890.702    21668906.210       -1465.125  
     -1141.660          45.000          45.000  
 110542670.259 7  86137203.912 7  21035571.600    21035585.795       -1513.566  
     -1179.496          42.000          42.000  
 118004813.653 7  91951888.303 7  22455570.203    22455590.416        3209.852  
      2501.113          44.000          42.000  
 127261221.283 6  99164666.253 6  24217006.601    24217025.005       -3062.320  
     -2386.227          36.000          41.000  
 24  1 10  3 14  4.0000000  0  6G24G10G18G23G32G15
 129735626.733 6 101092787.696 6  24687868.716    24687891.486         647.738  
       504.789          39.000          39.000  
 109148315.001 7  85050703.128 6  20770234.648    20770250.207         427.871  
       333.293          45.000          41.000  
 113870930.448 7  88730660.163 7  21668918.556    21668934.096       -1465.375  
     -1141.996          45.000          45.000  
 110542821.635 7  86137321.885 7  21035600.398    21035614.886       -1513.641  
     -1179.617          43.000          42.000  
 118004492.695 7  91951638.195 7  22455509.228    22455529.563        3209.688  
      2500.895          44.000          42.000  
 127261527.525 6  99164904.915 6  24217064.776    24217083.101       -3062.332  
     -2386.516          36.000          40.000  
 24  1 10  3 14  4.1000000  0  6G24G10G18G23G32G15
 129735561.979 6 101092737.245 6  24687856.394    24687879.165         647.652  
       504.633          39.000          39.000  
 109148272.243 7  85050669.802 6  20770226.511    20770242.068         427.754  
       333.184          45.000          41.000  
 113871077.000 7  88730774.339 7  21668946.444    21668961.979       -1465.402  
     -1141.902          45.000          45.000  
 110542973.048 7  86137439.893 7  21035629.211    21035643.705       -1513.590  
     -1179.656          43.000          42.000  
 118004171.745 7  91951388.120 6  22455448.153    22455468.492        3209.621  
      2500.824          44.000          41.000  
 127261833.809 6  99165143.559 6  24217123.059    24217141.381       -3062.617  
     -2386.500          36.000          40.000  
 24  1 10  3 14  4.2000000  0  6G24G10G18G23G32G15
 129735497.242 6 101092686.779 6  24687844.239    24687866.505         647.434  
       504.637          39.000          39.000  
 109148229.501 7  85050636.498 6  20770218.354    20770234.505         427.656  
       333.211          45.000          41.000  
 113871223.566 7  88730888.540 7  21668974.507    21668990.181       -1465.586  
     -1142.066          45.000          45.000  
 110543124.423 7  86137557.829 7  21035657.907    21035672.225       -1514.000  
     -1179.848          43.000          42.000  
 118003850.807 7  91951138.019 6  22455387.034    22455407.478        3209.434  
      2500.801          44.000          41.000  
 127262140.060 6  99165382.237 6  24217181.478    24217199.746       -3062.535  
     -2386.688          36.000          41.000  
 24  1 10  3 14  4.3000000  0  6G24G10G18G23G32G15
 129735432.495 6 101092636.339 6  24687831.918    24687854.187         647.484  
       504.332          38.000          39.000  
 109148186.755 7  85050603.192 6  20770210.220    20770226.371         427.582  
       333.055          45.000          41.000  
 113871370.127 7  88731002.768 7  21669002.396    21669018.076       -1465.535  
     -1142.078          45.000          45.000  
 110543275.829 7  86137675.803 7  21035686.719    21035701.035       -1513.945  
     -1179.668          43.000          42.000  
 118003529.874 7  91950887.961 6  22455325.962    22455346.411        3209.402  
      2500.652          44.000          41.000  
 127262446.378 6  99165620.885 6  24217239.768    24217258.027       -3062.965  
     -2386.559          36.000          41.000  
 24  1 10  3 14  4.4000000  0  6G24G10G18G23G32G15
 129735367.793 6 101092585.923 6  24687819.489    24687841.726         647.312  
       504.199          39.000          39.000  
 109148144.013 7  85050569.893 6  20770202.188    20770218.091         427.441  
       333.012          45.000          41.000  
 113871516.724 7  88731116.994 7  21669030.246    21669045.729       -1465.672  
     -1142.168          45.000          45.000  
 110543427.249 7  86137793.797 7  21035715.431    21035729.773       -1514.047  
     -1179.754          43.000          42.000  
 118003208.932 7  91950637.865 6  22455265.147    22455285.741        3209.277  
      2500.660          44.000          41.000  
 127262752.714 6  99165859.559 6  24217298.054    24217316.469       -3063.191  
     -2386.625          36.000          41.000  
 24  1 10  3 14  4.5000000  0  6G24G10G18G23G32G15
 129735303.074 6 101092535.487 6  24687807.173    24687829.409         647.234  
       504.441          39.000          39.000  
 109148101.290 7  85050536.586 6  20770194.058    20770209.957         427.371  
       332.934          45.000          41.000  
 113871663.284 7  88731231.192 7  21669058.136    21669073.618       -1465.770  
     -1142.262          45.000          45.000  
 110543578.671 7  86137911.772 7  21035744.246    21035758.583       -1514.082  
     -1179.812          42.000          42.000  
 118002888.026 7  91950387.803 6  22455204.080    22455224.674        3209.281  
      2500.719          44.000          41.000  
 127263059.013 6  99166098.203 6  24217356.341    24217374.749       -3063.047  
     -2386.527          36.000          41.000  
 24  1 10  3 14  4.6000000  0  6G24G10G18G23G32G15
 129735238.352 6 101092485.071 6  24687794.638    24687817.433         647.230  
       504.211          39.000          39.000  
 109148058.583 7  85050503.297 6  20770186.298    20770202.046         427.188  
       332.887          45.000          41.000  
 113871809.900 7  88731345.436 7  21669085.989    21669101.752       -1465.898  
     -1142.371          45.000          45.000  
 110543730.090 7  86138029.776 7  21035773.107    21035787.057       -1514.156  
     -1179.969          43.000          42.000  
 118002567.125 7  91950137.758 6  22455142.898    22455163.376        3208.973  
      2500.441          44.000          41.000  
 127263365.292 6  99166336.892 6  24217414.944    24217432.883       -3062.926  
     -2386.766          36.000          41.000  
 24  1 10  3 14  4.7000000  0  6G24G10G18G23G32G15
 129735173.707 6 101092434.668 6  24687782.336    24687805.124         646.855  
       504.070          39.000          39.000  
 109148015.889 7  85050470.058 6  20770178.174    20770193.929         426.980  
       332.477          45.000          41.000  
 113871956.532 7  88731459.714 7  21669113.892    21669129.660       -1466.141  
     -1142.699          45.000          45.000  
 110543881.552 7  86138147.777 7  21035801.929    21035815.874       -1514.492  
     -1180.160          43.000          42.000  
 118002246.276 7  91949887.739 6  22455081.842    22455102.318        3208.863  
      2500.219          44.000          41.000  
 127263671.639 6  99166575.628 6  24217473.240    24217491.185       -3063.191  
     -2387.234          36.000          41.000  
 24  1 10  3 14  4.8000000  0  6G24G10G18G23G32G15
 129735109.032 6 101092384.299 6  24687770.021    24687793.183         646.781  
       503.727          39.000          39.000  
 109147973.231 7  85050436.819 6  20770170.017    20770186.179         426.777  
       332.383          45.000          41.000  
 113872103.168 7  88731573.976 7  21669142.061    21669157.579       -1466.324  
     -1142.703          45.000          45.000  
 110544033.012 7  86138265.799 7  21035830.985    21035845.119       -1514.715  
     -1180.356          43.000          42.000  
 118001925.414 7  91949637.750 6  22455020.573    22455040.823        3208.766  
      2500.195          44.000          41.000  
 127263978.037 6  99166814.328 6  24217531.897    24217549.720       -3063.633  
     -2387.156          36.000          41.000  
 24  1 10  3 14  4.9000000  0  6G24G10G18G23G32G15
 129735044.388 6 101092333.938 6  24687757.720    24687780.884         646.555  
       503.473          40.000          38.000  
 109147930.609 7  85050403.587 6  20770161.906    20770178.063         426.484  
       332.152          45.000          41.000  
 113872249.873 7  88731688.270 7  21669169.978    21669185.491       -1466.676  
     -1143.020          45.000          45.000  
 110544184.515 7  86138383.879 7  21035859.815    21035873.955       -1514.801  
     -1180.652          43.000          42.000  
 118001604.581 7  91949387.714 6  22454959.521    22454979.762        3208.285  
      2499.730          44.000          41.000  
 127264284.413 6  99167053.072 6  24217590.199    24217608.024       -3063.742  
     -2387.398          36.000          41.000  
 24  1 10  3 14  5.0000000  0  6G24G10G18G23G32G15
 129734979.763 6 101092283.587 6  24687745.454    24687768.330         646.316  
       503.469          40.000          38.000  
 109147887.959 7  85050370.402 6  20770153.361    20770169.881         426.395  
       332.148          45.000          41.000  
 113872396.547 7  88731802.572 7  21669197.929    21669213.233       -1466.727  
     -1142.922          45.000          45.000  
 110544336.040 7  86138501.929 7  21035888.845    21035902.581       -1515.133  
     -1180.703          42.000          42.000  
 118001283.780 7  91949137.768 6  22454898.553    22454918.738        3208.297  
      2499.910          44.000          41.000  
 127264590.811 6  99167291.812 6  24217648.410    24217666.561       -3063.719  
     -2387.445          36.000          41.000  
 24  1 10  3 14  5.1000000  0  6G24G10G18G23G32G15
 129734915.150 6 101092233.227 6  24687733.158    24687756.032         646.348  
       503.633          40.000          39.000  
 109147845.336 7  85050337.153 6  20770145.250    20770161.762         426.336  
       332.328          45.000          41.000  
 113872543.241 7  88731916.870 7  21669225.844    21669241.146       -1466.797  
     -1142.988          45.000          45.000  
 110544487.548 7  86138619.990 7  21035917.676    21035931.412       -1514.867  
     -1180.344          42.000          42.000  
 118000962.961 7  91948887.761 6  22454837.503    22454857.684        3208.219  
      2499.871          44.000          41.000  
 127264897.156 6  99167530.569 6  24217706.706    24217724.868       -3063.676  
     -2387.555          37.000          40.000  
 24  1 10  3 14  5.2000000  0  6G24G10G18G23G32G15
 129734850.550 6 101092182.917 6  24687721.107    24687743.863         646.082  
       503.281          40.000          39.000  
 109147802.720 7  85050303.933 6  20770137.195    20770153.789         426.234  
       332.176          45.000          41.000  
 113872689.929 7  88732031.182 7  21669253.601    21669269.015       -1466.918  
     -1143.277          45.000          45.000  
 110544639.065 7  86138738.060 7  21035946.313    21035960.246       -1515.145  
     -1180.848          42.000          42.000  
 118000642.172 7  91948637.797 6  22454776.482    22454796.773        3207.992  
      2499.664          44.000          41.000  
 127265203.551 6  99167769.321 6  24217764.972    24217783.330       -3063.836  
     -2387.473          36.000          40.000  
 24  1 10  3 14  5.3000000  0  6G24G10G18G23G32G15
 129734785.959 6 101092132.571 6  24687708.816    24687731.568         646.066  
       503.449          40.000          39.000  
 109147760.118 7  85050270.768 6  20770129.088    20770145.690         426.160  
       331.840          45.000          41.000  
 113872836.641 7  88732145.505 7  21669281.520    21669296.933       -1466.879  
     -1143.004          45.000          45.000  
 110544790.589 7  86138856.098 7  21035975.147    21035989.072       -1515.266  
     -1180.586          42.000          42.000  
 118000321.355 7  91948387.813 6  22454715.433    22454735.724        3208.039  
      2499.723          44.000          41.000  
 127265509.982 5  99168008.085 6  24217823.284    24217841.638       -3064.098  
     -2387.531          35.000          40.000  
 24  1 10  3 14  5.4000000  0  6G24G10G18G23G32G15
 129734721.367 6 101092082.250 6  24687697.001    24687719.208         645.945  
       503.168          40.000          39.000  
 109147717.514 7  85050237.547 6  20770121.145    20770137.710         426.086  
       331.984          45.000          41.000  
 113872983.331 7  88732259.808 7  21669309.309    21669324.910       -1466.984  
     -1143.219          45.000          45.000  
 110544942.146 7  86138974.203 7  21036003.761    21036018.188       -1515.234  
     -1180.727          42.000          42.000  
 118000000.560 7  91948137.846 6  22454654.341    22454674.375        3208.098  
      2499.621          44.000          41.000  
 127265816.442 5  99168246.829 6  24217881.203    24217899.614       -3064.277  
     -2387.559          35.000          40.000  
 24  1 10  3 14  5.5000000  0  6G24G10G18G23G32G15
 129734656.789 6 101092031.926 6  24687684.712    24687706.919         645.887  
       503.309          40.000          39.000  
 109147674.926 7  85050204.374 6  20770113.041    20770129.609         426.020  
       331.812          45.000          41.000  
 113873130.073 7  88732374.135 7  21669337.233    21669352.830       -1467.195  
     -1143.238          45.000          45.000  
 110545093.680 7  86139092.317 7  21036032.597    21036047.033       -1515.277  
     -1180.875          42.000          42.000  
 117999679.835 7  91947887.930 6  22454593.309    22454613.343        3207.711  
      2499.410          44.000          41.000  
 127266122.840 5  99168485.619 6  24217939.508    24217957.929       -3064.238  
     -2387.684          35.000          40.000  
 24  1 10  3 14  5.6000000  0  6G24G10G18G23G32G15
 129734592.255 6 101091981.631 6  24687672.463    24687694.714         645.590  
       503.000          40.000          39.000  
 109147632.381 7  85050171.210 6  20770104.991    20770121.237         425.688  
       331.488          45.000          41.000  
 113873276.830 7  88732488.508 7  21669365.160    21669380.745       -1467.352  
     -1143.543          45.000          45.000  
 110545245.273 7  86139210.419 7  21036061.413    21036075.953       -1515.555  
     -1180.988          42.000          42.000  
 117999359.084 7  91947638.001 6  22454532.248    22454552.175        3207.555  
      2499.207          44.000          41.000  
 127266429.278 5  99168724.399 6  24217997.751    24218016.468       -3064.391  
     -2388.027          35.000          41.000  
 24  1 10  3 14  5.7000000  0  6G24G10G18G23G32G15
 129734527.727 6 101091931.352 6  24687660.184    24687682.436         645.418  
       502.914          41.000          39.000  
 109147589.844 7  85050138.066 6  20770096.897    20770113.142         425.492  
       331.445          45.000          41.000  
 113873423.593 7  88732602.861 7  21669393.088    21669408.671       -1467.652  
     -1143.734          45.000          45.000  
 110545396.868 7  86139328.568 7  21036090.261    21036104.806       -1515.738  
     -1181.324          43.000          42.000  
 117999038.350 7  91947388.084 6  22454471.215    22454491.143        3207.371  
      2499.152          44.000          41.000  
 127266735.784 5  99168963.221 6  24218056.077    24218074.790       -3064.547  
     -2387.922          35.000          41.000  
 24  1 10  3 14  5.8000000  0  6G24G10G18G23G32G15
 129734463.239 6 101091881.109 6  24687647.897    24687670.017         645.258  
       502.508          41.000          39.000  
 109147547.320 7  85050104.935 6  20770088.703    20770104.754         425.340  
       331.242          45.000          41.000  
 113873570.411 7  88732717.270 7  21669421.065    21669436.760       -1467.789  
     -1143.891          45.000          45.000  
 110545548.450 7  86139446.636 7  21036119.074    21036133.655       -1516.039  
     -1181.410          43.000          42.000  
 117998717.647 7  91947138.180 6  22454409.976    22454429.918        3207.246  
      2498.957          44.000          41.000  
 127267042.255 5  99169202.026 6  24218114.092    24218132.781       -3064.754  
     -2388.289          35.000          41.000  
 24  1 10  3 14  5.9000000  0  6G24G10G18G23G32G15
 129734398.772 6 101091830.866 6  24687635.629    24687657.747         644.918  
       502.422          41.000          39.000  
 109147504.833 7  85050071.817 6  20770080.618    20770096.667         425.082  
       331.027          45.000          41.000  
 113873717.200 7  88732831.649 7  21669448.998    21669464.692       -1467.961  
     -1143.988          45.000          45.000  
 110545700.096 7  86139564.825 7  21036147.932    21036162.518       -1516.172  
     -1181.617          43.000          42.000  
 117998396.969 7  91946888.310 6  22454348.953    22454368.898        3206.996  
      2498.652          44.000          41.000  
 127267348.760 6  99169440.883 6  24218172.418    24218191.112       -3064.836  
     -2388.551          36.000          41.000  
 24  1 10  3 14  6.0000000  0  6G24G10G18G23G32G15
 129734334.269 6 101091780.605 6  24687623.245    24687645.528         644.922  
       502.473          40.000          39.000  
 109147462.329 7  85050038.713 6  20770072.499    20770088.528         425.020  
       331.309          45.000          41.000  
 113873864.009 7  88732946.055 7  21669477.170    21669492.788       -1468.086  
     -1143.957          45.000          45.000  
 110545851.713 7  86139682.959 7  21036176.979    21036191.461       -1516.270  
     -1181.504          43.000          42.000  
 117998076.294 7  91946638.428 6  22454287.993    22454307.608        3206.871  
      2498.891          44.000          41.000  
 127267655.257 6  99169679.729 6  24218231.039    24218249.363       -3064.867  
     -2388.371          36.000          41.000  
 24  1 10  3 14  6.1000000  0  6G24G10G18G23G32G15
 129734269.823 6 101091730.373 6  24687610.982    24687633.261         644.648  
       502.285          40.000          39.000  
 109147419.871 7  85050005.614 6  20770064.419    20770080.445         424.898  
       330.934          45.000          41.000  
 113874010.847 7  88733060.460 7  21669505.112    21669520.726       -1468.184  
     -1144.211          45.000          45.000  
 110546003.359 7  86139801.130 7  21036205.836    21036220.320       -1516.250  
     -1181.641          43.000          42.000  
 117997755.612 7  91946388.532 6  22454226.969    22454246.581        3206.840  
      2498.648          44.000          41.000  
 127267961.776 5  99169918.560 6  24218289.368    24218307.688       -3065.078  
     -2388.418          35.000          41.000  
 24  1 10  3 14  6.2000000  0  6G24G10G18G23G32G15
 129734205.439 6 101091680.176 6  24687598.691    24687620.619         644.371  
       502.027          39.000          39.000  
 109147377.404 7  85049972.523 6  20770056.440    20770072.746         424.680  
       330.883          45.000          41.000  
 113874157.702 7  88733174.894 7  21669533.268    21669548.587       -1468.457  
     -1144.363          45.000          45.000  
 110546155.038 7  86139919.331 7  21036234.731    21036249.358       -1516.465  
     -1181.727          43.000          42.000  
 117997434.956 7  91946138.687 6  22454166.075    22454185.949        3206.602  
      2498.410          44.000          41.000  
 127268268.332 5  99170157.433 6  24218348.032    24218365.757       -3065.461  
     -2388.801          35.000          41.000  
 24  1 10  3 14  6.3000000  0  6G24G10G18G23G32G15
 129734141.001 6 101091629.946 6  24687586.428    24687608.353         644.242  
       502.195          38.000          39.000  
 109147334.953 7  85049939.452 6  20770048.362    20770064.670         424.609  
       330.777          45.000          41.000  
 113874304.551 7  88733289.323 7  21669561.213    21669576.531       -1468.410  
     -1144.371          45.000          45.000  
 110546306.707 7  86140037.499 7  21036263.593    21036278.216       -1516.656  
     -1181.910          43.000          42.000  
 117997114.316 7  91945888.829 6  22454105.060    22454124.931        3206.500  
      2498.566          44.000          41.000  
 127268574.856 6  99170396.298 6  24218406.362    24218424.091       -3065.352  
     -2388.617          36.000          41.000  
 24  1 10  3 14  6.4000000  0  6G24G10G18G23G32G15
 129734076.582 6 101091579.771 6  24687574.186    24687595.787         644.156  
       501.766          38.000          39.000  
 109147292.516 7  85049906.381 6  20770040.372    20770057.125         424.469  
       330.742          45.000          41.000  
 113874451.440 7  88733403.784 7  21669589.141    21669604.390       -1468.547  
     -1144.363          45.000          45.000  
 110546458.380 7  86140155.678 7  21036292.463    21036306.943       -1516.809  
     -1181.981          43.000          42.000  
 117996793.715 7  91945639.004 6  22454044.153    22454064.211        3206.367  
      2498.426          44.000          41.000  
 127268881.432 5  99170635.158 6  24218464.693    24218482.571       -3065.492  
     -2388.637          35.000          40.000  
 24  1 10  3 14  6.5000000  0  6G24G10G18G23G32G15
 129734012.205 6 101091529.599 6  24687561.935    24687583.534         644.020  
       501.852          38.000          38.000  
 109147250.090 7  85049873.318 6  20770032.299    20770049.051         424.328  
       330.449          45.000          41.000  
 113874598.319 7  88733518.234 7  21669617.092    21669632.340       -1468.770  
     -1144.590          45.000          45.000  
 110546610.069 7  86140273.867 7  21036321.328    21036335.806       -1516.879  
     -1182.035          43.000          42.000  
 117996473.107 7  91945389.208 6  22453983.143    22454003.208        3206.195  
      2498.113          44.000          41.000  
 127269187.983 5  99170874.062 6  24218523.028    24218540.914       -3065.469  
     -2388.953          35.000          40.000  
 24  1 10  3 14  6.6000000  0  6G24G10G18G23G32G15
 129733947.778 6 101091479.443 6  24687549.573    24687571.137         644.145  
       501.617          39.000          38.000  
 109147207.681 7  85049840.281 6  20770024.369    20770040.850         424.203  
       330.523          45.000          41.000  
 113874745.202 7  88733632.690 7  21669644.550    21669660.252       -1468.926  
     -1144.750          45.000          45.000  
 110546761.795 7  86140392.121 7  21036349.834    21036364.216       -1516.875  
     -1182.090          43.000          42.000  
 117996152.489 7  91945139.349 6  22453922.421    22453942.072        3206.031  
      2498.199          44.000          41.000  
 127269494.592 5  99171112.953 6  24218581.288    24218599.371       -3065.910  
     -2388.922          35.000          40.000  
 24  1 10  3 14  6.7000000  0  6G24G10G18G23G32G15
 129733883.402 6 101091429.291 6  24687537.323    24687558.890         643.949  
       501.285          40.000          38.000  
 109147165.302 7  85049807.251 6  20770016.305    20770032.784         424.047  
       330.297          45.000          41.000  
 113874892.094 7  88733747.154 7  21669672.503    21669688.205       -1468.984  
     -1144.699          45.000          45.000  
 110546913.500 7  86140510.345 7  21036378.702    21036393.088       -1517.000  
     -1182.348          43.000          42.000  
 117995831.910 7  91944889.557 6  22453861.416    22453881.071        3205.969  
      2498.000          44.000          41.000  
 127269801.188 5  99171351.856 6  24218639.631    24218657.713       -3065.793  
     -2389.102          35.000          40.000  
 24  1 10  3 14  6.8000000  0  6G24G10G18G23G32G15
 129733819.047 6 101091379.171 6  24687525.209    24687546.814         643.824  
       501.438          40.000          38.000  
 109147122.948 7  85049774.274 6  20770008.089    20770024.863         423.797  
       329.891          45.000          41.000  
 113875039.051 7  88733861.685 7  21669700.530    21669716.120       -1469.168  
     -1145.023          45.000          45.000  
 110547065.227 7  86140628.567 7  21036407.622    21036422.787       -1517.273  
     -1182.461          43.000          42.000  
 117995511.356 7  91944639.750 6  22453800.425    22453820.300        3205.742  
      2497.828          44.000          41.000  
 127270107.756 5  99171590.769 6  24218697.703    24218715.972       -3065.852  
     -2389.195          35.000          40.000  
 24  1 10  3 14  6.9000000  0  6G24G10G18G23G32G15
 129733754.707 6 101091329.061 6  24687512.966    24687534.577         643.574  
       500.980          41.000          38.000  
 109147080.586 7  85049741.247 6  20770000.027    20770016.798         423.602  
       330.160          45.000          41.000  
 113875186.016 7  88733976.177 7  21669728.497    21669744.080       -1469.438  
     -1145.090          45.000          45.000  
 110547216.982 7  86140746.816 7  21036436.500    21036451.664       -1517.562  
     -1182.547          42.000          42.000  
 117995190.827 7  91944390.007 6  22453739.430    22453759.310        3205.508  
      2497.688          44.000          41.000  
 127270414.447 5  99171829.711 6  24218756.065    24218774.324       -3066.293  
     -2389.434          35.000          40.000  
 24  1 10  3 14  7.0000000  0  6G24G10G18G23G32G15
 129733690.379 7 101091278.913 6  24687500.725    24687523.017         643.395  
       501.332          42.000          39.000  
 109147038.257 7  85049708.271 6  20769991.793    20770008.268         423.449  
       329.695          45.000          41.000  
 113875332.980 7  88734090.698 7  21669756.619    21669772.071       -1469.586  
     -1145.262          45.000          45.000  
 110547368.773 7  86140865.065 7  21036465.213    21036480.737       -1517.688  
     -1182.512          42.000          42.000  
 117994870.266 7  91944140.224 6  22453678.078    22453698.217        3205.371  
      2497.570          44.000          41.000  
 127270721.094 6  99172068.665 6  24218814.402    24218832.586       -3066.434  
     -2389.441          36.000          40.000  
 24  1 10  3 14  7.1000000  0  6G24G10G18G23G32G15
 129733626.075 7 101091228.781 6  24687488.488    24687510.775         643.141  
       501.141          42.000          39.000  
 109146995.953 7  85049675.298 6  20769983.743    20770000.216         423.309  
       329.785          45.000          41.000  
 113875479.978 7  88734205.246 7  21669784.592    21669800.045       -1469.793  
     -1145.371          45.000          45.000  
 110547520.589 7  86140983.407 7  21036494.102    21036509.638       -1517.656  
     -1182.895          43.000          42.000  
 117994549.771 7  91943890.489 6  22453617.090    22453637.229        3205.195  
      2497.359          44.000          41.000  
 127271027.762 6  99172307.618 6  24218872.759    24218890.940       -3066.461  
     -2389.562          36.000          40.000  
 24  1 10  3 14  7.2000000  0  6G24G10G18G23G32G15
 129733561.804 7 101091178.730 6  24687476.367    24687498.427         642.949  
       500.828          42.000          39.000  
 109146953.654 7  85049642.340 6  20769975.717    20769992.222         423.027  
       329.418          45.000          41.000  
 113875626.987 7  88734319.792 7  21669812.692    21669827.862       -1470.078  
     -1145.641          45.000          45.000  
 110547672.401 7  86141101.704 7  21036523.179    21036538.261       -1518.031  
     -1183.059          43.000          42.000  
 117994229.292 7  91943640.765 6  22453555.902    22453576.080        3204.945  
      2497.262          44.000          41.000  
 127271334.456 6  99172546.612 6  24218931.637    24218949.321       -3066.840  
     -2389.824          36.000          40.000  
 24  1 10  3 14  7.3000000  0  6G24G10G18G23G32G15
 129733497.521 7 101091128.627 6  24687464.134    24687486.191         642.902  
       500.848          42.000          39.000  
 109146911.369 7  85049609.403 6  20769967.670    20769984.178         423.016  
       329.559          45.000          41.000  
 113875774.004 7  88734434.358 7  21669840.669    21669855.840       -1469.996  
     -1145.520          45.000          45.000  
 110547824.226 7  86141219.999 7  21036552.070    21036567.150       -1518.078  
     -1182.844          43.000          42.000  
 117993908.833 7  91943391.050 6  22453494.920    22453515.097        3204.879  
      2497.285          44.000          41.000  
 127271641.125 6  99172785.595 6  24218989.994    24219007.683       -3066.656  
     -2389.840          36.000          40.000  
 24  1 10  3 14  7.4000000  0  6G24G10G18G23G32G15
 129733433.277 6 101091078.557 6  24687451.862    24687473.885         642.539  
       500.578          41.000          39.000  
 109146869.107 7  85049576.456 6  20769959.472    20769975.898         422.801  
       329.355          45.000          41.000  
 113875921.045 7  88734548.935 7  21669868.650    21669883.649       -1470.305  
     -1145.812          45.000          45.000  
 110547976.062 7  86141338.307 7  21036581.104    21036595.722       -1518.246  
     -1183.289          42.000          42.000  
 117993588.362 7  91943141.339 6  22453434.171    22453454.232        3204.703  
      2497.102          44.000          41.000  
 127271947.860 6  99173024.582 6  24219048.582    24219066.202       -3066.883  
     -2389.930          36.000          40.000  
 24  1 10  3 14  7.5000000  0  6G24G10G18G23G32G15
 129733369.029 6 101091028.499 6  24687439.636    24687461.661         642.512  
       500.512          40.000          40.000  
 109146826.858 7  85049543.536 6  20769951.432    20769967.858         422.695  
       329.223          45.000          41.000  
 113876068.086 7  88734663.504 7  21669896.630    21669911.628       -1470.324  
     -1145.801          45.000          45.000  
 110548127.883 7  86141456.615 7  21036609.995    21036624.614       -1518.418  
     -1183.129          43.000          42.000  
 117993267.903 7  91942891.627 6  22453373.190    22453393.250        3204.547  
      2496.992          44.000          41.000  
 127272254.601 6  99173263.599 6  24219106.953    24219124.573       -3067.180  
     -2390.070          36.000          40.000  
 24  1 10  3 14  7.6000000  0  6G24G10G18G23G32G15
 129733304.816 6 101090978.467 6  24687427.292    24687449.809         642.488  
       500.547          40.000          40.000  
 109146784.609 7  85049510.623 6  20769943.736    20769959.742         422.570  
       329.152          45.000          41.000  
 113876215.170 7  88734778.130 7  21669924.643    21669939.527       -1470.441  
     -1146.008          45.000          45.000  
 110548279.742 7  86141574.954 7  21036638.939    21036653.436       -1518.418  
     -1183.285          43.000          42.000  
 117992947.486 7  91942641.952 6  22453312.217    22453332.409        3204.480  
      2496.883          44.000          41.000  
 127272561.314 6  99173502.615 6  24219165.334    24219183.412       -3067.191  
     -2390.102          36.000          40.000  
 24  1 10  3 14  7.7000000  0  6G24G10G18G23G32G15
 129733240.629 6 101090928.437 6  24687415.078    24687437.592         642.062  
       500.137          39.000          40.000  
 109146742.396 7  85049477.724 6  20769935.703    20769951.708         422.289  
       328.973          45.000          41.000  
 113876362.258 7  88734892.728 7  21669952.633    21669967.513       -1470.711  
     -1146.004          45.000          45.000  
 110548431.630 7  86141693.305 7  21036667.843    21036682.338       -1518.707  
     -1183.590          43.000          42.000  
 117992627.085 7  91942392.294 7  22453251.246    22453271.440        3204.262  
      2496.578          44.000          42.000  
 127272868.026 6  99173741.631 6  24219223.700    24219241.782       -3067.160  
     -2390.242          36.000          40.000  
 24  1 10  3 14  7.8000000  0  6G24G10G18G23G32G15
 129733176.508 6 101090878.452 6  24687402.649    24687425.174         641.781  
       499.977          38.000          40.000  
 109146700.207 7  85049444.849 6  20769927.761    20769943.688         422.055  
       328.707          45.000          41.000  
 113876509.350 7  88735007.346 7  21669980.389    21669995.363       -1470.977  
     -1146.402          45.000          45.000  
 110548583.534 7  86141811.677 7  21036696.843    21036710.925       -1518.902  
     -1183.676          43.000          42.000  
 117992306.712 7  91942142.658 7  22453190.539    22453210.141        3203.957  
      2496.469          44.000          42.000  
 127273174.854 6  99173980.693 6  24219281.923    24219299.890       -3067.785  
     -2390.477          36.000          40.000  
 24  1 10  3 14  7.9000000  0  6G24G10G18G23G32G15
 129733112.347 6 101090828.438 6  24687390.440    24687412.960         641.652  
       500.020          38.000          40.000  
 109146658.019 7  85049411.983 6  20769919.733    20769935.661         421.977  
       328.691          45.000          41.000  
 113876656.464 7  88735121.995 7  21670008.384    21670023.362       -1471.102  
     -1146.434          45.000          45.000  
 110548735.434 7  86141930.015 7  21036725.748    21036739.825       -1519.086  
     -1183.680          43.000          42.000  
 117991986.326 7  91941893.006 7  22453129.571    22453149.173        3203.816  
      2496.242          44.000          42.000  
 127273481.632 6  99174219.746 6  24219340.301    24219358.269       -3067.793  
     -2390.566          36.000          40.000  
 24  1 10  3 14  8.0000000  0  6G24G10G18G23G32G15
 129733048.169 6 101090778.462 6  24687378.219    24687400.568         641.586  
       499.812          38.000          40.000  
 109146615.837 7  85049379.127 6  20769911.667    20769927.481         421.887  
       328.758          45.000          41.000  
 113876803.594 7  88735236.634 7  21670036.296    21670051.147       -1471.070  
     -1146.273          45.000          45.000  
 110548887.370 7  86142048.400 7  21036754.504    21036768.736       -1519.086  
     -1183.684          43.000          42.000  
 117991665.956 7  91941643.359 6  22453068.826    22453088.035        3203.801  
      2496.445          44.000          41.000  
 127273788.453 6  99174458.782 6  24219398.367    24219416.706       -3067.938  
     -2390.395          36.000          40.000  
 24  1 10  3 14  8.1000000  0  6G24G10G18G23G32G15
 129732984.073 6 101090728.466 6  24687366.022    24687388.358         641.289  
       499.789          38.000          40.000  
 109146573.671 7  85049346.251 6  20769903.643    20769919.453         421.730  
       328.527          45.000          41.000  
 113876950.744 7  88735351.296 7  21670064.298    21670079.149       -1471.363  
     -1146.613          45.000          45.000  
 110549039.283 7  86142166.784 7  21036783.413    21036797.646       -1519.277  
     -1183.918          43.000          42.000  
 117991345.627 7  91941393.754 7  22453007.869    22453027.079        3203.531  
      2496.105          44.000          42.000  
 127274095.240 5  99174697.873 6  24219456.746    24219475.095       -3067.871  
     -2390.812          35.000          41.000  
 24  1 10  3 14  8.2000000  0  6G24G10G18G23G32G15
 129732919.930 6 101090678.539 6  24687353.926    24687376.173         641.398  
       499.465          39.000          40.000  
 109146531.532 7  85049313.428 6  20769895.569    20769911.523         421.594  
       328.273          45.000          41.000  
 113877097.891 7  88735465.973 7  21670092.393    21670107.474       -1471.453  
     -1146.707          45.000          45.000  
 110549191.252 7  86142285.224 7  21036812.253    21036826.820       -1519.254  
     -1183.984          43.000          42.000  
 117991025.270 7  91941144.135 7  22452946.595    22452966.455        3203.559  
      2496.188          44.000          42.000  
 127274402.021 6  99174936.938 6  24219515.023    24219533.203       -3067.895  
     -2390.703          36.000          41.000  
 24  1 10  3 14  8.3000000  0  6G24G10G18G23G32G15
 129732855.824 6 101090628.573 6  24687341.727    24687363.971         641.164  
       499.551          39.000          40.000  
 109146489.398 7  85049280.595 6  20769887.552    20769903.505         421.391  
       328.375          45.000          40.000  
 113877245.062 7  88735580.625 7  21670120.398    21670135.473       -1471.578  
     -1146.633          45.000          45.000  
 110549343.193 7  86142403.594 7  21036841.167    21036855.727       -1519.504  
     -1184.023          43.000          42.000  
 117990704.964 7  91940894.541 7  22452885.643    22452905.502        3203.383  
      2496.164          44.000          42.000  
 127274708.864 6  99175176.017 6  24219573.413    24219591.589       -3068.270  
     -2390.855          36.000          41.000  
 24  1 10  3 14  8.4000000  0  6G24G10G18G23G32G15
 129732791.723 6 101090578.619 6  24687329.372    24687351.811         641.137  
       499.535          39.000          39.000  
 109146447.285 7  85049247.787 6  20769879.342    20769895.329         421.348  
       328.266          45.000          40.000  
 113877392.254 7  88735695.333 7  21670148.424    21670163.783       -1471.695  
     -1146.941          45.000          45.000  
 110549495.163 7  86142522.034 7  21036869.843    21036885.050       -1519.469  
     -1184.219          43.000          42.000  
 117990384.632 7  91940644.927 6  22452824.522    22452844.387        3203.148  
      2495.758          44.000          41.000  
 127275015.771 6  99175415.101 6  24219631.910    24219650.530       -3068.629  
     -2390.910          36.000          41.000  
 24  1 10  3 14  8.5000000  0  6G24G10G18G23G32G15
 129732727.682 6 101090528.714 6  24687317.186    24687339.624         640.691  
       498.969          39.000          39.000  
 109146405.210 7  85049215.009 6  20769871.336    20769887.324         420.973  
       327.938          45.000          40.000  
 113877539.456 7  88735810.033 7  21670176.435    21670191.794       -1472.047  
     -1147.219          45.000          45.000  
 110549647.177 7  86142640.468 7  21036898.771    21036913.973       -1519.891  
     -1184.469          43.000          42.000  
 117990064.371 7  91940395.360 6  22452763.578    22452783.440        3203.074  
      2495.793          44.000          41.000  
 127275322.583 6  99175654.251 6  24219690.294    24219708.933       -3068.414  
     -2391.340          36.000          41.000  
 24  1 10  3 14  8.6000000  0  6G24G10G18G23G32G15
 129732663.620 6 101090478.795 6  24687305.058    24687327.566         640.680  
       499.262          40.000          39.000  
 109146363.135 7  85049182.220 6  20769863.415    20769879.223         420.879  
       327.754          45.000          41.000  
 113877686.696 7  88735924.762 7  21670204.384    21670220.054       -1472.148  
     -1147.191          45.000          45.000  
 110549799.191 7  86142758.913 7  21036927.964    21036942.781       -1520.059  
     -1184.520          43.000          42.000  
 117989744.102 7  91940145.826 7  22452702.422    22452722.556        3202.641  
      2495.414          44.000          42.000  
 127275629.515 6  99175893.363 6  24219748.865    24219767.436       -3068.922  
     -2391.293          36.000          40.000  
 24  1 10  3 14  8.7000000  0  6G24G10G18G23G32G15
 129732599.613 6 101090428.903 6  24687292.878    24687315.382         640.395  
       498.969          40.000          39.000  
 109146321.076 7  85049149.431 6  20769855.412    20769871.215         420.645  
       327.695          45.000          41.000  
 113877833.924 7  88736039.479 7  21670232.400    21670248.069       -1472.289  
     -1147.285          45.000          45.000  
 110549951.203 7  86142877.382 7  21036956.891    21036971.713       -1520.031  
     -1184.578          43.000          42.000  
 117989423.827 7  91939896.258 7  22452641.475    22452661.609        3202.691  
      2495.453          44.000          42.000  
 127275936.389 6  99176132.530 6  24219807.261    24219825.843       -3068.742  
     -2391.395          36.000          41.000  
 24  1 10  3 14  8.8000000  0  6G24G10G18G23G32G15
 129732535.572 6 101090379.023 6  24687280.457    24687303.365         640.379  
       498.840          40.000          39.000  
 109146279.017 7  85049116.652 6  20769847.533    20769863.015         420.605  
       327.852          45.000          41.000  
 113877981.167 7  88736154.227 7  21670260.553    21670275.897       -1472.281  
     -1147.352          45.000          45.000  
 110550103.243 7  86142995.850 7  21036985.909    21037000.605       -1520.270  
     -1184.625          42.000          42.000  
 117989103.590 7  91939646.725 7  22452580.615    22452601.249        3202.609  
      2495.414          44.000          42.000  
 127276243.251 6  99176371.651 6  24219866.007    24219883.974       -3068.793  
     -2391.281          36.000          41.000  
 24  1 10  3 14  8.9000000  0  6G24G10G18G23G32G15
 129732471.577 6 101090329.155 6  24687268.279    24687291.186         640.094  
       498.652          40.000          39.000  
 109146237.001 7  85049083.929 6  20769839.538    20769855.024         420.438  
       327.418          45.000          41.000  
 113878128.433 7  88736268.975 7  21670288.577    21670303.919       -1472.574  
     -1147.555          45.000          45.000  
 110550255.289 7  86143114.311 7  21037014.842    21037029.534       -1520.426  
     -1184.848          43.000          42.000  
 117988783.356 7  91939397.181 6  22452519.676    22452540.308        3202.363  
      2495.422          44.000          41.000  
 127276550.232 6  99176610.820 6  24219924.424    24219942.381       -3069.168  
     -2391.547          36.000          40.000  
 24  1 10  3 14  9.0000000  0  6G24G10G18G23G32G15
 129732407.566 6 101090279.314 6  24687255.903    24687278.905         640.164  
       498.625          40.000          39.000  
 109146194.990 7  85049051.199 6  20769831.692    20769847.226         420.199  
       327.223          45.000          41.000  
 113878275.726 7  88736383.754 7  21670316.543    21670331.856       -1472.738  
     -1147.746          45.000          45.000  
 110550407.366 7  86143232.818 7  21037043.727    21037058.436       -1520.645  
     -1185.031          43.000          42.000  
 117988463.157 7  91939147.689 7  22452458.916    22452479.074        3202.172  
      2494.938          44.000          42.000  
 127276857.171 6  99176850.004 6  24219982.410    24220000.464       -3069.305  
     -2391.840          36.000          40.000  
 24  1 10  3 14  9.1000000  0  6G24G10G18G23G32G15
 129732343.612 6 101090229.449 6  24687243.733    24687266.728         639.879  
       498.652          40.000          39.000  
 109146152.987 7  85049018.444 6  20769823.699    20769839.227         420.121  
       327.297          45.000          41.000  
 113878423.000 7  88736498.519 7  21670344.568    21670359.883       -1472.848  
     -1147.613          45.000          45.000  
 110550559.448 7  86143351.338 7  21037072.667    21037087.379       -1520.539  
     -1185.031          43.000          42.000  
 117988142.971 7  91938898.193 7  22452397.987    22452418.145        3202.133  
      2495.051          44.000          42.000  
 127277164.104 6  99177089.178 6  24220040.818    24220058.873       -3069.219  
     -2391.797          36.000          40.000  
 24  1 10  3 14  9.2000000  0  6G24G10G18G23G32G15
 129732279.610 6 101090179.580 6  24687231.491    24687254.182         640.012  
       498.609          40.000          39.000  
 109146110.987 7  85048985.718 6  20769815.620    20769831.352         420.074  
       327.398          45.000          40.000  
 113878570.330 7  88736613.298 7  21670372.729    21670387.757       -1472.898  
     -1147.812          45.000          45.000  
 110550711.518 7  86143469.828 7  21037101.394    21037116.144       -1520.648  
     -1184.949          43.000          42.000  
 117987822.764 7  91938648.661 7  22452337.256    22452357.261        3202.055  
      2495.137          44.000          42.000  
 127277471.062 6  99177328.331 6  24220099.152    24220117.417       -3069.418  
     -2391.586          36.000          40.000  
 24  1 10  3 14  9.3000000  0  6G24G10G18G23G32G15
 129732215.684 6 101090129.765 6  24687219.326    24687242.017         639.605  
       498.109          39.000          39.000  
 109146069.018 7  85048953.026 6  20769807.634    20769823.368         419.840  
       326.965          45.000          41.000  
 113878717.643 7  88736728.104 7  21670400.762    21670415.793       -1473.082  
     -1148.012          45.000          45.000  
 110550863.614 7  86143588.360 7  21037130.337    21037145.091       -1520.926  
     -1185.145          43.000          42.000  
 117987502.586 7  91938399.184 6  22452276.329    22452296.337        3201.797  
      2494.742          44.000          41.000  
 127277778.012 6  99177567.539 6  24220157.562    24220175.834       -3069.613  
     -2391.938          36.000          40.000  
 24  1 10  3 14  9.4000000  0  6G24G10G18G23G32G15
 129732151.783 6 101090079.962 6  24687207.158    24687229.143         639.195  
       498.039          40.000          39.000  
 109146027.085 7  85048920.347 6  20769799.334    20769815.552         419.555  
       326.703          45.000          40.000  
 113878865.005 7  88736842.933 7  21670428.741    21670444.047       -1473.418  
     -1148.402          45.000          45.000  
 110551015.765 7  86143706.887 7  21037159.220    21037173.849       -1521.281  
     -1185.606          43.000          42.000  
 117987182.476 7  91938149.751 6  22452215.445    22452234.883        3201.488  
      2494.527          44.000          41.000  
 127278085.046 6  99177806.771 6  24220215.653    24220234.233       -3069.891  
     -2392.359          36.000          40.000  
 24  1 10  3 14  9.5000000  0  6G24G10G18G23G32G15
 129732087.911 6 101090030.204 6  24687195.004    24687216.992         639.051  
       497.863          40.000          39.000  
 109145985.171 7  85048887.681 6  20769791.358    20769807.575         419.379  
       326.688          45.000          40.000  
 113879012.369 7  88736957.751 7  21670456.784    21670472.086       -1473.629  
     -1148.348          45.000          45.000  
 110551167.911 7  86143825.470 7  21037188.172    21037202.808       -1521.273  
     -1185.680          43.000          42.000  
 117986862.343 7  91937900.309 6  22452154.526    22452173.967        3201.367  
      2494.426          44.000          41.000  
 127278392.014 5  99178045.995 6  24220274.067    24220292.654       -3069.840  
     -2392.348          35.000          40.000  
 24  1 10  3 14  9.6000000  0  6G24G10G18G23G32G15
 129732024.023 6 101089980.409 6  24687183.073    24687204.988         639.004  
       497.855          40.000          39.000  
 109145943.259 7  85048855.030 6  20769783.297    20769799.499         419.234  
       326.680          45.000          40.000  
 113879159.760 7  88737072.597 7  21670484.847    21670499.828       -1473.699  
     -1148.332          45.000          45.000  
 110551320.063 7  86143944.011 7  21037217.134    21037231.835       -1521.445  
     -1185.539          43.000          42.000  
 117986542.249 7  91937650.857 7  22452093.231    22452113.252        3201.152  
      2494.418          44.000          42.000  
 127278699.044 5  99178285.266 6  24220332.399    24220351.165       -3069.941  
     -2392.605          35.000          40.000  
 24  1 10  3 14  9.7000000  0  6G24G10G18G23G32G15
 129731960.121 6 101089930.646 6  24687170.913    24687192.835         639.043  
       497.805          40.000          39.000  
 109145901.330 7  85048822.351 6  20769775.318    20769791.519         419.270  
       326.543          45.000          40.000  
 113879307.144 7  88737187.449 7  21670512.893    21670527.876       -1473.758  
     -1148.453          45.000          45.000  
 110551472.206 7  86144062.577 7  21037246.086    21037260.790       -1521.527  
     -1185.668          43.000          42.000  
 117986222.142 7  91937401.445 7  22452032.317    22452052.343        3201.195  
      2494.434          44.000          42.000  
 127279006.064 5  99178524.503 6  24220390.823    24220409.589       -3070.094  
     -2392.387          35.000          40.000  
 24  1 10  3 14  9.8000000  0  6G24G10G18G23G32G15
 129731896.269 6 101089880.866 6  24687158.965    24687180.506         638.723  
       497.750          40.000          39.000  
 109145859.444 7  85048789.735 6  20769767.605    20769783.319         419.086  
       326.480          45.000          40.000  
 113879454.540 7  88737302.305 7  21670540.950    21670556.152       -1473.914  
     -1148.535          45.000          45.000  
 110551624.409 7  86144181.174 7  21037274.971    21037289.815       -1521.652  
     -1185.754          43.000          42.000  
 117985902.038 7  91937152.000 7  22451971.333    22451991.730        3201.000  
      2494.109          44.000          42.000  
 127279313.188 5  99178763.769 6  24220449.439    24220467.973       -3070.730  
     -2392.559          35.000          40.000  
 24  1 10  3 14  9.9000000  0  6G24G10G18G23G32G15
 129731832.406 6 101089831.123 6  24687146.813    24687168.359         638.617  
       497.469          40.000          39.000  
 109145817.571 7  85048757.079 6  20769759.637    20769775.344         418.785  
       326.152          45.000          41.000  
 113879601.967 7  88737417.187 7  21670569.004    21670584.207       -1474.055  
     -1148.789          45.000          45.000  
 110551776.576 7  86144299.747 7  21037303.927    21037318.772       -1521.738  
     -1185.891          43.000          42.000  
 117985581.970 7  91936902.611 7  22451910.426    22451930.827        3200.812  
      2494.070          44.000          42.000  
 127279620.241 5  99179003.019 6  24220507.869    24220526.401       -3070.547  
     -2392.688          35.000          40.000  
 24  1 10  3 14 10.0000000  0  6G24G10G18G23G32G15
 129731768.588 6 101089781.370 6  24687134.700    24687156.122         638.508  
       497.395          40.000          38.000  
 109145775.699 7  85048724.458 6  20769751.856    20769767.300         418.828  
       326.289          45.000          40.000  
 113879749.371 7  88737532.051 7  21670597.148    21670612.578       -1474.148  
     -1148.746          45.000          45.000  
 110551928.802 7  86144418.374 7  21037332.981    21037347.961       -1521.891  
     -1186.082          43.000          42.000  
 117985261.903 7  91936653.208 7  22451849.652    22451869.819        3200.738  
      2493.902          44.000          42.000  
 127279927.286 5  99179242.304 6  24220566.454    24220584.704       -3070.656  
     -2392.730          35.000          40.000  
 24  1 10  3 14 10.1000000  0  6G24G10G18G23G32G15
 129731704.796 6 101089731.655 6  24687122.561    24687143.982         638.242  
       497.254          40.000          38.000  
 109145733.853 7  85048691.844 6  20769743.893    20769759.335         418.609  
       326.039          45.000          41.000  
 113879896.851 7  88737646.953 7  21670625.213    21670640.639       -1474.410  
     -1148.981          45.000          45.000  
 110552081.016 7  86144536.961 7  21037361.946    21037376.921       -1522.086  
     -1186.145          43.000          42.000  
 117984941.869 7  91936403.833 7  22451788.751    22451808.919        3200.512  
      2493.648          44.000          42.000  
 127280234.353 5  99179481.577 6  24220624.887    24220643.137       -3070.621  
     -2392.848          35.000          41.000  
 24  1 10  3 14 10.2000000  0  6G24G10G18G23G32G15
 129731640.994 6 101089681.937 6  24687110.404    24687131.855         637.980  
       496.988          40.000          38.000  
 109145692.039 7  85048659.272 6  20769735.897    20769751.154         418.328  
       325.832          45.000          41.000  
 113880044.316 7  88737761.876 7  21670653.235    21670668.337       -1474.562  
     -1149.270          45.000          45.000  
 110552233.258 7  86144655.613 7  21037391.253    21037405.405       -1522.281  
     -1186.371          43.000          42.000  
 117984621.841 7  91936154.451 7  22451727.875    22451748.205        3200.305  
      2493.660          44.000          42.000  
 127280541.448 5  99179720.885 6  24220683.372    24220701.648       -3070.727  
     -2393.016          35.000          41.000  
 24  1 10  3 14 10.3000000  0  6G24G10G18G23G32G15
 129731577.254 6 101089632.273 6  24687098.275    24687119.727         637.734  
       496.777          40.000          38.000  
 109145650.232 7  85048626.703 6  20769727.942    20769743.200         418.188  
       325.637          45.000          41.000  
 113880191.804 7  88737876.796 7  21670681.301    21670696.401       -1474.785  
     -1149.211          45.000          45.000  
 110552385.500 7  86144774.218 7  21037420.223    21037434.369       -1522.422  
     -1186.441          43.000          42.000  
 117984301.847 7  91935905.112 7  22451666.983    22451687.314        3200.129  
      2493.418          44.000          42.000  
 127280848.557 5  99179960.206 6  24220741.813    24220760.093       -3070.953  
     -2393.207          35.000          41.000  
 24  1 10  3 14 10.4000000  0  6G24G10G18G23G32G15
 129731513.505 6 101089582.598 6  24687086.526    24687107.502         637.664  
       496.723          39.000          38.000  
 109145608.439 7  85048594.113 6  20769719.864    20769735.125         418.047  
       325.797          45.000          41.000  
 113880339.299 7  88737991.724 7  21670709.306    21670724.124       -1474.879  
     -1149.356          45.000          45.000  
 110552537.776 7  86144892.890 7  21037449.162    21037463.123       -1522.606  
     -1186.496          43.000          42.000  
 117983981.869 7  91935655.770 7  22451606.101    22451626.562        3199.949  
      2493.617          44.000          42.000  
 127281155.708 5  99180199.551 6  24220800.246    24220818.801       -3071.246  
     -2393.371          35.000          41.000  
 24  1 10  3 14 10.5000000  0  6G24G10G18G23G32G15
 129731449.739 6 101089532.938 6  24687074.392    24687095.375         637.637  
       496.605          39.000          38.000  
 109145566.670 7  85048561.586 6  20769711.915    20769727.181         417.805  
       325.207          45.000          41.000  
 113880486.824 7  88738106.683 7  21670737.379    21670752.198       -1475.078  
     -1149.566          45.000          45.000  
 110552690.075 7  86145011.564 7  21037478.143    21037492.105       -1522.801  
     -1186.703          43.000          42.000  
 117983661.888 7  91935406.456 7  22451545.210    22451565.677        3199.809  
      2493.117          44.000          42.000  
 127281462.938 6  99180438.881 6  24220858.710    24220877.248       -3071.781  
     -2393.344          36.000          41.000  
 24  1 10  3 14 10.6000000  0  6G24G10G18G23G32G15
 129731386.036 6 101089483.275 6  24687062.028    24687083.270         637.293  
       496.625          39.000          38.000  
 109145524.923 7  85048529.072 6  20769704.010    20769719.647         417.730  
       325.379          45.000          40.000  
 113880634.353 7  88738221.652 7  21670765.312    21670780.556       -1475.250  
     -1149.703          45.000          45.000  
 110552842.362 7  86145130.234 7  21037507.122    21037521.077       -1522.809  
     -1186.809          43.000          42.000  
 117983341.939 7  91935157.126 7  22451484.240    22451504.484        3199.680  
      2493.148          44.000          42.000  
 127281770.046 5  99180678.229 6  24220917.049    24220935.606       -3071.371  
     -2393.457          35.000          41.000  
 24  1 10  3 14 10.7000000  0  6G24G10G18G23G32G15
 129731322.317 6 101089433.627 6  24687049.902    24687071.145         637.262  
       496.594          40.000          38.000  
 109145483.167 7  85048496.501 6  20769696.064    20769711.693         417.586  
       325.418          45.000          40.000  
 113880781.891 7  88738336.606 7  21670793.388    21670808.629       -1475.359  
     -1149.742          45.000          45.000  
 110552994.660 7  86145248.918 7  21037536.104    21037550.061       -1522.961  
     -1186.731          43.000          42.000  
 117983022.002 7  91934907.824 7  22451423.358    22451443.601        3199.574  
      2493.012          44.000          42.000  
 127282077.192 5  99180917.603 6  24220975.497    24220994.063       -3071.422  
     -2393.672          34.000          41.000  
 24  1 10  3 14 10.8000000  0  6G24G10G18G23G32G15
 129731258.579 6 101089384.003 6  24687037.750    24687059.277         637.289  
       496.219          40.000          38.000  
 109145441.431 7  85048463.980 6  20769687.888    20769703.782         417.496  
       325.383          45.000          40.000  
 113880929.465 7  88738451.606 7  21670821.431    21670836.510       -1475.344  
     -1149.699          45.000          45.000  
 110553146.976 7  86145367.589 7  21037565.010    21037579.526       -1523.164  
     -1186.910          43.000          42.000  
 117982702.048 7  91934658.512 7  22451362.574    22451382.639        3199.449  
      2493.121          44.000          42.000  
 127282384.422 5  99181156.945 6  24221033.836    24221052.568       -3071.848  
     -2393.660          34.000          41.000  
 24  1 10  3 14 10.9000000  0  6G24G10G18G23G32G15
 129731194.917 6 101089334.364 6  24687025.635    24687047.154         636.969  
       496.230          40.000          38.000  
 109145399.722 7  85048431.481 6  20769679.951    20769695.846         417.273  
       325.090          45.000          40.000  
 113881077.030 7  88738566.580 7  21670849.512    21670864.588       -1475.598  
     -1149.910          45.000          45.000  
 110553299.332 7  86145486.315 7  21037594.003    21037608.520       -1523.184  
     -1187.008          43.000          42.000  
 117982382.136 7  91934409.227 7  22451301.697    22451321.761        3199.332  
      2492.738          44.000          42.000  
 127282691.604 5  99181396.329 6  24221092.291    24221111.028       -3071.902  
     -2393.645          34.000          41.000  
 24  1 10  3 14 11.0000000  0  6G24G10G18G23G32G15
 129731131.261 6 101089284.780 6  24687013.506    24687035.296         636.762  
       496.059          40.000          38.000  
 109145358.015 7  85048398.990 6  20769672.210    20769687.888         417.105  
       324.766          45.000          40.000  
 113881224.617 7  88738681.584 7  21670877.620    21670892.533       -1475.895  
     -1150.191          45.000          45.000  
 110553451.674 7  86145605.018 7  21037623.024    21037637.439       -1523.395  
     -1187.234          43.000          42.000  
 117982062.238 7  91934159.965 7  22451240.721    22451260.787        3199.098  
      2492.547          44.000          42.000  
 127282998.857 5  99181635.711 6  24221150.533    24221169.534       -3072.062  
     -2393.785          34.000          41.000  
 24  1 10  3 14 11.1000000  0  6G24G10G18G23G32G15
 129731067.590 6 101089235.164 6  24687001.390    24687023.179         636.719  
       496.133          40.000          38.000  
 109145316.333 7  85048366.518 6  20769664.278    20769679.957         417.004  
       324.910          45.000          40.000  
 113881372.234 7  88738796.623 7  21670905.711    21670920.626       -1475.934  
     -1150.195          45.000          45.000  
 110553604.039 7  86145723.748 7  21037652.018    21037666.434       -1523.598  
     -1187.258          43.000          42.000  
 117981742.361 7  91933910.717 7  22451179.851    22451199.918        3198.984  
      2492.719          44.000          42.000  
 127283306.076 5  99181875.103 6  24221208.994    24221227.996       -3072.305  
     -2393.941          34.000          41.000  
 24  1 10  3 14 11.2000000  0  6G24G10G18G23G32G15
 129731003.938 6 101089185.580 6  24686989.207    24687010.867         636.559  
       496.016          40.000          38.000  
 109145274.658 7  85048334.038 6  20769656.472    20769672.463         416.859  
       324.770          45.000          40.000  
 113881519.842 7  88738911.624 7  21670933.636    21670949.109       -1476.106  
     -1150.145          45.000          45.000  
 110553756.415 7  86145842.478 7  21037681.248    21037695.218       -1523.578  
     -1187.297          43.000          42.000  
 117981422.481 7  91933661.439 7  22451119.182    22451138.948        3198.840  
      2492.520          44.000          42.000  
 127283613.315 5  99182114.518 6  24221267.640    24221286.159       -3072.219  
     -2394.117          34.000          41.000  
 24  1 10  3 14 11.3000000  0  6G24G10G18G23G32G15
 129730940.349 6 101089136.030 6  24686977.107    24686998.766         636.234  
       495.398          40.000          38.000  
 109145233.016 7  85048301.587 6  20769648.548    20769664.538         416.531  
       324.473          45.000          40.000  
 113881667.501 7  88739026.690 7  21670961.734    21670977.209       -1476.305  
     -1150.531          45.000          45.000  
 110553908.816 7  86145961.227 7  21037710.249    21037724.218       -1523.926  
     -1187.645          43.000          42.000  
 117981102.640 7  91933412.241 7  22451058.319    22451078.091        3198.492  
      2492.070          44.000          42.000  
 127283920.551 5  99182353.937 6  24221326.105    24221344.627       -3072.410  
     -2394.246          34.000          41.000  
 24  1 10  3 14 11.4000000  0  6G24G10G18G23G32G15
 129730876.781 6 101089086.486 6  24686964.713    24686986.620         636.000  
       495.598          39.000          38.000  
 109145191.395 7  85048269.156 6  20769640.542    20769656.673         416.461  
       324.426          45.000          40.000  
 113881815.148 7  88739141.739 7  21670989.869    21671005.446       -1476.438  
     -1150.582          46.000          45.000  
 110554061.220 7  86146079.988 7  21037739.149    21037753.353       -1523.981  
     -1187.520          43.000          42.000  
 117980782.804 7  91933162.998 7  22450997.667    22451017.083        3198.465  
      2492.406          44.000          42.000  
 127284227.835 5  99182593.371 6  24221384.743    24221403.053       -3072.660  
     -2394.273          35.000          41.000  
 24  1 10  3 14 11.5000000  0  6G24G10G18G23G32G15
 129730813.185 6 101089036.944 6  24686952.611    24686974.521         635.863  
       495.418          39.000          38.000  
 109145149.784 7  85048236.733 6  20769632.624    20769648.755         416.277  
       324.172          45.000          40.000  
 113881962.823 7  88739256.807 7  21671017.971    21671033.547       -1476.598  
     -1150.652          46.000          45.000  
 110554213.662 7  86146198.765 7  21037768.158    21037782.360       -1524.184  
     -1187.801          43.000          42.000  
 117980463.001 7  91932913.811 7  22450936.810    22450956.229        3198.316  
      2491.910          44.000          42.000  
 127284535.111 5  99182832.834 6  24221443.216    24221461.532       -3072.633  
     -2394.582          35.000          41.000  
 24  1 10  3 14 11.6000000  0  6G24G10G18G23G32G15
 129730749.646 6 101088987.402 6  24686940.505    24686962.056         635.656  
       495.375          39.000          38.000  
 109145108.178 7  85048204.315 6  20769624.542    20769640.861         416.117  
       324.152          45.000          40.000  
 113882110.531 7  88739371.903 7  21671045.977    21671061.538       -1476.789  
     -1150.832          46.000          45.000  
 110554366.089 7  86146317.542 7  21037797.242    21037811.835       -1524.336  
     -1187.934          43.000          42.000  
 117980143.185 7  91932664.616 7  22450875.819    22450895.795        3198.094  
      2491.953          44.000          42.000  
 127284842.470 5  99183072.306 6  24221501.610    24221520.295       -3073.180  
     -2394.688          35.000          40.000  
 24  1 10  3 14 11.7000000  0  6G24G10G18G23G32G15
 129730686.103 6 101088937.886 6  24686928.413    24686949.963         635.527  
       495.051          39.000          38.000  
 109145066.588 7  85048171.900 6  20769616.628    20769632.945         415.953  
       324.062          45.000          40.000  
 113882258.229 7  88739486.993 7  21671074.083    21671089.644       -1476.859  
     -1150.977          46.000          45.000  
 110554518.554 7  86146436.341 7  21037826.255    21037840.847       -1524.465  
     -1188.027          43.000          42.000  
 117979823.407 7  91932415.418 7  22450814.967    22450834.938        3197.988  
      2491.973          44.000          42.000  
 127285149.749 5  99183311.765 6  24221560.084    24221578.773       -3072.910  
     -2394.672          35.000          40.000  
 24  1 10  3 14 11.8000000  0  6G24G10G18G23G32G15
 129730622.559 6 101088888.389 6  24686916.321    24686937.524         635.441  
       495.082          39.000          38.000  
 109145025.011 7  85048139.500 6  20769608.779    20769625.002         415.883  
       323.941          45.000          40.000  
 113882405.936 7  88739602.105 7  21671102.363    21671117.833       -1476.996  
     -1151.035          45.000          45.000  
 110554671.007 7  86146555.138 7  21037855.344    21037869.468       -1524.402  
     -1187.871          43.000          42.000  
 117979503.625 7  91932166.245 7  22450753.935    22450774.166        3197.867  
      2491.816          44.000          42.000  
 127285457.085 5  99183551.251 6  24221618.474    24221636.954       -3073.238  
     -2394.828          35.000          40.000  
 24  1 10  3 14 11.9000000  0  6G24G10G18G23G32G15
 129730559.023 6 101088838.874 6  24686904.230    24686925.432         635.500  
       495.133          39.000          38.000  
 109144983.446 7  85048107.108 6  20769600.869    20769617.091         415.801  
       324.086          45.000          40.000  
 113882553.653 7  88739717.169 7  21671130.473    21671145.933       -1477.106  
     -1150.863          45.000          45.000  
 110554823.483 7  86146673.971 7  21037884.359    21037898.488       -1524.586  
     -1188.113          43.000          42.000  
 117979183.858 7  91931917.086 7  22450693.085    22450713.319        3197.832  
      2491.703          44.000          42.000  
 127285764.390 5  99183790.707 6  24221676.952    24221695.431       -3073.168  
     -2394.676          35.000          40.000  
 24  1 10  3 14 12.0000000  0  6G24G10G18G23G32G15
 129730495.506 6 101088789.362 6  24686892.284    24686913.692         635.301  
       495.086          39.000          38.000  
 109144941.901 7  85048074.742 6  20769593.104    20769609.297         415.582  
       323.738          45.000          40.000  
 113882701.376 7  88739832.308 7  21671158.482    21671174.239       -1477.219  
     -1151.320          45.000          45.000  
 110554975.977 7  86146792.777 7  21037913.605    21037927.064       -1524.766  
     -1188.106          43.000          42.000  
 117978864.106 7  91931667.918 7  22450632.145    22450652.399        3197.668  
      2491.555          44.000          42.000  
 127286071.733 5  99184030.216 6  24221735.586    24221753.773       -3073.363  
     -2394.934          34.000          40.000  
 24  1 10  3 14 12.1000000  0  6G24G10G18G23G32G15
 129730432.023 6 101088739.902 6  24686880.204    24686901.614         635.023  
       494.438          39.000          38.000  
 109144900.382 7  85048042.379 6  20769585.203    20769601.393         415.406  
       323.422          45.000          40.000  
 113882849.169 7  88739947.461 7  21671186.606    21671202.360       -1477.566  
     -1151.465          45.000          45.000  
 110555128.495 7  86146911.642 7  21037942.628    21037956.092       -1524.996  
     -1188.520          43.000          42.000  
 117978544.395 7  91931418.792 7  22450571.306    22450591.560        3197.207  
      2491.223          44.000          42.000  
 127286379.176 5  99184269.720 6  24221794.091    24221812.263       -3073.816  
     -2395.066          34.000          40.000  
 24  1 10  3 14 12.2000000  0  6G24G10G18G23G32G15
 129730368.583 6 101088690.470 6  24686868.202    24686889.807         634.715  
       494.465          40.000          38.000  
 109144858.888 7  85048010.067 6  20769577.393    20769593.229         415.141  
       323.309          45.000          40.000  
 113882996.947 7  88740062.622 7  21671214.774    21671230.390       -1477.652  
     -1151.606          45.000          45.000  
 110555281.013 7  86147030.473 7  21037971.432    21037985.541       -1525.219  
     -1188.590          43.000          42.000  
 117978224.691 7  91931169.668 7  22450510.476    22450530.580        3197.195  
      2491.121          44.000          42.000  
 127286686.529 5  99184509.261 6  24221852.664    24221870.941       -3073.637  
     -2395.379          34.000          40.000  
 24  1 10  3 14 12.3000000  0  6G24G10G18G23G32G15
 129730305.152 6 101088641.015 6  24686856.131    24686877.730         634.520  
       494.516          40.000          38.000  
 109144817.374 7  85047977.692 6  20769569.493    20769585.323         415.090  
       323.469          45.000          40.000  
 113883144.736 7  88740177.778 7  21671242.897    21671258.512       -1477.766  
     -1151.574          45.000          45.000  
 110555433.559 7  86147149.319 7  21038000.461    21038014.565       -1525.270  
     -1188.426          43.000          42.000  
 117977904.978 7  91930920.566 7  22450449.636    22450469.747        3197.070  
      2491.047          44.000          42.000  
 127286993.915 5  99184748.800 6  24221911.157    24221929.438       -3073.770  
     -2395.410          35.000          40.000  
 24  1 10  3 14 12.4000000  0  6G24G10G18G23G32G15
 129730241.684 6 101088591.573 6  24686843.999    24686865.843         634.652  
       494.395          40.000          38.000  
 109144775.889 7  85047945.382 6  20769561.513    20769577.370         415.008  
       323.172          45.000          40.000  
 113883292.531 7  88740292.948 7  21671271.115    21671286.294       -1477.852  
     -1151.535          45.000          45.000  
 110555586.100 7  86147268.188 7  21038029.434    21038043.742       -1525.242  
     -1188.645          43.000          42.000  
 117977585.297 7  91930671.457 7  22450389.030    22450408.678        3196.992  
      2491.059          44.000          42.000  
 127287301.323 6  99184988.305 6  24221969.812    24221987.920       -3073.949  
     -2395.168          36.000          40.000  
 24  1 10  3 14 12.5000000  0  6G24G10G18G23G32G15
 129730178.270 6 101088542.155 6  24686831.932    24686853.775         634.328  
       494.152          41.000          38.000  
 109144734.429 7  85047913.075 6  20769553.623    20769569.480         414.750  
       323.172          45.000          40.000  
 113883440.356 7  88740408.128 7  21671299.246    21671314.422       -1478.156  
     -1152.043          45.000          45.000  
 110555738.642 7  86147387.077 7  21038058.461    21038072.776       -1525.438  
     -1188.824          43.000          42.000  
 117977265.632 7  91930422.353 7  22450328.199    22450347.844        3196.730  
      2490.953          44.000          42.000  
 127287608.778 6  99185227.876 6  24222028.318    24222046.426       -3074.305  
     -2395.504          36.000          41.000  
 24  1 10  3 14 12.6000000  0  6G24G10G18G23G32G15
 129730114.828 6 101088492.738 6  24686820.359    24686841.613         634.383  
       494.184          41.000          38.000  
 109144692.971 7  85047880.772 6  20769545.656    20769561.615         414.652  
       322.961          45.000          40.000  
 113883588.186 7  88740523.316 7  21671327.322    21671342.631       -1478.172  
     -1151.731          45.000          45.000  
 110555891.229 7  86147505.954 7  21038087.334    21038101.791       -1525.668  
     -1188.902          43.000          42.000  
 117976945.960 7  91930173.260 7  22450267.423    22450287.334        3196.727  
      2490.875          44.000          42.000  
 127287916.182 5  99185467.429 6  24222086.909    24222105.013       -3074.098  
     -2395.613          35.000          40.000  
 24  1 10  3 14 12.7000000  0  6G24G10G18G23G32G15
 129730051.447 6 101088443.348 6  24686808.298    24686829.551         634.121  
       494.016          41.000          38.000  
 109144651.547 7  85047848.491 6  20769537.773    20769553.731         414.426  
       322.660          45.000          40.000  
 113883736.035 7  88740638.535 7  21671355.457    21671370.768       -1478.488  
     -1152.262          45.000          45.000  
 110556043.828 7  86147624.864 7  21038116.372    21038130.831       -1525.871  
     -1189.090          43.000          42.000  
 117976626.353 7  91929924.216 7  22450206.603    22450226.514        3196.441  
      2490.625          44.000          42.000  
 127288223.681 5  99185707.020 6  24222145.424    24222163.524       -3074.637  
     -2395.805          35.000          40.000  
 24  1 10  3 14 12.8000000  0  6G24G10G18G23G32G15
 129729988.074 6 101088393.995 6  24686796.325    24686817.671         633.855  
       493.633          41.000          38.000  
 109144610.142 7  85047816.229 6  20769529.855    20769546.048         414.184  
       322.805          45.000          40.000  
 113883883.914 7  88740753.751 7  21671383.628    21671399.054       -1478.629  
     -1152.277          45.000          45.000  
 110556196.449 7  86147743.809 7  21038145.353    21038159.777       -1525.922  
     -1189.320          43.000          42.000  
 117976306.749 7  91929675.176 7  22450145.660    22450165.907        3196.250  
      2490.418          44.000          42.000  
 127288531.174 5  99185946.608 6  24222203.797    24222221.979       -3074.867  
     -2396.023          35.000          40.000  
 24  1 10  3 14 12.9000000  0  6G24G10G18G23G32G15
 129729924.723 6 101088344.621 6  24686784.269    24686805.613         633.680  
       493.652          41.000          38.000  
 109144568.743 7  85047783.967 6  20769521.977    20769538.169         414.031  
       322.484          45.000          40.000  
 113884031.812 7  88740869.000 7  21671411.772    21671427.199       -1478.820  
     -1152.481          45.000          45.000  
 110556349.102 7  86147862.767 7  21038174.401    21038188.827       -1526.164  
     -1189.375          43.000          42.000  
 117975987.159 7  91929426.158 7  22450084.844    22450105.094        3195.992  
      2490.227          45.000          42.000  
 127288838.633 5  99186186.214 6  24222262.305    24222280.493       -3074.668  
     -2396.066          35.000          40.000  
 24  1 10  3 14 13.0000000  0  6G24G10G18G23G32G15
 129729861.390 6 101088295.288 6  24686772.186    24686793.300         633.457  
       493.402          41.000          38.000  
 109144527.372 7  85047751.724 6  20769514.159    20769530.139         413.859  
       322.434          45.000          40.000  
 113884179.724 7  88740984.259 7  21671440.005    21671455.205       -1478.922  
     -1152.492          45.000          45.000  
 110556501.722 7  86147981.651 7  21038203.475    21038218.212       -1526.406  
     -1189.363          43.000          42.000  
 117975667.553 7  91929177.094 6  22450024.017    22450043.880        3195.898  
      2490.191          44.000          41.000  
 127289146.149 5  99186425.822 6  24222321.042    24222338.672       -3074.691  
     -2396.215          35.000          40.000  
 24  1 10  3 14 13.1000000  0  6G24G10G18G23G32G15
 129729798.084 6 101088245.959 6  24686760.139    24686781.253         633.297  
       493.480          41.000          38.000  
 109144486.013 7  85047719.518 6  20769506.289    20769522.274         413.738  
       322.309          45.000          40.000  
 113884327.651 7  88741099.533 7  21671468.155    21671483.356       -1479.039  
     -1152.617          45.000          45.000  
 110556654.411 7  86148100.654 7  21038232.531    21038247.273       -1526.500  
     -1189.555          43.000          42.000  
 117975348.010 7  91928928.104 7  22449963.210    22449983.074        3195.785  
      2490.086          44.000          42.000  
 127289453.654 5  99186665.451 6  24222379.558    24222397.192       -3075.004  
     -2396.191          34.000          40.000  
 24  1 10  3 14 13.2000000  0  6G24G10G18G23G32G15
 129729734.800 6 101088196.636 6  24686747.909    24686769.372         633.062  
       493.254          40.000          38.000  
 109144444.677 7  85047687.307 6  20769498.470    20769514.509         413.582  
       322.180          45.000          40.000  
 113884475.576 7  88741214.787 7  21671496.320    21671511.503       -1479.324  
     -1152.785          45.000          45.000  
 110556807.072 7  86148219.616 7  21038261.613    21038276.559       -1526.535  
     -1189.707          43.000          42.000  
 117975028.452 7  91928679.087 7  22449902.205    22449921.980        3195.535  
      2489.840          44.000          42.000  
 127289761.211 5  99186905.104 6  24222438.006    24222455.710       -3075.254  
     -2396.438          34.000          40.000  
 24  1 10  3 14 13.3000000  0  6G24G10G18G23G32G15
 129729671.531 6 101088147.341 6  24686735.870    24686757.334         632.773  
       492.934          40.000          38.000  
 109144403.352 7  85047655.087 6  20769490.606    20769506.641         413.293  
       322.000          45.000          40.000  
 113884623.539 7  88741330.083 7  21671524.476    21671539.659       -1479.508  
     -1152.984          45.000          45.000  
 110556959.770 7  86148338.610 7  21038290.670    21038305.619       -1526.781  
     -1189.875          43.000          42.000  
 117974708.940 7  91928430.126 7  22449841.404    22449861.182        3195.375  
      2489.816          44.000          42.000  
 127290068.758 5  99187144.753 6  24222496.531    24222514.234       -3075.352  
     -2396.605          34.000          40.000  
 24  1 10  3 14 13.4000000  0  6G24G10G18G23G32G15
 129729608.307 6 101088098.027 6  24686723.815    24686745.556         632.520  
       492.820          39.000          38.000  
 109144362.055 7  85047622.916 6  20769482.880    20769498.808         413.133  
       321.656          45.000          40.000  
 113884771.529 7  88741445.406 7  21671552.684    21671567.705       -1479.715  
     -1153.141          45.000          45.000  
 110557112.487 7  86148457.600 7  21038319.716    21038334.560       -1527.027  
     -1190.035          43.000          42.000  
 117974389.439 7  91928181.177 7  22449780.714    22449800.682        3195.203  
      2489.730          44.000          42.000  
 127290376.352 5  99187384.447 6  24222555.056    24222572.911       -3075.688  
     -2396.891          35.000          40.000  
 24  1 10  3 14 13.5000000  0  6G24G10G18G23G32G15
 129729545.098 6 101088048.781 6  24686711.787    24686733.530         632.414  
       492.801          39.000          38.000  
 109144320.747 7  85047590.727 6  20769475.019    20769490.947         413.016  
       321.781          45.000          40.000  
 113884919.521 7  88741560.721 7  21671580.846    21671595.866       -1479.754  
     -1153.145          45.000          45.000  
 110557265.240 7  86148576.607 7  21038348.784    21038363.623       -1527.199  
     -1190.059          43.000          42.000  
 117974069.932 7  91927932.209 7  22449719.914    22449739.882        3194.988  
      2489.586          44.000          42.000  
 127290683.973 5  99187624.098 6  24222613.594    24222631.436       -3075.895  
     -2396.758          35.000          40.000  
 24  1 10  3 14 13.6000000  0  6G24G10G18G23G32G15
 129729481.828 6 101087999.487 6  24686699.809    24686721.500         632.453  
       492.754          39.000          38.000  
 109144279.467 7  85047558.563 6  20769466.930    20769483.256         412.941  
       321.703          45.000          41.000  
 113885067.523 7  88741676.043 7  21671608.846    21671624.060       -1479.918  
     -1153.293          45.000          45.000  
 110557417.946 7  86148695.619 7  21038377.647    21038392.406       -1527.273  
     -1190.180          43.000          42.000  
 117973750.444 7  91927683.243 7  22449658.984    22449679.285        3194.973  
      2489.570          44.000          42.000  
 127290991.546 5  99187863.774 6  24222672.202    24222690.319       -3075.812  
     -2396.770          35.000          40.000  
 24  1 10  3 14 13.7000000  0  6G24G10G18G23G32G15
 129729418.619 6 101087950.276 6  24686687.781    24686709.482         632.270  
       492.340          40.000          38.000  
 109144238.214 7  85047526.421 6  20769459.080    20769475.407         412.754  
       321.543          45.000          41.000  
 113885215.549 7  88741791.384 7  21671637.015    21671652.228       -1480.066  
     -1153.422          45.000          45.000  
 110557570.692 7  86148814.642 7  21038406.714    21038421.473       -1527.340  
     -1190.180          43.000          42.000  
 117973430.986 7  91927434.324 6  22449598.194    22449618.496        3194.824  
      2489.258          45.000          41.000  
 127291299.151 5  99188103.465 6  24222730.737    24222748.854       -3075.938  
     -2396.871          35.000          40.000  
 24  1 10  3 14 13.8000000  0  6G24G10G18G23G32G15
 129729355.435 6 101087900.998 6  24686675.719    24686697.432         632.078  
       492.660          40.000          39.000  
 109144196.959 7  85047494.265 6  20769450.940    20769467.687         412.637  
       321.570          45.000          41.000  
 113885363.566 7  88741906.734 7  21671665.041    21671680.546       -1480.207  
     -1153.602          45.000          45.000  
 110557723.455 7  86148933.660 7  21038435.799    21038450.468       -1527.566  
     -1190.410          43.000          42.000  
 117973111.524 7  91927185.401 7  22449537.457    22449557.847        3194.621  
      2489.219          45.000          42.000  
 127291606.741 5  99188343.171 6  24222788.871    24222807.408       -3075.977  
     -2396.973          35.000          41.000  
 24  1 10  3 14 13.9000000  0  6G24G10G18G23G32G15
 129729292.200 6 101087851.744 6  24686663.685    24686685.404         632.172  
       492.555          40.000          39.000  
 109144155.711 7  85047462.129 6  20769443.091    20769459.839         412.594  
       321.324          45.000          40.000  
 113885511.608 7  88742022.097 7  21671693.212    21671708.719       -1480.277  
     -1153.484          45.000          45.000  
 110557876.198 7  86149052.702 7  21038464.865    21038479.539       -1527.488  
     -1190.371          43.000          42.000  
 117972792.077 7  91926936.479 7  22449476.668    22449497.058        3194.562  
      2489.184          45.000          42.000  
 127291914.382 5  99188582.872 6  24222847.413    24222865.946       -3076.336  
     -2397.062          35.000          41.000  
 24  1 10  3 14 14.0000000  0  6G24G10G18G23G32G15
 129729229.030 6 101087802.532 6  24686651.485    24686673.542         632.047  
       492.469          41.000          39.000  
 109144114.475 7  85047430.013 6  20769435.338    20769451.535         412.430  
       321.168          45.000          41.000  
 113885659.663 7  88742137.456 7  21671721.253    21671736.968       -1480.328  
     -1153.598          45.000          45.000  
 110558028.986 7  86149171.751 7  21038493.831    21038508.651       -1527.637  
     -1190.441          43.000          42.000  
 117972472.665 7  91926687.579 7  22449415.800    22449435.915        3194.473  
      2489.227          44.000          42.000  
 127292221.979 5  99188822.571 6  24222906.103    24222924.584       -3076.078  
     -2397.016          35.000          41.000  
 24  1 10  3 14 14.1000000  0  6G24G10G18G23G32G15
 129729165.863 6 101087753.302 6  24686639.465    24686661.519         631.691  
       492.086          41.000          39.000  
 109144073.265 7  85047397.892 6  20769427.495    20769443.690         412.273  
       321.164          45.000          40.000  
 113885807.746 7  88742252.846 7  21671749.432    21671765.148       -1480.566  
     -1153.809          45.000          45.000  
 110558181.789 7  86149290.813 7  21038522.908    21038537.727       -1527.844  
     -1190.578          43.000          42.000  
 117972153.238 7  91926438.685 7  22449355.015    22449375.133        3194.262  
      2488.750          44.000          42.000  
 127292529.644 5  99189062.336 6  24222964.650    24222983.137       -3076.418  
     -2397.457          35.000          41.000  
 24  1 10  3 14 14.2000000  0  6G24G10G18G23G32G15
 129729102.718 6 101087704.107 6  24686627.527    24686649.419         631.688  
       491.988          41.000          39.000  
 109144032.087 7  85047365.804 6  20769419.745    20769435.729         412.004  
       320.945          45.000          41.000  
 113885955.835 7  88742368.239 7  21671777.902    21671793.000       -1480.856  
     -1154.020          45.000          45.000  
 110558334.606 7  86149409.882 7  21038552.043    21038567.094       -1528.090  
     -1190.891          43.000          42.000  
 117971833.852 7  91926189.803 7  22449294.371    22449314.384        3193.973  
      2488.660          44.000          42.000  
 127292837.309 5  99189302.078 6  24223023.048    24223041.528       -3076.527  
     -2397.566          35.000          41.000  
 24  1 10  3 14 14.3000000  0  6G24G10G18G23G32G15
 129729039.585 6 101087654.908 6  24686615.513    24686637.405         631.391  
       491.934          41.000          39.000  
 109143990.903 7  85047333.709 6  20769411.908    20769427.891         411.859  
       320.742          45.000          41.000  
 113886103.921 7  88742483.625 7  21671806.082    21671821.178       -1480.965  
     -1154.008          45.000          45.000  
 110558487.428 7  86149528.973 7  21038581.124    21038596.177       -1528.148  
     -1191.000          43.000          42.000  
 117971514.468 7  91925940.936 7  22449233.594    22449253.608        3193.938  
      2488.789          44.000          42.000  
 127293145.018 5  99189541.845 6  24223081.603    24223100.082       -3076.691  
     -2397.594          35.000          41.000  
 24  1 10  3 14 14.4000000  0  6G24G10G18G23G32G15
 129728976.470 6 101087605.722 6  24686603.854    24686625.471         631.355  
       491.957          41.000          39.000  
 109143949.728 7  85047301.602 6  20769404.308    20769420.347         411.812  
       320.922          45.000          41.000  
 113886252.047 7  88742599.057 7  21671834.722    21671849.532       -1481.008  
     -1154.156          46.000          45.000  
 110558640.284 7  86149648.078 7  21038610.422    21038624.850       -1528.281  
     -1190.738          43.000          42.000  
 117971195.107 7  91925692.095 7  22449173.126    22449193.034        3193.816  
      2488.602          44.000          42.000  
 127293452.707 5  99189781.587 6  24223140.436    24223158.848       -3076.871  
     -2397.488          35.000          41.000  
 24  1 10  3 14 14.5000000  0  6G24G10G18G23G32G15
 129728913.385 6 101087556.552 6  24686591.849    24686613.463         631.086  
       491.684          41.000          39.000  
 109143908.606 7  85047269.571 6  20769396.482    20769412.525         411.566  
       320.566          45.000          41.000  
 113886400.188 7  88742714.498 7  21671862.913    21671877.724       -1481.258  
     -1154.391          46.000          45.000  
 110558793.136 7  86149767.181 7  21038639.509    21038653.936       -1528.488  
     -1191.246          43.000          42.000  
 117970875.768 7  91925443.245 7  22449112.358    22449132.262        3193.613  
      2488.230          44.000          42.000  
 127293760.396 5  99190021.356 6  24223198.987    24223217.402       -3076.832  
     -2397.719          35.000          41.000  
 24  1 10  3 14 14.6000000  0  6G24G10G18G23G32G15
 129728850.306 6 101087507.428 6  24686579.822    24686601.053         630.902  
       491.555          40.000          39.000  
 109143867.477 7  85047237.544 6  20769388.757    20769404.962         411.395  
       320.297          45.000          41.000  
 113886548.325 7  88742829.914 7  21671891.024    21671905.902       -1481.398  
     -1154.336          45.000          45.000  
 110558945.997 7  86149886.298 7  21038668.543    21038682.807       -1528.590  
     -1191.102          43.000          42.000  
 117970556.424 7  91925194.408 7  22449051.448    22449071.533        3193.340  
      2488.207          44.000          42.000  
 127294068.177 5  99190261.166 6  24223258.188    24223276.044       -3077.281  
     -2398.074          35.000          41.000  
 24  1 10  3 14 14.7000000  0  6G24G10G18G23G32G15
 129728787.242 6 101087458.276 6  24686567.822    24686589.049         630.773  
       491.480          40.000          39.000  
 109143826.347 7  85047205.475 6  20769380.930    20769397.130         411.363  
       320.703          45.000          41.000  
 113886696.490 7  88742945.372 7  21671919.219    21671934.098       -1481.430  
     -1154.523          45.000          45.000  
 110559098.857 7  86150005.432 7  21038697.631    21038711.901       -1528.508  
     -1191.356          43.000          42.000  
 117970237.094 7  91924945.575 7  22448990.682    22449010.765        3193.402  
      2488.328          45.000          42.000  
 127294375.874 5  99190500.939 6  24223316.741    24223334.599       -3077.422  
     -2397.801          35.000          41.000  
 24  1 10  3 14 14.8000000  0  6G24G10G18G23G32G15
 129728724.185 6 101087409.141 6  24686555.947    24686577.026         630.613  
       491.215          40.000          38.000  
 109143785.244 7  85047173.440 6  20769372.867    20769388.986         411.133  
       320.258          45.000          41.000  
 113886844.681 7  88743060.843 7  21671947.466    21671962.461       -1481.684  
     -1154.594          45.000          45.000  
 110559251.781 7  86150124.561 7  21038726.794    21038741.134       -1528.840  
     -1191.285          43.000          42.000  
 117969917.794 7  91924696.787 7  22448930.234    22448949.735        3193.188  
      2488.102          45.000          42.000  
 127294683.688 5  99190740.748 6  24223375.441    24223392.968       -3077.648  
     -2398.227          34.000          41.000  
 24  1 10  3 14 14.9000000  0  6G24G10G18G23G32G15
 129728661.149 6 101087360.014 6  24686543.952    24686565.029         630.543  
       491.355          39.000          38.000  
 109143744.149 7  85047141.407 6  20769365.046    20769381.164         411.074  
       320.285          45.000          41.000  
 113886992.858 7  88743176.317 7  21671975.663    21671990.661       -1481.750  
     -1154.688          45.000          45.000  
 110559404.664 7  86150243.729 7  21038755.887    21038770.236       -1528.859  
     -1191.590          43.000          42.000  
 117969598.487 7  91924447.965 7  22448869.471    22448888.970        3193.062  
      2488.113          45.000          42.000  
 127294991.396 5  99190980.571 6  24223433.996    24223451.535       -3077.348  
     -2398.055          34.000          41.000  
 24  1 10  3 14 15.0000000  0  6G24G10G18G23G32G15
 129728598.126 6 101087310.917 6  24686531.623    24686552.867         630.180  
       490.941          39.000          38.000  
 109143703.074 7  85047109.432 6  20769357.043    20769373.488         410.953  
       319.953          45.000          41.000  
 113887141.061 7  88743291.786 7  21672003.904    21672019.157       -1481.863  
     -1154.742          45.000          45.000  
 110559557.568 7  86150362.847 7  21038785.195    21038799.505       -1529.137  
     -1191.621          43.000          42.000  
 117969279.213 7  91924199.175 7  22448808.505    22448828.073        3192.938  
      2487.918          45.000          42.000  
 127295299.199 5  99191220.377 6  24223492.124    24223509.512       -3077.629  
     -2398.105          34.000          41.000  
 24  1 10  3 14 15.1000000  0  6G24G10G18G23G32G15
 129728535.140 6 101087261.792 6  24686519.637    24686540.870         630.215  
       491.234          39.000          38.000  
 109143661.991 7  85047077.409 6  20769349.225    20769365.667         410.766  
       320.090          45.000          41.000  
 113887289.258 7  88743407.274 7  21672032.105    21672047.360       -1481.984  
     -1154.809          45.000          45.000  
 110559710.495 7  86150482.021 7  21038814.295    21038828.609       -1529.059  
     -1191.562          43.000          42.000  
 117968959.922 7  91923950.395 7  22448747.746    22448767.318        3192.898  
      2487.832          45.000          42.000  
 127295606.928 5  99191460.194 6  24223550.683    24223568.078       -3077.539  
     -2398.215          34.000          41.000  
 24  1 10  3 14 15.2000000  0  6G24G10G18G23G32G15
 129728472.119 6 101087212.732 6  24686507.379    24686528.960         630.102  
       490.785          38.000          39.000  
 109143620.948 7  85047045.416 6  20769341.454    20769358.120         410.652  
       319.883          45.000          41.000  
 113887437.490 7  88743522.769 7  21672060.141    21672075.221       -1482.160  
     -1155.070          45.000          45.000  
 110559863.445 7  86150601.204 7  21038843.542    21038857.683       -1529.352  
     -1191.770          43.000          42.000  
 117968640.676 7  91923701.630 7  22448686.753    22448706.716        3192.641  
      2487.500          45.000          42.000  
 127295914.767 5  99191700.044 6  24223609.138    24223626.605       -3078.020  
     -2398.633          35.000          41.000  
 24  1 10  3 14 15.3000000  0  6G24G10G18G23G32G15
 129728409.171 6 101087163.628 6  24686495.401    24686516.968         629.922  
       490.977          38.000          39.000  
 109143579.891 7  85047013.430 6  20769333.641    20769350.309         410.574  
       319.824          45.000          41.000  
 113887585.713 7  88743638.289 7  21672088.346    21672103.433       -1482.180  
     -1155.086          45.000          45.000  
 110560016.384 7  86150720.356 7  21038872.645    21038886.781       -1529.332  
     -1191.590          43.000          42.000  
 117968321.433 7  91923452.872 7  22448626.003    22448645.966        3192.555  
      2487.926          45.000          42.000  
 127296222.553 5  99191939.881 6  24223667.707    24223685.175       -3077.922  
     -2398.363          35.000          41.000  
 24  1 10  3 14 15.4000000  0  6G24G10G18G23G32G15
 129728346.170 6 101087114.555 6  24686483.365    24686505.812         629.836  
       490.746          38.000          39.000  
 109143538.876 7  85046981.477 6  20769325.945    20769342.615         410.410  
       319.531          45.000          41.000  
 113887733.977 7  88743753.801 7  21672116.591    21672131.642       -1482.418  
     -1155.176          45.000          45.000  
 110560169.358 7  86150839.574 7  21038901.903    21038916.060       -1529.574  
     -1192.121          43.000          42.000  
 117968002.188 7  91923204.105 7  22448565.300    22448585.176        3192.430  
      2487.270          44.000          42.000  
 127296530.342 5  99192179.747 6  24223726.223    24223743.792       -3078.035  
     -2398.605          35.000          41.000  
 24  1 10  3 14 15.5000000  0  6G24G10G18G23G32G15
 129728283.248 6 101087065.518 6  24686471.391    24686493.837         629.484  
       490.488          39.000          39.000  
 109143497.894 7  85046949.540 6  20769318.147    20769334.815         409.977  
       319.348          45.000          40.000  
 113887882.252 7  88743869.339 7  21672144.807    21672159.857       -1482.770  
     -1155.645          45.000          45.000  
 110560322.356 7  86150958.798 7  21038931.018    21038945.175       -1529.840  
     -1192.191          43.000          42.000  
 117967682.990 7  91922955.372 7  22448504.558    22448524.433        3192.121  
      2487.246          45.000          42.000  
 127296838.238 5  99192419.649 6  24223784.814    24223802.379       -3078.488  
     -2398.977          34.000          41.000  
 24  1 10  3 14 15.6000000  0  6G24G10G18G23G32G15
 129728220.314 6 101087016.482 6  24686459.603    24686481.909         629.492  
       490.379          39.000          39.000  
 109143456.908 7  85046917.596 6  20769310.511    20769327.202         409.973  
       319.398          45.000          40.000  
 113888030.548 7  88743984.888 7  21672172.590    21672188.154       -1482.762  
     -1155.398          45.000          45.000  
 110560475.345 7  86151077.994 7  21038959.967    21038974.222       -1529.723  
     -1192.035          43.000          42.000  
 117967363.789 7  91922706.661 7  22448443.926    22448463.781        3192.035  
      2487.164          44.000          42.000  
 127297146.049 5  99192659.527 6  24223843.115    24223861.046       -3078.250  
     -2398.789          35.000          41.000  
 24  1 10  3 14 15.7000000  0  6G24G10G18G23G32G15
 129728157.389 6 101086967.460 6  24686447.629    24686469.937         629.305  
       490.250          40.000          39.000  
 109143415.955 7  85046885.689 6  20769302.718    20769319.410         409.680  
       319.039          45.000          40.000  
 113888178.877 7  88744100.479 7  21672200.816    21672216.382       -1483.023  
     -1155.816          45.000          45.000  
 110560628.381 7  86151197.270 7  21038989.088    21039003.350       -1530.078  
     -1192.617          43.000          42.000  
 117967044.632 7  91922457.955 7  22448383.192    22448403.045        3191.797  
      2486.953          44.000          42.000  
 127297453.966 5  99192899.426 6  24223901.709    24223919.631       -3078.695  
     -2399.062          35.000          40.000  
 24  1 10  3 14 15.8000000  0  6G24G10G18G23G32G15
 129728094.530 6 101086918.499 6  24686435.644    24686457.926         629.031  
       489.773          40.000          39.000  
 109143375.012 7  85046853.801 6  20769294.779    20769311.544         409.543  
       318.914          45.000          41.000  
 113888327.216 7  88744216.067 7  21672229.325    21672244.711       -1483.160  
     -1155.906          45.000          45.000  
 110560781.430 7  86151316.495 7  21039017.830    21039032.482       -1530.453  
     -1192.582          43.000          42.000  
 117966725.508 7  91922209.292 7  22448322.738    22448342.498        3191.539  
      2486.809          44.000          42.000  
 127297761.881 5  99193139.371 6  24223960.225    24223978.205       -3078.973  
     -2399.250          35.000          40.000  
 24  1 10  3 14 15.9000000  0  6G24G10G18G23G32G15
 129728031.647 6 101086869.516 6  24686423.677    24686445.963         628.895  
       489.676          40.000          39.000  
 109143334.081 7  85046821.902 6  20769286.990    20769303.754         409.398  
       319.047          45.000          40.000  
 113888475.552 7  88744331.649 7  21672257.552    21672272.938       -1483.422  
     -1155.918          45.000          45.000  
 110560934.490 7  86151435.782 7  21039046.956    21039061.613       -1530.289  
     -1192.625          43.000          42.000  
 117966406.354 7  91921960.599 7  22448262.005    22448281.765        3191.512  
      2486.805          45.000          42.000  
 127298069.761 6  99193379.293 6  24224018.813    24224036.796       -3078.805  
     -2399.250          36.000          40.000  
 24  1 10  3 14 16.0000000  0  6G24G10G18G23G32G15
 129727968.769 6 101086820.496 6  24686411.728    24686433.797         628.660  
       489.734          40.000          39.000  
 109143293.161 7  85046789.997 6  20769279.148    20769296.017         409.293  
       318.887          45.000          40.000  
 113888623.896 7  88744447.240 7  21672285.672    21672300.948       -1483.391  
     -1155.840          46.000          45.000  
 110561087.558 7  86151555.035 7  21039076.154    21039090.330       -1530.535  
     -1192.543          43.000          42.000  
 117966087.241 7  91921711.944 7  22448200.905    22448221.361        3191.359  
      2486.617          44.000          42.000  
 127298377.685 6  99193619.230 6  24224077.448    24224095.227       -3079.105  
     -2399.266          36.000          40.000  
 24  1 10  3 14 16.1000000  0  6G24G10G18G23G32G15
 129727905.937 6 101086771.550 6  24686399.771    24686421.844         628.656  
       489.773          40.000          39.000  
 109143252.256 7  85046758.143 6  20769271.364    20769288.238         409.195  
       318.805          45.000          40.000  
 113888772.276 7  88744562.854 7  21672313.908    21672329.182       -1483.547  
     -1156.121          46.000          45.000  
 110561240.604 7  86151674.313 7  21039105.278    21039119.458       -1530.508  
     -1192.723          43.000          43.000  
 117965768.102 7  91921463.281 7  22448140.175    22448160.635        3191.332  
      2486.723          44.000          42.000  
 127298685.569 6  99193859.140 6  24224136.037    24224153.816       -3079.020  
     -2399.266          36.000          41.000  
 24  1 10  3 14 16.2000000  0  6G24G10G18G23G32G15
 129727843.095 6 101086722.552 6  24686387.516    24686409.659         628.465  
       489.906          40.000          39.000  
 109143211.360 7  85046726.260 6  20769263.668    20769280.304         409.172  
       318.703          45.000          41.000  
 113888920.646 7  88744678.480 7  21672342.313    21672357.325       -1483.574  
     -1156.137          45.000          45.000  
 110561393.673 7  86151793.570 7  21039134.133    21039148.504       -1530.699  
     -1192.731          43.000          43.000  
 117965448.990 7  91921214.607 7  22448079.333    22448099.953        3191.262  
      2486.680          45.000          42.000  
 127298993.501 6  99194099.092 6  24224194.923    24224212.453       -3079.074  
     -2399.457          36.000          41.000  
 24  1 10  3 14 16.3000000  0  6G24G10G18G23G32G15
 129727780.293 6 101086673.646 6  24686375.565    24686397.716         628.172  
       489.211          39.000          38.000  
 109143170.496 7  85046694.429 6  20769255.892    20769272.530         408.746  
       318.391          45.000          41.000  
 113889069.070 7  88744794.140 7  21672370.557    21672385.570       -1483.961  
     -1156.574          46.000          45.000  
 110561546.823 7  86151912.919 7  21039163.276    21039177.650       -1530.953  
     -1193.398          43.000          42.000  
 117965129.940 7  91920966.007 7  22448018.620    22448039.242        3190.910  
      2486.074          45.000          42.000  
 127299301.490 6  99194339.051 6  24224253.531    24224271.054       -3079.484  
     -2399.617          36.000          41.000  
 24  1 10  3 14 16.4000000  0  6G24G10G18G23G32G15
 129727717.506 6 101086624.715 6  24686363.430    24686385.813         628.062  
       489.199          39.000          39.000  
 109143129.640 7  85046662.580 6  20769247.976    20769264.737         408.629  
       318.176          45.000          41.000  
 113889217.484 7  88744909.780 7  21672398.917    21672413.670       -1484.113  
     -1156.531          45.000          45.000  
 110561699.926 7  86152032.203 7  21039192.395    21039207.320       -1531.176  
     -1193.051          43.000          42.000  
 117964810.886 7  91920717.377 7  22447958.039    22447978.485        3190.621  
      2486.242          45.000          42.000  
 127299609.451 5  99194579.046 6  24224312.392    24224329.999       -3079.699  
     -2399.953          35.000          41.000  
 24  1 10  3 14 16.5000000  0  6G24G10G18G23G32G15
 129727654.730 6 101086575.792 6  24686351.484    24686373.866         627.891  
       489.242          39.000          39.000  
 109143088.801 7  85046630.747 6  20769240.205    20769256.963         408.547  
       318.383          45.000          41.000  
 113889365.908 7  88745025.434 7  21672427.161    21672441.914       -1484.176  
     -1156.535          46.000          45.000  
 110561853.025 7  86152151.511 7  21039221.529    21039236.456       -1531.098  
     -1193.203          43.000          42.000  
 117964491.828 7  91920468.767 7  22447897.324    22447917.772        3190.645  
      2486.031          44.000          42.000  
 127299917.487 6  99194819.028 6  24224371.010    24224388.605       -3079.879  
     -2399.855          36.000          41.000  
 24  1 10  3 14 16.6000000  0  6G24G10G18G23G32G15
 129727591.948 6 101086526.866 6  24686339.724    24686361.824         627.891  
       489.309          40.000          39.000  
 109143047.974 7  85046598.964 6  20769232.405    20769249.373         408.371  
       317.910          45.000          41.000  
 113889514.367 7  88745141.119 7  21672455.013    21672470.478       -1484.344  
     -1156.922          46.000          45.000  
 110562006.196 7  86152270.868 7  21039250.817    21039265.643       -1531.383  
     -1193.434          43.000          42.000  
 117964172.792 7  91920220.180 7  22447836.645    22447856.752        3190.449  
      2485.863          44.000          42.000  
 127300225.477 6  99195059.017 6  24224429.782    24224447.494       -3079.957  
     -2399.875          36.000          41.000  
 24  1 10  3 14 16.7000000  0  6G24G10G18G23G32G15
 129727529.191 6 101086477.987 6  24686327.782    24686349.887         627.703  
       488.895          40.000          39.000  
 109143007.173 7  85046567.157 6  20769224.640    20769241.606         408.242  
       318.055          45.000          41.000  
 113889662.826 7  88745256.805 7  21672483.264    21672498.730       -1484.543  
     -1156.856          45.000          45.000  
 110562159.346 7  86152390.221 7  21039279.960    21039294.791       -1531.379  
     -1193.488          43.000          42.000  
 117963853.776 7  91919971.582 7  22447775.938    22447796.042        3190.312  
      2485.828          44.000          42.000  
 127300533.450 6  99195299.047 6  24224488.388    24224506.112       -3079.883  
     -2400.156          36.000          40.000  
 24  1 10  3 14 16.8000000  0  6G24G10G18G23G32G15
 129727466.419 6 101086429.089 6  24686316.016    24686338.000         627.711  
       489.066          40.000          39.000  
 109142966.367 7  85046535.354 6  20769216.813    20769233.612         408.109  
       317.816          45.000          41.000  
 113889811.294 7  88745372.478 7  21672511.712    21672526.916       -1484.633  
     -1156.832          45.000          45.000  
 110562312.523 7  86152509.543 7  21039309.132    21039324.016       -1531.734  
     -1193.418          43.000          42.000  
 117963534.754 7  91919722.984 7  22447715.300    22447735.012        3190.105  
      2485.969          44.000          42.000  
 127300841.514 6  99195539.035 6  24224546.768    24224564.501       -3080.270  
     -2400.062          36.000          40.000  
 24  1 10  3 14 16.9000000  0  6G24G10G18G23G32G15
 129727403.730 6 101086380.216 6  24686304.087    24686326.065         627.262  
       488.660          40.000          39.000  
 109142925.611 7  85046503.619 6  20769209.057    20769225.862         407.789  
       317.559          45.000          41.000  
 113889959.780 7  88745488.187 7  21672539.968    21672555.173       -1484.965  
     -1157.324          45.000          45.000  
 110562465.741 7  86152628.949 7  21039338.289    21039353.176       -1531.719  
     -1193.879          43.000          42.000  
 117963215.797 7  91919474.454 7  22447654.605    22447674.318        3189.945  
      2485.422          44.000          42.000  
 127301149.528 5  99195779.079 6  24224605.381    24224623.122       -3080.105  
     -2400.539          35.000          40.000  
 24  1 10  3 14 17.0000000  0  6G24G10G18G23G32G15
 129727341.033 6 101086331.371 6  24686292.203    24686314.394         627.004  
       488.434          40.000          39.000  
 109142884.851 7  85046471.852 6  20769201.551    20769217.847         407.711  
       317.641          45.000          41.000  
 113890108.311 7  88745603.945 7  21672568.068    21672583.364       -1484.965  
     -1157.312          46.000          45.000  
 110562618.916 7  86152748.319 7  21039367.523    21039382.414       -1531.977  
     -1193.836          43.000          42.000  
 117962896.837 7  91919225.907 7  22447593.666    22447613.847        3189.738  
      2485.340          44.000          42.000  
 127301457.612 5  99196019.137 6  24224664.039    24224681.676       -3080.535  
     -2400.453          35.000          40.000  
 24  1 10  3 14 17.1000000  0  6G24G10G18G23G32G15
 129727278.395 6 101086282.542 6  24686280.283    24686302.470         626.734  
       488.387          39.000          39.000  
 109142844.119 7  85046440.108 6  20769193.800    20769210.095         407.477  
       317.426          45.000          41.000  
 113890256.849 7  88745719.686 7  21672596.334    21672611.629       -1485.207  
     -1157.418          46.000          45.000  
 110562772.157 7  86152867.717 7  21039396.684    21039411.572       -1532.184  
     -1194.016          43.000          42.000  
 117962577.901 7  91918977.408 7  22447532.975    22447553.161        3189.617  
      2485.148          44.000          42.000  
 127301765.687 5  99196259.192 6  24224722.663    24224740.300       -3080.523  
     -2400.492          35.000          40.000  
 24  1 10  3 14 17.2000000  0  6G24G10G18G23G32G15
 129727215.754 6 101086233.705 6  24686268.520    24686290.356         626.523  
       488.367          39.000          39.000  
 109142803.389 7  85046408.349 6  20769185.862    20769202.221         407.371  
       317.305          45.000          41.000  
 113890405.395 7  88745835.421 7  21672624.508    21672639.948       -1485.305  
     -1157.441          45.000          45.000  
 110562925.380 7  86152987.125 7  21039425.802    21039440.420       -1532.148  
     -1193.945          43.000          42.000  
 117962258.950 7  91918728.857 7  22447472.327    22447492.548        3189.441  
      2485.391          44.000          42.000  
 127302073.772 5  99196499.263 6  24224781.157    24224799.053       -3080.855  
     -2400.660          35.000          40.000  
 24  1 10  3 14 17.3000000  0  6G24G10G18G23G32G15
 129727153.091 6 101086184.894 6  24686256.595    24686278.436         626.516  
       488.105          38.000          39.000  
 109142762.683 7  85046376.657 6  20769178.116    20769194.482         407.227  
       317.309          45.000          41.000  
 113890553.949 7  88745951.192 7  21672652.777    21672668.220       -1485.461  
     -1157.648          46.000          45.000  
 110563078.628 7  86153106.534 7  21039454.964    21039469.581       -1532.375  
     -1194.176          43.000          42.000  
 117961940.044 7  91918480.367 7  22447411.642    22447431.864        3189.344  
      2485.043          44.000          42.000  
 127302381.884 5  99196739.345 6  24224839.789    24224857.683       -3080.871  
     -2400.770          35.000          40.000  
 24  1 10  3 14 17.4000000  0  6G24G10G18G23G32G15
 129727090.487 6 101086136.090 6  24686244.588    24686266.377         626.309  
       488.156          38.000          39.000  
 109142721.982 7  85046344.936 6  20769170.316    20769186.657         407.117  
       317.098          45.000          41.000  
 113890702.521 7  88746066.952 7  21672681.299    21672696.912       -1485.594  
     -1157.676          46.000          45.000  
 110563231.888 7  86153225.944 7  21039484.199    21039498.804       -1532.488  
     -1194.191          43.000          42.000  
 117961621.139 7  91918231.875 7  22447351.206    22447371.250        3189.203  
      2485.027          44.000          42.000  
 127302689.998 5  99196979.430 6  24224898.265    24224916.182       -3081.031  
     -2400.895          35.000          40.000  
 24  1 10  3 14 17.5000000  0  6G24G10G18G23G32G15
 129727027.864 6 101086087.296 6  24686232.672    24686254.461         626.336  
       487.918          38.000          38.000  
 109142681.285 7  85046313.228 6  20769162.571    20769178.914         407.008  
       316.992          45.000          41.000  
 113890851.100 7  88746182.727 7  21672709.573    21672725.185       -1485.773  
     -1157.789          46.000          45.000  
 110563385.159 7  86153345.380 7  21039513.365    21039527.972       -1532.648  
     -1194.352          43.000          42.000  
 117961302.219 7  91917983.365 7  22447290.518    22447310.562        3189.066  
      2484.789          45.000          42.000  
 127302998.118 5  99197219.527 6  24224956.898    24224974.816       -3081.164  
     -2400.980          35.000          40.000  
 24  1 10  3 14 17.6000000  0  6G24G10G18G23G32G15
 129726965.248 6 101086038.511 6  24686220.428    24686242.414         626.199  
       487.742          39.000          38.000  
 109142640.615 7  85046281.533 6  20769154.942    20769171.236         406.895  
       316.996          45.000          41.000  
 113890999.694 7  88746298.524 7  21672737.873    21672753.308       -1485.762  
     -1157.848          46.000          45.000  
 110563538.449 7  86153464.841 7  21039542.520    21039557.208       -1532.617  
     -1194.410          43.000          42.000  
 117960983.349 7  91917734.893 7  22447229.925    22447250.179        3188.949  
      2484.914          45.000          42.000  
 127303306.257 6  99197459.624 6  24225015.551    24225033.177       -3081.234  
     -2400.949          36.000          40.000  
 24  1 10  3 14 17.7000000  0  6G24G10G18G23G32G15
 129726902.638 6 101085989.734 6  24686208.514    24686230.502         626.145  
       487.742          40.000          39.000  
 109142599.964 7  85046249.855 6  20769147.206    20769163.500         406.629  
       316.918          45.000          41.000  
 113891148.315 7  88746414.326 7  21672766.154    21672781.588       -1486.031  
     -1158.098          45.000          45.000  
 110563691.719 7  86153584.270 7  21039571.686    21039586.374       -1532.871  
     -1194.496          43.000          42.000  
 117960664.480 7  91917486.427 7  22447169.246    22447189.501        3188.863  
      2484.777          45.000          42.000  
 127303614.422 6  99197699.743 6  24225074.193    24225091.816       -3081.406  
     -2401.129          36.000          40.000  
 24  1 10  3 14 17.8000000  0  6G24G10G18G23G32G15
 129726840.041 6 101085940.965 6  24686196.782    24686218.834         626.043  
       487.711          40.000          39.000  
 109142559.309 7  85046218.179 6  20769139.384    20769155.702         406.582  
       316.523          45.000          41.000  
 113891296.938 7  88746530.134 7  21672794.178    21672809.885       -1486.141  
     -1158.090          45.000          45.000  
 110563845.051 7  86153703.729 7  21039600.919    21039615.453       -1533.023  
     -1194.641          43.000          42.000  
 117960345.613 7  91917237.941 7  22447108.841    22447128.842        3188.566  
      2484.547          44.000          42.000  
 127303922.544 5  99197939.866 6  24225132.717    24225150.636       -3081.438  
     -2401.188          35.000          40.000  
 24  1 10  3 14 17.9000000  0  6G24G10G18G23G32G15
 129726777.490 6 101085892.227 6  24686184.879    24686206.932         625.871  
       487.488          41.000          39.000  
 109142518.690 7  85046186.535 6  20769131.654    20769147.974         406.500  
       316.664          45.000          41.000  
 113891445.555 7  88746645.953 7  21672822.459    21672838.169       -1486.188  
     -1158.234          45.000          45.000  
 110563998.367 7  86153823.211 7  21039630.094    21039644.632       -1533.059  
     -1194.781          43.000          42.000  
 117960026.764 7  91916989.507 7  22447048.166    22447068.172        3188.668  
      2484.500          44.000          42.000  
 127304230.701 5  99198179.982 6  24225191.357    24225209.275       -3081.531  
     -2401.160          35.000          40.000  
 24  1 10  3 14 18.0000000  0  6G24G10G18G23G32G15
 129726714.953 6 101085843.475 6  24686173.150    24686195.339         625.633  
       487.430          41.000          39.000  
 109142478.095 7  85046154.889 6  20769123.937    20769140.324         406.188  
       316.402          45.000          41.000  
 113891594.238 7  88746761.801 7  21672850.956    21672866.265       -1486.566  
     -1158.465          45.000          45.000  
 110564151.708 7  86153942.700 7  21039659.071    21039673.812       -1533.336  
     -1194.910          43.000          42.000  
 117959707.988 7  91916741.119 7  22446987.294    22447007.130        3188.250  
      2484.234          45.000          42.000  
 127304538.927 6  99198420.145 6  24225250.034    24225267.956       -3081.863  
     -2401.680          36.000          40.000  
 24  1 10  3 14 18.1000000  0  6G24G10G18G23G32G15
 129726652.417 6 101085794.753 6  24686161.250    24686183.441         625.309  
       487.133          41.000          39.000  
 109142437.487 7  85046123.251 6  20769116.210    20769132.597         406.008  
       316.266          45.000          41.000  
 113891742.918 7  88746877.645 7  21672879.249    21672894.555       -1486.711  
     -1158.469          45.000          45.000  
 110564305.072 7  86154062.198 7  21039688.255    21039702.995       -1533.508  
     -1195.059          43.000          42.000  
 117959389.160 7  91916492.658 7  22446926.623    22446946.453        3188.098  
      2484.230          45.000          42.000  
 127304847.140 6  99198660.305 6  24225308.685    24225326.606       -3082.008  
     -2401.637          36.000          40.000  
 24  1 10  3 14 18.2000000  0  6G24G10G18G23G32G15
 129726589.902 6 101085746.064 6  24686149.268    24686171.644         625.320  
       487.078          41.000          39.000  
 109142396.908 7  85046091.633 6  20769108.511    20769124.837         405.914  
       316.250          45.000          41.000  
 113891891.587 7  88746993.500 7  21672907.665    21672922.778       -1486.699  
     -1158.703          45.000          45.000  
 110564458.431 7  86154181.693 7  21039717.555    21039732.044       -1533.574  
     -1194.910          43.000          42.000  
 117959070.366 7  91916244.258 7  22446865.544    22446885.549        3188.008  
      2484.250          45.000          42.000  
 127305155.329 6  99198900.477 6  24225367.410    24225385.118       -3082.016  
     -2401.680          36.000          40.000  
 24  1 10  3 14 18.3000000  0  6G24G10G18G23G32G15
 129726527.409 6 101085697.339 6  24686137.376    24686159.745         625.086  
       487.184          41.000          39.000  
 109142356.359 7  85046060.031 6  20769100.795    20769117.120         405.758  
       315.895          45.000          40.000  
 113892040.312 7  88747109.402 7  21672935.966    21672951.082       -1487.004  
     -1158.824          45.000          45.000  
 110564611.848 7  86154301.249 7  21039746.750    21039761.241       -1533.676  
     -1195.391          43.000          42.000  
 117958751.609 7  91915995.880 7  22446804.887    22446824.893        3187.805  
      2483.746          45.000          42.000  
 127305463.562 6  99199140.645 6  24225426.065    24225443.769       -3082.102  
     -2401.648          36.000          40.000  
 24  1 10  3 14 18.4000000  0  6G24G10G18G23G32G15
 129726464.922 6 101085648.670 6  24686125.524    24686147.477         624.922  
       486.574          41.000          38.000  
 109142315.810 7  85046028.449 6  20769093.110    20769109.540         405.520  
       315.840          45.000          40.000  
 113892189.030 7  88747225.260 7  21672963.985    21672979.314       -1487.184  
     -1158.758          45.000          45.000  
 110564765.247 7  86154420.776 7  21039776.089    21039790.634       -1533.953  
     -1195.387          43.000          42.000  
 117958432.861 7  91915747.502 7  22446744.263    22446764.127        3187.629  
      2483.723          44.000          42.000  
 127305771.834 6  99199380.854 6  24225484.945    24225502.204       -3082.477  
     -2402.008          37.000          41.000  
 24  1 10  3 14 18.5000000  0  6G24G10G18G23G32G15
 129726402.449 6 101085600.035 6  24686113.636    24686135.599         624.914  
       486.535          41.000          38.000  
 109142275.273 7  85045996.843 6  20769085.396    20769101.821         405.504  
       315.969          45.000          41.000  
 113892337.755 7  88747341.159 7  21672992.286    21673007.618       -1487.195  
     -1158.949          45.000          45.000  
 110564918.644 7  86154540.303 7  21039805.280    21039819.823       -1534.000  
     -1195.445          43.000          42.000  
 117958114.100 7  91915499.109 7  22446683.604    22446703.467        3187.551  
      2483.949          44.000          42.000  
 127306080.037 6  99199621.051 6  24225543.595    24225560.863       -3082.203  
     -2402.039          36.000          41.000  
 24  1 10  3 14 18.6000000  0  6G24G10G18G23G32G15
 129726339.979 6 101085551.321 6  24686101.756    24686123.687         624.746  
       486.867          41.000          38.000  
 109142234.738 7  85045965.258 6  20769077.940    20769093.975         405.441  
       315.918          45.000          41.000  
 113892486.484 7  88747457.060 7  21673020.604    21673036.109       -1487.231  
     -1158.941          45.000          45.000  
 110565072.060 7  86154659.833 7  21039834.481    21039849.021       -1534.023  
     -1195.231          43.000          42.000  
 117957795.355 7  91915250.743 7  22446622.855    22446642.806        3187.602  
      2483.758          44.000          42.000  
 127306388.296 6  99199861.252 6  24225602.465    24225619.554       -3082.500  
     -2402.031          36.000          41.000  
 24  1 10  3 14 18.7000000  0  6G24G10G18G23G32G15
 129726277.563 6 101085502.715 6  24686089.878    24686111.817         624.594  
       486.312          41.000          38.000  
 109142194.239 7  85045933.705 6  20769070.233    20769086.269         405.203  
       315.562          45.000          41.000  
 113892635.257 7  88747572.983 7  21673048.915    21673064.419       -1487.426  
     -1159.273          45.000          45.000  
 110565225.510 7  86154779.416 7  21039863.682    21039878.225       -1534.180  
     -1195.695          43.000          42.000  
 117957476.666 7  91915002.417 7  22446562.211    22446582.162        3187.281  
      2483.383          44.000          42.000  
 127306696.602 6  99200101.461 6  24225661.134    24225678.215       -3082.609  
     -2402.066          36.000          41.000  
 24  1 10  3 14 18.8000000  0  6G24G10G18G23G32G15
 129726215.137 6 101085454.089 6  24686077.780    24686099.770         624.316  
       486.168          41.000          38.000  
 109142153.765 7  85045902.157 6  20769062.649    20769078.440         404.820  
       315.234          45.000          41.000  
 113892784.048 7  88747688.920 7  21673077.002    21673092.748       -1487.805  
     -1159.445          45.000          45.000  
 110565378.957 7  86154898.995 7  21039892.679    21039907.053       -1534.562  
     -1195.949          43.000          42.000  
 117957157.941 7  91914754.064 7  22446501.771    22446521.402        3187.023  
      2483.230          44.000          42.000  
 127307004.929 5  99200341.725 6  24225719.791    24225737.038       -3082.941  
     -2402.508          35.000          40.000  
 24  1 10  3 14 18.9000000  0  6G24G10G18G23G32G15
 129726152.750 6 101085405.433 6  24686065.909    24686087.888         624.020  
       486.492          40.000          38.000  
 109142113.290 7  85045870.640 6  20769054.946    20769070.743         404.898  
       315.461          45.000          41.000  
 113892932.819 7  88747804.856 7  21673105.312    21673121.060       -1487.766  
     -1159.445          45.000          45.000  
 110565532.409 7  86155018.553 7  21039921.880    21039936.250       -1534.473  
     -1195.629          43.000          42.000  
 117956839.275 7  91914505.746 7  22446441.130    22446460.760        3186.887  
      2483.383          44.000          42.000  
 127307313.283 5  99200581.949 6  24225778.469    24225795.704       -3083.262  
     -2402.254          35.000          40.000  
 24  1 10  3 14 19.0000000  0  6G24G10G18G23G32G15
 129726090.407 6 101085356.829 6  24686054.037    24686076.300         623.730  
       485.953          40.000          38.000  
 109142072.852 7  85045839.125 6  20769047.087    20769062.984         404.574  
       315.184          45.000          41.000  
 113893081.663 7  88747920.825 7  21673133.980    21673149.365       -1488.094  
     -1159.738          45.000          45.000  
 110565685.940 7  86155138.198 7  21039950.908    21039965.421       -1534.766  
     -1196.156          43.000          43.000  
 117956520.622 7  91914257.446 7  22446380.665    22446400.389        3186.707  
      2482.965          44.000          42.000  
 127307621.627 5  99200822.209 6  24225836.731    24225854.198       -3083.305  
     -2402.613          35.000          40.000  
 24  1 10  3 14 19.1000000  0  6G24G10G18G23G32G15
 129726028.067 6 101085308.254 6  24686042.174    24686064.437         623.598  
       485.988          39.000          38.000  
 109142032.409 7  85045807.594 6  20769039.391    20769055.284         404.512  
       315.090          45.000          41.000  
 113893230.480 7  88748036.791 7  21673162.299    21673177.685       -1488.070  
     -1159.645          45.000          45.000  
 110565839.411 7  86155257.779 7  21039980.113    21039994.624       -1534.910  
     -1195.949          43.000          43.000  
 117956201.973 7  91914009.147 7  22446320.028    22446339.752        3186.613  
      2482.848          44.000          42.000  
 127307929.903 5  99201062.478 6  24225895.394    24225912.874       -3083.020  
     -2402.656          35.000          40.000  
 24  1 10  3 14 19.2000000  0  6G24G10G18G23G32G15
 129725965.712 6 101085259.644 6  24686030.309    24686052.949         623.523  
       486.020          39.000          38.000  
 109141991.998 7  85045776.120 6  20769031.662    20769047.676         404.309  
       315.055          45.000          41.000  
 113893379.321 7  88748152.784 7  21673190.896    21673206.012       -1488.293  
     -1159.836          45.000          45.000  
 110565992.941 7  86155377.406 7  21040009.477    21040024.362       -1535.039  
     -1196.359          43.000          43.000  
 117955883.335 7  91913760.868 7  22446259.174    22446279.689        3186.469  
      2482.871          44.000          42.000  
 127308238.271 5  99201302.771 6  24225953.832    24225971.486       -3083.438  
     -2403.062          35.000          40.000  
 24  1 10  3 14 19.3000000  0  6G24G10G18G23G32G15
 129725903.379 6 101085211.088 6  24686018.447    24686041.091         623.418  
       485.477          40.000          38.000  
 109141951.620 7  85045744.644 6  20769023.979    20769039.989         404.039  
       314.641          45.000          41.000  
 113893528.209 7  88748268.773 7  21673219.228    21673234.338       -1488.664  
     -1160.164          45.000          45.000  
 110566146.459 7  86155497.048 7  21040038.691    21040053.580       -1535.262  
     -1196.363          43.000          43.000  
 117955564.745 7  91913512.596 7  22446198.549    22446219.059        3186.168  
      2482.637          44.000          42.000  
 127308546.674 6  99201543.054 6  24226012.519    24226030.165       -3083.699  
     -2402.945          36.000          40.000  
 24  1 10  3 14 19.4000000  0  6G24G10G18G23G32G15
 129725841.087 6 101085162.565 6  24686006.695    24686029.390         623.199  
       485.391          41.000          39.000  
 109141911.240 7  85045713.186 6  20769016.420    20769032.331         403.836  
       314.500          45.000          41.000  
 113893677.115 7  88748384.820 7  21673247.291    21673262.732       -1488.762  
     -1160.156          45.000          45.000  
 110566300.032 7  86155616.703 7  21040067.821    21040082.965       -1535.523  
     -1196.672          43.000          42.000  
 117955246.154 7  91913264.375 7  22446138.040    22446158.222        3185.980  
      2482.375          45.000          42.000  
 127308855.093 6  99201783.400 6  24226071.389    24226089.298       -3083.902  
     -2403.297          36.000          40.000  
 24  1 10  3 14 19.5000000  0  6G24G10G18G23G32G15
 129725778.788 6 101085113.997 6  24685994.840    24686017.529         622.953  
       485.383          41.000          39.000  
 109141870.870 7  85045681.732 6  20769008.737    20769024.649         403.738  
       314.484          45.000          41.000  
 113893826.015 7  88748500.850 7  21673275.626    21673291.068       -1488.973  
     -1160.344          45.000          45.000  
 110566453.595 7  86155736.372 7  21040097.043    21040112.189       -1535.504  
     -1196.641          43.000          42.000  
 117954927.585 7  91913016.113 7  22446077.418    22446097.594        3185.844  
      2482.441          44.000          42.000  
 127309163.483 6  99202023.718 6  24226130.074    24226147.986       -3083.973  
     -2403.145          36.000          40.000  
 24  1 10  3 14 19.6000000  0  6G24G10G18G23G32G15
 129725716.495 6 101085065.456 6  24685983.017    24686005.729         623.000  
       485.273          41.000          39.000  
 109141830.520 7  85045650.278 6  20769000.926    20769017.226         403.672  
       314.613          45.000          41.000  
 113893974.889 7  88748616.854 7  21673303.854    21673319.585       -1488.879  
     -1160.273          45.000          45.000  
 110566607.137 7  86155856.004 7  21040126.456    21040141.201       -1535.566  
     -1196.574          43.000          42.000  
 117954609.023 7  91912767.888 6  22446016.743    22446036.811        3185.832  
      2482.438          44.000          41.000  
 127309471.887 6  99202264.027 6  24226188.706    24226207.086       -3083.977  
     -2403.148          36.000          40.000  
 24  1 10  3 14 19.7000000  0  6G24G10G18G23G32G15
 129725654.238 6 101085016.967 6  24685971.170    24685993.888         622.828  
       485.223          41.000          39.000  
 109141790.186 7  85045618.868 6  20768993.251    20769009.555         403.492  
       314.172          45.000          41.000  
 113894123.833 7  88748732.916 7  21673332.197    21673347.928       -1489.086  
     -1160.441          45.000          45.000  
 110566760.761 7  86155975.707 7  21040155.690    21040170.434       -1535.770  
     -1196.812          43.000          42.000  
 117954290.462 7  91912519.666 6  22445956.123    22445976.192        3185.645  
      2482.285          45.000          41.000  
 127309780.281 6  99202504.354 6  24226247.392    24226265.776       -3084.082  
     -2403.316          36.000          41.000  
 24  1 10  3 14 19.8000000  0  6G24G10G18G23G32G15
 129725592.012 6 101084968.462 6  24685959.149    24685982.019         622.547  
       485.078          40.000          38.000  
 109141749.868 7  85045587.444 6  20768985.594    20769001.748         403.410  
       314.113          45.000          41.000  
 113894272.775 7  88748848.967 7  21673360.430    21673375.785       -1489.356  
     -1160.609          45.000          45.000  
 110566914.358 7  86156095.401 7  21040184.903    21040199.407       -1535.953  
     -1196.863          43.000          42.000  
 117953971.933 7  91912271.444 7  22445895.353    22445915.051        3185.418  
      2481.965          45.000          42.000  
 127310088.779 6  99202744.701 6  24226306.198    24226324.854       -3084.355  
     -2403.512          36.000          41.000  
 24  1 10  3 14 19.9000000  0  6G24G10G18G23G32G15
 129725529.775 6 101084919.976 6  24685947.306    24685970.178         622.465  
       484.949          40.000          38.000  
 109141709.561 7  85045556.030 6  20768977.924    20768994.076         403.094  
       314.012          45.000          41.000  
 113894421.734 7  88748965.035 7  21673388.776    21673404.130       -1489.523  
     -1160.836          45.000          45.000  
 110567067.994 7  86156215.117 7  21040214.139    21040228.642       -1536.062  
     -1197.012          44.000          43.000  
 117953653.405 7  91912023.257 7  22445834.739    22445854.441        3185.246  
      2481.855          45.000          42.000  
 127310397.201 6  99202985.052 6  24226364.889    24226383.550       -3084.316  
     -2403.559          36.000          40.000  
 24  1 10  3 14 20.0000000  0  6G24G10G18G23G32G15
 129725467.569 6 101084871.487 6  24685935.750    24685958.141         622.160  
       484.738          40.000          38.000  
 109141669.284 7  85045524.650 6  20768970.260    20768986.577         402.965  
       313.824          45.000          41.000  
 113894570.708 7  88749081.134 7  21673417.203    21673432.592       -1489.559  
     -1160.828          45.000          45.000  
 110567221.617 7  86156334.812 7  21040243.661    21040257.897       -1536.336  
     -1197.246          43.000          42.000  
 117953334.924 7  91911775.087 7  22445774.532    22445793.999        3185.148  
      2481.992          45.000          42.000  
 127310705.698 6  99203225.435 6  24226423.422    24226441.895       -3084.762  
     -2403.766          36.000          40.000  
 24  1 10  3 14 20.1000000  0  6G24G10G18G23G32G15
 129725405.373 6 101084823.023 6  24685923.914    24685946.306         622.051  
       484.719          40.000          38.000  
 109141629.009 7  85045493.270 6  20768962.596    20768978.914         402.809  
       313.871          45.000          41.000  
 113894719.704 7  88749197.215 7  21673445.556    21673460.940       -1489.801  
     -1160.875          45.000          45.000  
 110567375.287 7  86156454.566 7  21040272.904    21040287.142       -1536.320  
     -1197.312          43.000          42.000  
 117953016.428 7  91911526.907 7  22445713.925    22445733.391        3184.930  
      2481.625          45.000          42.000  
 127311014.204 5  99203465.837 6  24226482.129    24226500.604       -3085.000  
     -2403.969          35.000          40.000  
 24  1 10  3 14 20.2000000  0  6G24G10G18G23G32G15
 129725343.180 6 101084774.566 6  24685912.040    24685933.824         621.992  
       484.566          40.000          38.000  
 109141588.746 7  85045461.884 6  20768954.699    20768971.109         402.688  
       313.789          45.000          41.000  
 113894868.702 7  88749313.333 7  21673474.136    21673489.735       -1489.895  
     -1161.082          45.000          45.000  
 110567528.916 7  86156574.293 7  21040302.092    21040316.138       -1536.461  
     -1197.281          43.000          42.000  
 117952697.953 7  91911278.750 7  22445653.290    22445673.382        3184.883  
      2481.715          45.000          42.000  
 127311322.729 5  99203706.222 6  24226540.613    24226558.620       -3084.996  
     -2403.852          35.000          40.000  
 24  1 10  3 14 20.3000000  0  6G24G10G18G23G32G15
 129725281.001 6 101084726.125 6  24685900.208    24685921.994         621.852  
       484.434          40.000          38.000  
 109141548.517 7  85045430.549 6  20768947.044    20768963.456         402.539  
       313.543          45.000          41.000  
 113895017.727 7  88749429.455 7  21673502.494    21673518.093       -1490.047  
     -1161.227          45.000          45.000  
 110567682.597 7  86156694.031 7  21040331.336    21040345.379       -1536.715  
     -1197.469          43.000          42.000  
 117952379.539 7  91911030.642 7  22445592.697    22445612.792        3184.645  
      2481.391          45.000          42.000  
 127311631.213 5  99203946.618 6  24226599.315    24226617.328       -3084.949  
     -2404.148          35.000          40.000  
 24  1 10  3 14 20.4000000  0  6G24G10G18G23G32G15
 129725218.865 6 101084677.721 6  24685888.477    24685909.955         621.570  
       484.141          40.000          38.000  
 109141508.296 7  85045399.206 6  20768939.593    20768955.982         402.281  
       313.285          45.000          41.000  
 113895166.775 7  88749545.605 7  21673530.873    21673546.575       -1490.324  
     -1161.461          45.000          45.000  
 110567836.296 7  86156813.801 7  21040360.186    21040374.933       -1536.820  
     -1197.762          43.000          42.000  
 117952061.079 7  91910782.484 7  22445532.003    22445552.181        3184.418  
      2481.301          44.000          42.000  
 127311939.816 5  99204187.067 6  24226657.595    24226675.814       -3085.551  
     -2404.324          35.000          40.000  
 24  1 10  3 14 20.5000000  0  6G24G10G18G23G32G15
 129725156.730 6 101084629.311 6  24685876.653    24685898.132         621.531  
       484.141          40.000          38.000  
 109141468.081 7  85045367.871 6  20768931.941    20768948.329         402.219  
       313.352          45.000          41.000  
 113895315.810 7  88749661.720 7  21673559.233    21673574.932       -1490.387  
     -1161.250          45.000          45.000  
 110567989.986 7  86156933.556 7  21040389.432    21040404.179       -1536.918  
     -1197.574          43.000          42.000  
 117951742.652 7  91910534.359 7  22445471.408    22445491.587        3184.445  
      2481.301          44.000          42.000  
 127312248.362 6  99204427.488 6  24226716.310    24226734.527       -3085.289  
     -2404.180          36.000          40.000  
 24  1 10  3 14 20.6000000  0  6G24G10G18G23G32G15
 129725094.589 6 101084580.889 6  24685864.867    24685886.573         621.492  
       484.191          40.000          38.000  
 109141427.863 7  85045336.529 6  20768924.428    20768940.769         402.254  
       313.367          45.000          41.000  
 113895464.863 7  88749777.869 7  21673587.543    21673603.031       -1490.383  
     -1161.465          45.000          45.000  
 110568143.710 7  86157053.341 7  21040418.560    21040433.619       -1537.039  
     -1197.691          43.000          42.000  
 117951424.218 7  91910286.244 7  22445410.664    22445430.799        3184.336  
      2481.133          45.000          42.000  
 127312556.862 6  99204667.898 6  24226774.773    24226793.597       -3085.297  
     -2404.098          36.000          40.000  
 24  1 10  3 14 20.7000000  0  6G24G10G18G23G32G15
 129725032.483 6 101084532.511 6  24685853.049    24685874.758         621.285  
       483.895          40.000          38.000  
 109141387.685 7  85045305.228 6  20768916.783    20768933.125         402.070  
       313.176          45.000          41.000  
 113895613.926 7  88749894.010 7  21673615.908    21673631.393       -1490.566  
     -1161.570          45.000          45.000  
 110568297.451 7  86157173.126 7  21040447.815    21040462.872       -1537.051  
     -1197.832          43.000          42.000  
 117951105.822 7  91910038.131 7  22445350.075    22445370.208        3184.074  
      2481.051          45.000          42.000  
 127312865.436 6  99204908.330 6  24226833.493    24226852.313       -3085.578  
     -2404.285          36.000          40.000  
 24  1 10  3 14 20.8000000  0  6G24G10G18G23G32G15
 129724970.416 6 101084484.110 6  24685841.308    24685863.235         620.703  
       483.812          40.000          38.000  
 109141347.521 7  85045273.919 6  20768909.046    20768925.424         401.469  
       312.910          45.000          41.000  
 113895763.050 7  88750010.228 7  21673644.129    21673659.494       -1491.191  
     -1161.992          45.000          45.000  
 110568451.191 7  86157292.946 7  21040477.196    21040492.234       -1537.672  
     -1198.184          43.000          42.000  
 117950787.460 7  91909790.053 7  22445289.352    22445308.976        3183.629  
      2480.766          44.000          42.000  
 127313174.015 6  99205148.795 6  24226892.385    24226911.357       -3085.855  
     -2404.680          36.000          40.000  
 24  1 10  3 14 20.9000000  0  6G24G10G18G23G32G15
 129724908.371 6 101084435.796 6  24685829.502    24685851.436         620.500  
       483.402          40.000          38.000  
 109141307.400 7  85045242.668 6  20768901.411    20768917.792         401.199  
       312.582          45.000          41.000  
 113895912.177 7  88750126.429 7  21673672.507    21673687.871       -1491.211  
     -1162.074          45.000          45.000  
 110568604.943 7  86157412.735 7  21040506.454    21040521.488       -1537.793  
     -1198.285          43.000          42.000  
 117950469.107 7  91909541.996 7  22445228.772    22445248.398        3183.473  
      2480.602          44.000          42.000  
 127313482.660 6  99205389.291 6  24226951.118    24226970.089       -3086.176  
     -2404.852          36.000          41.000  
 24  1 10  3 14 21.0000000  0  6G24G10G18G23G32G15
 129724846.302 6 101084387.427 6  24685817.628    24685839.632         620.688  
       483.352          40.000          39.000  
 109141267.279 7  85045211.398 6  20768893.675    20768910.187         401.344  
       312.617          45.000          41.000  
 113896061.292 7  88750242.616 7  21673700.789    21673716.433       -1491.246  
     -1162.008          45.000          45.000  
 110568758.741 7  86157532.588 7  21040535.830    21040550.656       -1537.598  
     -1198.180          43.000          42.000  
 117950150.753 7  91909293.924 7  22445168.167    22445187.613        3183.621  
      2480.738          45.000          42.000  
 127313791.256 6  99205629.764 6  24227010.006    24227028.885       -3086.023  
     -2404.742          36.000          41.000  
 24  1 10  3 14 21.1000000  0  6G24G10G18G23G32G15
 129724784.259 6 101084339.067 6  24685805.821    24685827.822         620.621  
       483.734          40.000          39.000  
 109141227.148 7  85045180.125 6  20768886.038    20768902.550         401.355  
       312.621          45.000          41.000  
 113896210.436 7  88750358.820 7  21673729.170    21673744.811       -1491.211  
     -1161.981          45.000          45.000  
 110568912.522 7  86157652.414 7  21040565.094    21040579.919       -1537.859  
     -1198.270          43.000          42.000  
 117949832.437 7  91909045.867 7  22445107.594    22445127.035        3183.453  
      2480.395          45.000          42.000  
 127314099.909 6  99205870.239 6  24227068.741    24227087.611       -3086.203  
     -2404.922          36.000          41.000  
 24  1 10  3 14 21.2000000  0  6G24G10G18G23G32G15
 129724722.240 6 101084290.727 6  24685794.285    24685816.080         620.359  
       483.332          40.000          39.000  
 109141187.036 7  85045148.881 6  20768878.467    20768894.662         401.211  
       312.469          45.000          41.000  
 113896359.599 7  88750475.073 7  21673758.001    21673773.272       -1491.344  
     -1162.231          45.000          45.000  
 110569066.307 7  86157772.242 7  21040594.007    21040609.143       -1537.852  
     -1198.402          43.000          42.000  
 117949514.096 7  91908797.846 7  22445047.086    22445066.544        3183.367  
      2480.445          45.000          42.000  
 127314408.530 5  99206110.748 6  24227127.673    24227146.401       -3086.344  
     -2404.973          35.000          41.000  
 24  1 10  3 14 21.3000000  0  6G24G10G18G23G32G15
 129724660.246 6 101084242.435 6  24685782.488    24685804.286         620.172  
       483.059          40.000          39.000  
 109141146.949 7  85045117.638 6  20768870.839    20768887.032         400.980  
       312.285          45.000          41.000  
 113896508.752 7  88750591.282 7  21673786.383    21673801.651       -1491.590  
     -1162.332          45.000          45.000  
 110569220.141 7  86157892.129 7  21040623.280    21040638.420       -1538.000  
     -1198.520          43.000          42.000  
 117949195.813 7  91908549.809 7  22444986.519    22445005.971        3183.113  
      2480.367          45.000          42.000  
 127314717.202 5  99206351.262 6  24227186.411    24227205.137       -3086.543  
     -2405.113          35.000          40.000  
 24  1 10  3 14 21.4000000  0  6G24G10G18G23G32G15
 129724598.261 6 101084194.122 6  24685770.583    24685792.050         619.973  
       482.996          39.000          39.000  
 109141106.881 7  85045086.416 6  20768863.293    20768879.525         400.910  
       312.379          45.000          41.000  
 113896657.949 7  88750707.533 7  21673814.618    21673829.759       -1491.738  
     -1162.574          45.000          45.000  
 110569373.982 7  86158011.991 7  21040652.508    21040667.598       -1538.219  
     -1198.805          43.000          42.000  
 117948877.532 7  91908301.808 7  22444925.858    22444945.555        3182.953  
      2480.074          44.000          42.000  
 127315025.882 5  99206591.794 6  24227245.167    24227264.025       -3086.605  
     -2405.223          35.000          40.000  
 24  1 10  3 14 21.5000000  0  6G24G10G18G23G32G15
 129724536.281 6 101084145.817 6  24685758.789    24685780.254         619.898  
       482.859          39.000          39.000  
 109141066.825 7  85045055.217 6  20768855.670    20768871.905         400.645  
       311.988          45.000          41.000  
 113896807.152 7  88750823.799 7  21673843.011    21673858.153       -1491.965  
     -1162.637          45.000          45.000  
 110569527.819 7  86158131.879 7  21040681.783    21040696.876       -1538.270  
     -1198.699          43.000          42.000  
 117948559.247 7  91908053.794 7  22444865.290    22444884.987        3182.859  
      2480.113          44.000          42.000  
 127315334.574 6  99206832.326 6  24227303.909    24227322.766       -3086.781  
     -2405.324          36.000          40.000  
 24  1 10  3 14 21.6000000  0  6G24G10G18G23G32G15
 129724474.365 6 101084097.594 6  24685746.976    24685768.508         619.488  
       482.508          39.000          39.000  
 109141026.810 7  85045024.011 6  20768847.907    20768863.863         400.379  
       311.926          45.000          41.000  
 113896956.372 7  88750940.082 7  21673871.094    21673886.402       -1492.152  
     -1162.910          45.000          45.000  
 110569681.688 7  86158251.780 7  21040711.407    21040726.204       -1538.512  
     -1199.055          43.000          42.000  
 117948241.011 7  91907805.827 7  22444804.888    22444825.103        3182.508  
      2479.602          44.000          42.000  
 127315643.320 6  99207072.889 6  24227362.755    24227381.514       -3087.141  
     -2405.605          36.000          40.000  
 24  1 10  3 14 21.7000000  0  6G24G10G18G23G32G15
 129724412.418 6 101084049.324 6  24685735.188    24685756.720         619.402  
       482.754          40.000          38.000  
 109140986.800 7  85044992.845 6  20768840.293    20768856.252         400.207  
       311.703          45.000          41.000  
 113897105.634 7  88751056.388 7  21673899.497    21673914.805       -1492.277  
     -1163.008          45.000          45.000  
 110569835.578 7  86158371.653 7  21040740.691    21040755.478       -1538.938  
     -1198.973          43.000          42.000  
 117947922.787 7  91907557.848 7  22444744.332    22444764.544        3182.395  
      2479.754          44.000          42.000  
 127315952.004 6  99207313.452 6  24227421.495    24227440.262       -3086.961  
     -2405.637          36.000          41.000  
 24  1 10  3 14 21.8000000  0  6G24G10G18G23G32G15
 129724350.487 6 101084001.081 6  24685723.231    24685745.134         619.371  
       482.402          40.000          38.000  
 109140946.799 7  85044961.672 6  20768832.869    20768848.686         400.160  
       311.820          45.000          41.000  
 113897254.875 7  88751172.691 7  21673928.069    21673943.293       -1492.410  
     -1162.906          45.000          45.000  
 110569989.478 7  86158491.600 7  21040770.118    21040784.927       -1538.734  
     -1199.176          43.000          42.000  
 117947604.579 7  91907309.888 7  22444683.826    22444703.779        3182.309  
      2479.703          44.000          42.000  
 127316260.730 6  99207554.007 6  24227480.479    24227498.969       -3087.164  
     -2405.641          36.000          40.000  
 24  1 10  3 14 21.9000000  0  6G24G10G18G23G32G15
 129724288.594 6 101083952.834 6  24685711.453    24685733.352         619.238  
       482.543          40.000          38.000  
 109140906.808 7  85044930.524 6  20768825.259    20768841.079         400.059  
       311.555          45.000          41.000  
 113897404.146 7  88751288.991 7  21673956.474    21673971.695       -1492.570  
     -1163.055          45.000          45.000  
 110570143.370 7  86158611.513 7  21040799.402    21040814.211       -1538.914  
     -1199.250          43.000          42.000  
 117947286.344 7  91907061.928 7  22444623.268    22444643.224        3182.238  
      2479.496          44.000          42.000  
 127316569.443 6  99207794.585 6  24227539.225    24227557.720       -3087.113  
     -2405.695          36.000          40.000  
 24  1 10  3 14 22.0000000  0  6G24G10G18G23G32G15
 129724226.701 6 101083904.600 6  24685699.448    24685721.650         618.973  
       482.238          40.000          38.000  
 109140866.834 7  85044899.368 6  20768817.379    20768833.518         399.781  
       311.523          45.000          41.000  
 113897553.419 7  88751405.314 7  21673984.864    21674000.212       -1492.676  
     -1163.398          45.000          45.000  
 110570297.319 7  86158731.462 7  21040828.745    21040842.832       -1539.219  
     -1199.449          43.000          42.000  
 117946968.188 7  91906814.006 7  22444562.592    22444582.546        3181.914  
      2479.387          44.000          42.000  
 127316878.187 6  99208035.205 6  24227598.141    24227616.482       -3087.211  
     -2406.191          36.000          40.000  
 24  1 10  3 14 22.1000000  0  6G24G10G18G23G32G15
 129724164.818 6 101083856.385 6  24685687.672    24685709.876         618.887  
       482.168          40.000          38.000  
 109140826.861 7  85044868.224 6  20768809.772    20768825.912         399.824  
       311.336          45.000          41.000  
 113897702.706 7  88751521.633 7  21674013.273    21674028.618       -1492.738  
     -1163.109          45.000          45.000  
 110570451.207 7  86158851.387 7  21040858.029    21040872.118       -1538.973  
     -1199.250          43.000          42.000  
 117946649.967 7  91906566.048 7  22444502.037    22444521.992        3182.098  
      2479.527          44.000          42.000  
 127317187.005 6  99208275.763 6  24227656.907    24227675.229       -3087.711  
     -2405.602          36.000          40.000  
 24  1 10  3 14 22.2000000  0  6G24G10G18G23G32G15
 129724102.975 6 101083808.196 6  24685675.818    24685697.920         618.422  
       481.859          40.000          38.000  
 109140786.922 7  85044837.106 6  20768802.039    20768818.492         399.328  
       311.207          45.000          41.000  
 113897852.005 7  88751637.983 7  21674042.262    21674057.126       -1493.160  
     -1163.586          45.000          45.000  
 110570605.179 7  86158971.378 7  21040886.985    21040902.054       -1539.617  
     -1199.773          43.000          42.000  
 117946331.825 7  91906318.129 7  22444441.512    22444461.503        3181.340  
      2478.957          44.000          42.000  
 127317495.744 5  99208516.381 6  24227715.658    24227733.420       -3087.840  
     -2405.969          35.000          40.000  
 24  1 10  3 14 22.3000000  0  6G24G10G18G23G32G15
 129724041.123 6 101083760.016 6  24685664.048    24685686.154         618.355  
       481.789          39.000          38.000  
 109140747.000 7  85044805.988 6  20768794.442    20768810.893         399.172  
       311.191          45.000          41.000  
 113898001.351 7  88751754.358 7  21674070.681    21674085.545       -1493.481  
     -1163.699          45.000          45.000  
 110570759.141 7  86159091.330 7  21040916.283    21040931.348       -1539.793  
     -1199.770          43.000          42.000  
 117946013.689 7  91906070.247 7  22444380.973    22444400.967        3181.359  
      2478.762          44.000          42.000  
 127317804.616 5  99208757.023 6  24227774.434    24227792.187       -3088.188  
     -2406.441          35.000          40.000  
 24  1 10  3 14 22.4000000  0  6G24G10G18G23G32G15
 129723979.322 6 101083711.810 6  24685652.764    24685674.304         618.297  
       482.035          40.000          38.000  
 109140707.092 7  85044774.900 6  20768787.184    20768803.473         399.219  
       311.012          45.000          41.000  
 113898150.699 7  88751870.731 7  21674099.093    21674113.699       -1493.367  
     -1163.699          45.000          45.000  
 110570913.092 7  86159211.299 7  21040945.438    21040960.700       -1539.551  
     -1199.676          43.000          43.000  
 117945695.560 7  91905822.344 7  22444320.365    22444339.958        3181.418  
      2479.059          44.000          42.000  
 127318113.394 5  99208997.642 6  24227833.286    24227850.746       -3088.020  
     -2406.281          35.000          40.000  
 24  1 10  3 14 22.5000000  0  6G24G10G18G23G32G15
 129723917.483 6 101083663.666 6  24685640.997    24685662.546         618.328  
       481.492          40.000          38.000  
 109140667.202 7  85044743.816 6  20768779.593    20768795.882         399.066  
       310.820          45.000          41.000  
 113898300.057 7  88751987.101 7  21674127.515    21674142.118       -1493.402  
     -1163.832          45.000          45.000  
 110571067.125 7  86159331.335 7  21040974.750    21040990.014       -1539.922  
     -1200.156          43.000          43.000  
 117945377.458 7  91905574.485 7  22444259.832    22444279.429        3181.258  
      2478.754          44.000          42.000  
 127318422.252 5  99209238.298 6  24227892.060    24227909.516       -3088.281  
     -2406.516          35.000          40.000  
 24  1 10  3 14 22.6000000  0  6G24G10G18G23G32G15
 129723855.725 6 101083615.508 6  24685629.494    24685650.739         617.922  
       481.461          40.000          38.000  
 109140627.345 7  85044712.733 6  20768771.868    20768788.166         398.785  
       310.691          45.000          41.000  
 113898449.446 7  88752103.530 7  21674155.498    21674170.551       -1493.715  
     -1164.195          45.000          45.000  
 110571221.122 7  86159451.337 7  21041004.219    21041019.320       -1540.012  
     -1200.137          43.000          43.000  
 117945059.371 7  91905326.609 7  22444199.153    22444219.270        3180.980  
      2478.469          44.000          42.000  
 127318731.072 5  99209478.972 6  24227950.967    24227968.322       -3088.246  
     -2406.723          35.000          40.000  
 24  1 10  3 14 22.7000000  0  6G24G10G18G23G32G15
 129723793.964 6 101083567.410 6  24685617.742    24685638.993         617.871  
       481.059          40.000          39.000  
 109140587.475 7  85044681.690 6  20768764.281    20768780.585         398.766  
       310.543          45.000          41.000  
 113898598.832 7  88752219.914 7  21674183.925    21674198.973       -1493.844  
     -1163.977          45.000          45.000  
 110571375.145 7  86159571.345 7  21041033.528    21041048.627       -1540.004  
     -1200.047          43.000          43.000  
 117944741.287 7  91905078.763 7  22444138.624    22444158.743        3180.945  
      2478.766          44.000          42.000  
 127319039.986 5  99209719.646 6  24228009.752    24228027.098       -3088.609  
     -2406.801          35.000          40.000  
 24  1 10  3 14 22.8000000  0  6G24G10G18G23G32G15
 129723732.185 6 101083519.268 6  24685605.650    24685627.337         617.781  
       481.199          40.000          38.000  
 109140547.631 7  85044650.637 6  20768756.613    20768772.837         398.605  
       310.609          46.000          41.000  
 113898748.251 7  88752336.353 7  21674212.218    21674227.659       -1493.898  
     -1164.195          45.000          45.000  
 110571529.191 7  86159691.362 7  21041063.022    21041078.069       -1540.348  
     -1200.156          43.000          43.000  
 117944423.208 7  91904830.897 7  22444078.064    22444098.446        3180.762  
      2478.367          44.000          42.000  
 127319348.801 5  99209960.306 6  24228068.361    24228086.338       -3088.520  
     -2406.723          34.000          40.000  
 24  1 10  3 14 22.9000000  0  6G24G10G18G23G32G15
 129723670.445 6 101083471.169 6  24685593.901    24685615.591         617.578  
       481.074          40.000          38.000  
 109140507.785 7  85044619.593 6  20768749.031    20768765.256         398.461  
       310.297          45.000          41.000  
 113898897.662 7  88752452.786 7  21674240.650    21674256.093       -1494.109  
     -1164.305          45.000          45.000  
 110571683.214 7  86159811.397 7  21041092.331    21041107.383       -1540.266  
     -1200.320          43.000          43.000  
 117944105.160 7  91904583.080 7  22444017.542    22444037.927        3180.645  
      2478.352          44.000          42.000  
 127319657.711 5  99210201.011 6  24228127.145    24228145.121       -3088.777  
     -2406.875          35.000          40.000  
 24  1 10  3 14 23.0000000  0  6G24G10G18G23G32G15
 129723608.708 6 101083423.055 6  24685582.083    24685604.068         617.434  
       481.039          39.000          38.000  
 109140467.970 7  85044588.576 6  20768741.649    20768757.845         398.375  
       310.352          45.000          41.000  
 113899047.093 7  88752569.223 7  21674268.882    21674283.997       -1494.203  
     -1164.430          45.000          45.000  
 110571837.277 7  86159931.451 7  21041121.781    21041136.545       -1540.500  
     -1200.500          43.000          43.000  
 117943787.137 7  91904335.267 6  22443957.110    22443977.729        3180.488  
      2478.129          44.000          41.000  
 127319966.586 5  99210441.682 6  24228185.789    24228203.926       -3088.797  
     -2406.727          35.000          40.000  
 24  1 10  3 14 23.1000000  0  6G24G10G18G23G32G15
 129723547.017 6 101083374.983 6  24685570.343    24685592.328         617.188  
       480.898          39.000          38.000  
 109140428.170 7  85044557.563 6  20768734.076    20768750.272         398.188  
       310.168          46.000          41.000  
 113899196.542 7  88752685.662 7  21674297.322    21674312.433       -1494.363  
     -1164.391          45.000          45.000  
 110571991.362 7  86160051.520 7  21041151.103    21041165.867       -1540.664  
     -1200.699          43.000          43.000  
 117943469.090 7  91904087.451 6  22443896.588    22443917.209        3180.309  
      2478.117          44.000          41.000  
 127320275.520 5  99210682.415 6  24228244.577    24228262.716       -3088.984  
     -2407.250          35.000          40.000  
 24  1 10  3 14 23.2000000  0  6G24G10G18G23G32G15
 129723485.307 6 101083326.902 6  24685558.327    24685580.641         617.098  
       480.793          38.000          39.000  
 109140388.380 7  85044526.551 6  20768726.645    20768742.495         398.008  
       310.039          45.000          41.000  
 113899345.995 7  88752802.136 7  21674325.949    21674341.096       -1494.566  
     -1164.637          45.000          45.000  
 110572145.441 7  86160171.586 7  21041180.290    21041195.548       -1540.672  
     -1200.582          43.000          42.000  
 117943151.104 7  91903839.661 6  22443836.132    22443856.509        3180.285  
      2478.031          44.000          41.000  
 127320584.404 5  99210923.138 6  24228302.957    24228321.510       -3088.844  
     -2407.195          34.000          40.000  
 24  1 10  3 14 23.3000000  0  6G24G10G18G23G32G15
 129723423.625 6 101083278.828 6  24685546.589    24685568.901         616.977  
       480.660          39.000          39.000  
 109140348.618 7  85044495.557 6  20768719.078    20768734.926         397.770  
       309.859          45.000          41.000  
 113899495.494 7  88752918.604 7  21674354.398    21674369.538       -1494.703  
     -1164.797          45.000          45.000  
 110572299.558 7  86160291.651 7  21041209.618    21041224.869       -1541.062  
     -1200.828          43.000          42.000  
 117942833.110 7  91903591.875 6  22443775.619    22443795.997        3179.957  
      2477.605          44.000          41.000  
 127320893.394 5  99211163.845 6  24228361.756    24228380.293       -3089.488  
     -2407.309          35.000          40.000  
 24  1 10  3 14 23.4000000  0  6G24G10G18G23G32G15
 129723361.918 6 101083230.771 6  24685534.815    24685557.657         617.078  
       480.629          39.000          39.000  
 109140308.839 7  85044464.567 6  20768711.430    20768727.679         397.789  
       309.906          45.000          41.000  
 113899644.967 7  88753035.109 7  21674383.052    21674398.216       -1494.684  
     -1164.797          45.000          45.000  
 110572453.646 7  86160411.735 7  21041239.119    21041254.273       -1540.895  
     -1200.731          43.000          42.000  
 117942515.129 7  91903344.084 6  22443715.172    22443735.570        3179.895  
      2478.012          44.000          41.000  
 127321202.361 5  99211404.602 6  24228420.660    24228438.628       -3089.457  
     -2407.434          34.000          40.000  
 24  1 10  3 14 23.5000000  0  6G24G10G18G23G32G15
 129723300.256 6 101083182.732 6  24685523.081    24685545.926         616.758  
       480.551          39.000          39.000  
 109140269.108 7  85044433.612 6  20768703.870    20768720.119         397.613  
       309.773          45.000          41.000  
 113899794.466 7  88753151.588 7  21674411.501    21674426.662       -1494.918  
     -1164.859          45.000          45.000  
 110572607.795 7  86160531.854 7  21041268.453    21041283.607       -1541.027  
     -1200.945          43.000          42.000  
 117942197.165 7  91903096.341 6  22443654.665    22443675.069        3179.848  
      2477.730          44.000          41.000  
 127321511.278 5  99211645.330 6  24228479.445    24228497.416       -3089.344  
     -2407.496          35.000          40.000  
 24  1 10  3 14 23.6000000  0  6G24G10G18G23G32G15
 129723238.648 6 101083134.708 6  24685511.381    24685534.268         616.461  
       480.312          40.000          39.000  
 109140229.380 7  85044402.658 6  20768696.068    20768712.646         397.395  
       309.336          45.000          41.000  
 113899944.005 7  88753268.105 7  21674439.723    21674455.148       -1495.125  
     -1165.191          45.000          45.000  
 110572761.920 7  86160651.943 7  21041297.805    21041312.489       -1541.434  
     -1201.281          43.000          42.000  
 117941879.208 7  91902848.574 6  22443594.371    22443613.796        3179.508  
      2477.281          44.000          41.000  
 127321820.234 5  99211886.091 6  24228538.331    24228556.306       -3089.488  
     -2407.645          35.000          40.000  
 24  1 10  3 14 23.7000000  0  6G24G10G18G23G32G15
 129723177.001 6 101083086.676 6  24685499.650    24685522.538         616.359  
       480.105          40.000          39.000  
 109140189.674 7  85044371.709 6  20768688.512    20768705.087         397.168  
       309.449          45.000          41.000  
 113900093.553 7  88753384.628 7  21674468.181    21674483.604       -1495.414  
     -1165.356          45.000          45.000  
 110572916.096 7  86160772.095 7  21041327.144    21041341.831       -1541.469  
     -1201.316          43.000          42.000  
 117941561.320 7  91902600.879 6  22443533.879    22443553.306        3179.352  
      2477.266          44.000          41.000  
 127322129.258 6  99212126.881 6  24228597.136    24228615.110       -3089.828  
     -2407.969          36.000          40.000  
 24  1 10  3 14 23.8000000  0  6G24G10G18G23G32G15
 129723115.431 6 101083038.706 6  24685488.207    24685510.675         616.047  
       479.961          40.000          39.000  
 109140150.011 7  85044340.807 6  20768680.831    20768697.275         396.871  
       309.113          45.000          41.000  
 113900243.130 7  88753501.182 7  21674496.457    21674512.216       -1495.656  
     -1165.590          45.000          45.000  
 110573070.280 7  86160892.242 7  21041356.391    21041370.961       -1541.801  
     -1201.621          43.000          42.000  
 117941243.417 7  91902353.145 6  22443473.197    22443492.815        3179.047  
      2477.094          44.000          41.000  
 127322438.284 5  99212367.705 6  24228656.129    24228674.343       -3090.156  
     -2408.078          35.000          40.000  
 24  1 10  3 14 23.9000000  0  6G24G10G18G23G32G15
 129723053.905 6 101082990.752 6  24685476.499    24685498.964         615.660  
       479.672          39.000          39.000  
 109140110.339 7  85044309.898 6  20768673.282    20768689.727         396.754  
       308.891          45.000          41.000  
 113900392.703 7  88753617.745 7  21674524.920    21674540.682       -1495.562  
     -1165.578          45.000          45.000  
 110573224.465 7  86161012.371 7  21041385.731    21041400.298       -1541.957  
     -1201.371          43.000          43.000  
 117940925.503 7  91902105.441 6  22443412.700    22443432.323        3179.070  
      2477.078          44.000          41.000  
 127322747.354 5  99212608.514 6  24228714.944    24228733.151       -3090.344  
     -2407.992          35.000          40.000  
 24  1 10  3 14 24.0000000  0  6G24G10G18G23G32G15
 129722992.303 6 101082942.760 6  24685464.917    24685486.744         615.879  
       479.777          39.000          39.000  
 109140070.668 7  85044278.978 6  20768665.725    20768682.059         396.805  
       309.191          45.000          41.000  
 113900542.286 7  88753734.315 7  21674553.627    21674568.673       -1495.723  
     -1165.492          45.000          45.000  
 110573378.695 7  86161132.561 7  21041415.103    21041429.869       -1541.816  
     -1201.559          43.000          42.000  
 117940607.645 7  91901857.747 6  22443352.081    22443372.099        3178.879  
      2476.996          44.000          41.000  
 127323056.374 5  99212849.284 6  24228773.811    24228792.067       -3090.156  
     -2407.793          35.000          40.000  
 24  1 10  3 14 24.1000000  0  6G24G10G18G23G32G15
 129722930.807 6 101082894.817 6  24685453.215    24685475.036         615.340  
       479.277          38.000          39.000  
 109140031.045 7  85044248.105 6  20768658.185    20768674.519         396.500  
       308.891          45.000          41.000  
 113900691.920 7  88753850.881 7  21674582.101    21674597.139       -1496.004  
     -1165.887          45.000          45.000  
 110573532.927 7  86161252.731 7  21041444.453    21041459.215       -1542.289  
     -1201.988          43.000          42.000  
 117940289.768 7  91901610.062 6  22443291.591    22443311.612        3178.699  
      2476.512          44.000          41.000  
 127323365.436 5  99213090.121 6  24228832.623    24228850.882       -3090.594  
     -2408.391          35.000          40.000  
 24  1 10  3 14 24.2000000  0  6G24G10G18G23G32G15
 129722869.307 6 101082846.862 6  24685441.145    24685462.989         615.285  
       479.469          38.000          38.000  
 109139991.417 7  85044217.223 6  20768650.894    20768667.196         396.332  
       308.770          45.000          41.000  
 113900841.529 7  88753967.474 7  21674610.829    21674625.863       -1496.152  
     -1165.914          45.000          45.000  
 110573687.139 7  86161372.897 7  21041473.845    21041488.444       -1542.188  
     -1201.695          43.000          42.000  
 117939971.952 7  91901362.420 6  22443231.425    22443250.846        3178.473  
      2476.758          43.000          41.000  
 127323674.522 6  99213330.977 6  24228891.222    24228909.443       -3090.645  
     -2408.289          36.000          40.000  
 24  1 10  3 14 24.3000000  0  6G24G10G18G23G32G15
 129722807.788 6 101082798.935 6  24685429.438    24685451.284         615.223  
       479.223          39.000          38.000  
 109139951.811 7  85044186.370 6  20768643.357    20768659.662         396.203  
       308.578          45.000          41.000  
 113900991.181 7  88754084.085 7  21674639.307    21674654.340       -1496.336  
     -1166.106          45.000          45.000  
 110573841.423 7  86161493.122 7  21041503.204    21041517.804       -1542.398  
     -1202.016          43.000          43.000  
 117939654.128 7  91901114.752 6  22443170.945    22443190.363        3178.355  
      2476.547          44.000          41.000  
 127323983.614 6  99213571.836 6  24228950.040    24228968.264       -3090.832  
     -2408.602          36.000          40.000  
 24  1 10  3 14 24.4000000  0  6G24G10G18G23G32G15
 129722746.274 6 101082751.039 6  24685417.568    24685439.650         615.129  
       478.949          40.000          39.000  
 109139912.229 7  85044155.541 6  20768635.903    20768652.399         396.039  
       308.344          45.000          41.000  
 113901140.860 7  88754200.728 7  21674667.672    21674682.669       -1496.422  
     -1166.242          45.000          45.000  
 110573995.693 7  86161613.305 7  21041532.678    21041547.083       -1542.738  
     -1202.191          43.000          42.000  
 117939336.319 7  91900867.119 6  22443110.460    22443129.732        3178.188  
      2476.336          43.000          41.000  
 127324292.728 6  99213812.647 6  24229008.893    24229027.291       -3090.852  
     -2408.426          36.000          40.000  
 24  1 10  3 14 24.5000000  0  6G24G10G18G23G32G15
 129722684.816 6 101082703.175 6  24685405.873    24685427.961         614.844  
       478.680          41.000          39.000  
 109139872.675 7  85044124.715 6  20768628.376    20768644.871         395.727  
       308.207          45.000          41.000  
 113901290.540 7  88754317.356 7  21674696.155    21674711.151       -1496.785  
     -1166.391          45.000          45.000  
 110574149.992 7  86161733.576 7  21041562.040    21041576.455       -1542.723  
     -1202.195          43.000          42.000  
 117939018.565 7  91900619.523 6  22443049.993    22443069.267        3177.938  
      2476.148          44.000          41.000  
 127324601.812 5  99214053.557 6  24229067.710    24229086.123       -3091.039  
     -2408.848          35.000          40.000  
 24  1 10  3 14 24.6000000  0  6G24G10G18G23G32G15
 129722623.342 6 101082655.253 6  24685394.011    24685416.539         614.824  
       478.926          41.000          39.000  
 109139833.115 7  85044093.868 6  20768620.856    20768637.564         395.645  
       308.293          45.000          41.000  
 113901440.239 7  88754433.985 7  21674724.580    21674740.063       -1496.867  
     -1166.473          45.000          45.000  
 110574304.299 7  86161853.807 7  21041591.045    21041605.770       -1542.949  
     -1202.469          43.000          42.000  
 117938700.765 7  91900371.876 6  22442989.588    22443009.297        3177.801  
      2476.062          43.000          41.000  
 127324910.951 5  99214294.443 6  24229126.826    24229145.185       -3091.082  
     -2408.895          35.000          40.000  
 24  1 10  3 14 24.7000000  0  6G24G10G18G23G32G15
 129722561.866 6 101082607.387 6  24685382.313    24685404.850         614.777  
       478.891          41.000          39.000  
 109139793.566 7  85044063.071 6  20768613.330    20768630.043         395.652  
       308.137          45.000          41.000  
 113901589.920 7  88754550.643 7  21674753.063    21674768.552       -1496.891  
     -1166.441          45.000          45.000  
 110574458.570 7  86161974.026 7  21041620.402    21041635.129       -1542.945  
     -1202.504          43.000          42.000  
 117938383.004 7  91900124.291 6  22442929.120    22442948.834        3177.723  
      2476.180          43.000          41.000  
 127325220.130 6  99214535.333 6  24229185.661    24229204.013       -3091.410  
     -2409.023          36.000          40.000  
 24  1 10  3 14 24.8000000  0  6G24G10G18G23G32G15
 129722500.422 6 101082559.490 6  24685371.066    24685393.341         614.508  
       478.871          41.000          40.000  
 109139754.038 7  85044032.241 6  20768605.793    20768622.319         395.309  
       308.113          45.000          41.000  
 113901739.648 7  88754667.307 7  21674781.305    21674796.738       -1497.086  
     -1166.738          45.000          45.000  
 110574612.912 7  86162094.292 7  21041649.740    21041664.655       -1543.078  
     -1202.395          43.000          42.000  
 117938065.292 7  91899876.697 6  22442868.232    22442888.486        3177.512  
      2475.910          43.000          41.000  
 127325529.277 6  99214776.262 6  24229244.302    24229262.850       -3091.398  
     -2409.195          36.000          40.000  
 24  1 10  3 14 24.9000000  0  6G24G10G18G23G32G15
 129722439.001 6 101082511.646 6  24685359.377    24685381.657         614.379  
       478.359          41.000          40.000  
 109139714.543 7  85044001.483 6  20768598.277    20768614.807         395.160  
       307.754          45.000          41.000  
 113901889.387 7  88754783.972 7  21674809.800    21674825.228       -1497.352  
     -1166.832          45.000          45.000  
 110574767.280 7  86162214.540 7  21041679.116    21041694.021       -1543.508  
     -1202.758          43.000          42.000  
 117937747.551 7  91899629.109 6  22442807.768    22442828.023        3177.355  
      2475.742          43.000          41.000  
 127325838.481 5  99215017.141 6  24229303.142    24229321.675       -3091.742  
     -2408.879          35.000          40.000  
 24  1 10  3 14 25.0000000  0  6G24G10G18G23G32G15
 129722377.620 6 101082463.819 6  24685347.736    24685370.196         614.129  
       478.406          40.000          40.000  
 109139675.044 7  85043970.690 6  20768590.667    20768607.326         395.090  
       307.875          45.000          41.000  
 113902039.144 7  88754900.682 7  21674838.423    21674853.363       -1497.402  
     -1167.000          46.000          45.000  
 110574921.644 7  86162334.859 7  21041708.334    21041723.373       -1543.359  
     -1202.902          43.000          42.000  
 117937429.832 7  91899381.547 6  22442747.292    22442767.706        3177.270  
      2475.738          43.000          41.000  
 127326147.650 5  99215258.098 6  24229361.897    24229380.175       -3091.770  
     -2409.492          35.000          40.000  
 24  1 10  3 14 25.1000000  0  6G24G10G18G23G32G15
 129722316.231 6 101082415.977 6  24685336.054    24685358.512         613.945  
       478.371          40.000          40.000  
 109139635.572 7  85043939.955 6  20768583.155    20768599.821         394.910  
       307.453          45.000          41.000  
 113902188.932 7  88755017.394 7  21674866.926    21674881.865       -1497.523  
     -1166.914          45.000          45.000  
 110575076.006 7  86162455.144 7  21041737.708    21041752.747       -1543.602  
     -1202.754          43.000          42.000  
 117937112.145 7  91899133.989 6  22442686.839    22442707.250        3177.070  
      2475.582          43.000          41.000  
 127326456.849 5  99215499.016 6  24229420.735    24229439.010       -3091.746  
     -2409.074          35.000          40.000  
 24  1 10  3 14 25.2000000  0  6G24G10G18G23G32G15
 129722254.920 6 101082368.163 6  24685324.301    24685346.679         613.148  
       478.086          39.000          40.000  
 109139596.136 7  85043909.227 6  20768575.550    20768592.192         394.367  
       307.391          45.000          41.000  
 113902338.717 7  88755134.110 7  21674895.633    21674910.728       -1498.109  
     -1167.340          45.000          45.000  
 110575230.426 7  86162575.473 7  21041767.336    21041781.836       -1544.168  
     -1203.191          43.000          42.000  
 117936794.466 7  91898886.452 6  22442626.761    22442646.736        3176.688  
      2475.270          43.000          41.000  
 127326766.062 5  99215739.981 6  24229479.670    24229497.895       -3092.258  
     -2409.684          35.000          40.000  
 24  1 10  3 14 25.3000000  0  6G24G10G18G23G32G15
 129722193.645 6 101082320.397 6  24685312.641    24685335.014         613.016  
       477.816          39.000          39.000  
 109139556.694 7  85043878.481 6  20768568.044    20768584.683         394.250  
       307.184          45.000          41.000  
 113902488.529 7  88755250.845 7  21674924.141    21674939.236       -1498.309  
     -1167.426          45.000          45.000  
 110575384.825 7  86162695.780 7  21041796.717    21041811.216       -1544.055  
     -1203.211          43.000          42.000  
 117936476.817 7  91898638.950 6  22442566.315    22442586.294        3176.449  
      2475.172          43.000          41.000  
 127327075.337 5  99215980.959 6  24229538.523    24229556.744       -3092.570  
     -2409.648          35.000          40.000  
 24  1 10  3 14 25.4000000  0  6G24G10G18G23G32G15
 129722132.278 6 101082272.606 6  24685300.924    24685323.328         613.438  
       477.809          39.000          39.000  
 109139517.255 7  85043847.752 6  20768560.633    20768576.968         394.414  
       307.305          45.000          41.000  
 113902638.331 7  88755367.575 7  21674952.928    21674967.992       -1498.004  
     -1167.348          45.000          45.000  
 110575539.223 7  86162816.080 7  21041826.355    21041840.821       -1544.145  
     -1203.316          43.000          42.000  
 117936159.165 7  91898391.408 6  22442506.016    22442525.803        3176.578  
      2475.137          43.000          41.000  
 127327384.582 5  99216221.909 6  24229597.043    24229615.993       -3092.363  
     -2409.559          34.000          40.000  
 24  1 10  3 14 25.5000000  0  6G24G10G18G23G32G15
 129722070.969 6 101082224.846 6  24685289.257    24685311.664         613.266  
       477.605          39.000          39.000  
 109139477.837 7  85043817.033 6  20768553.132    20768569.466         394.402  
       307.289          45.000          41.000  
 113902788.144 7  88755484.310 7  21674981.437    21674996.500       -1498.121  
     -1167.356          45.000          45.000  
 110575693.661 7  86162936.426 7  21041855.744    21041870.211       -1544.000  
     -1203.148          43.000          42.000  
 117935841.506 7  91898143.878 6  22442445.568    22442465.353        3176.523  
      2475.266          43.000          41.000  
 127327693.816 5  99216462.882 6  24229655.888    24229674.841       -3092.332  
     -2409.691          35.000          40.000  
 24  1 10  3 14 25.6000000  0  6G24G10G18G23G32G15
 129722009.624 6 101082177.045 6  24685277.607    24685299.819         613.363  
       477.801          40.000          39.000  
 109139438.445 7  85043786.350 6  20768545.839    20768561.777         394.145  
       307.008          45.000          41.000  
 113902937.999 7  88755601.075 7  21675009.875    21675024.555       -1498.297  
     -1167.586          45.000          45.000  
 110575848.123 7  86163056.782 7  21041885.129    21041899.752       -1544.344  
     -1203.469          43.000          42.000  
 117935523.871 7  91897896.381 6  22442384.874    22442404.802        3176.453  
      2475.121          43.000          41.000  
 127328003.053 5  99216703.864 6  24229714.859    24229733.621       -3092.414  
     -2409.930          35.000          40.000  
 24  1 10  3 14 25.7000000  0  6G24G10G18G23G32G15
 129721948.341 6 101082129.302 6  24685265.946    24685288.159         613.074  
       477.652          40.000          39.000  
 109139399.048 7  85043755.650 6  20768538.342    20768554.280         393.945  
       306.734          45.000          41.000  
 113903087.855 7  88755717.861 7  21675038.392    21675053.075       -1498.348  
     -1167.816          45.000          45.000  
 110576002.559 7  86163177.111 7  21041914.518    21041929.137       -1544.496  
     -1203.418          43.000          42.000  
 117935206.273 7  91897648.886 6  22442324.437    22442344.362        3176.168  
      2474.832          44.000          41.000  
 127328312.359 5  99216944.875 6  24229773.718    24229792.479       -3092.793  
     -2409.934          35.000          40.000  
 24  1 10  3 14 25.8000000  0  6G24G10G18G23G32G15
 129721887.072 6 101082081.569 6  24685254.622    24685276.159         612.855  
       477.336          40.000          39.000  
 109139359.678 7  85043724.970 6  20768530.756    20768546.780         393.816  
       306.926          45.000          41.000  
 113903237.717 7  88755834.616 7  21675066.667    21675081.509       -1498.629  
     -1167.750          45.000          45.000  
 110576157.001 7  86163297.467 7  21041943.844    21041958.842       -1544.527  
     -1203.602          43.000          42.000  
 117934888.659 7  91897401.422 6  22442263.723    22442283.944        3176.082  
      2474.738          44.000          41.000  
 127328621.632 5  99217185.863 6  24229832.672    24229851.158       -3092.691  
     -2409.793          35.000          40.000  
 24  1 10  3 14 25.9000000  0  6G24G10G18G23G32G15
 129721825.805 6 101082033.813 6  24685242.964    24685264.496         612.754  
       477.469          40.000          39.000  
 109139320.319 7  85043694.310 6  20768523.266    20768539.293         393.809  
       306.695          45.000          41.000  
 113903387.598 7  88755951.431 7  21675095.189    21675110.037       -1498.594  
     -1167.895          45.000          45.000  
 110576311.477 7  86163417.822 7  21041973.240    21041988.234       -1544.684  
     -1203.746          43.000          42.000  
 117934571.112 7  91897153.961 6  22442203.296    22442223.512        3175.934  
      2474.859          44.000          41.000  
 127328930.918 6  99217426.878 6  24229891.527    24229910.017       -3092.805  
     -2410.121          36.000          40.000  
 24  1 10  3 14 26.0000000  0  6G24G10G18G23G32G15
 129721764.572 6 101081986.090 6  24685231.374    24685252.365         612.484  
       477.188          39.000          39.000  
 109139280.983 7  85043663.649 6  20768515.586    20768531.672         393.559  
       306.590          45.000          41.000  
 113903537.505 7  88756068.234 7  21675123.512    21675138.905       -1498.910  
     -1167.988          45.000          45.000  
 110576465.983 7  86163538.234 7  21042002.321    21042017.835       -1544.777  
     -1203.984          43.000          42.000  
 117934253.519 7  91896906.494 6  22442142.938    22442163.203        3175.770  
      2474.438          44.000          41.000  
 127329240.282 6  99217667.923 6  24229950.460    24229968.539       -3093.195  
     -2410.289          36.000          40.000  
 24  1 10  3 14 26.1000000  0  6G24G10G18G23G32G15
 129721703.375 6 101081938.365 6  24685219.728    24685240.710         612.277  
       477.176          39.000          39.000  
 109139241.644 7  85043633.006 6  20768508.100    20768524.189         393.395  
       306.395          45.000          41.000  
 113903687.422 7  88756185.046 7  21675152.040    21675167.432       -1499.023  
     -1168.184          45.000          45.000  
 110576620.471 7  86163658.613 7  21042031.719    21042047.233       -1544.887  
     -1203.926          43.000          42.000  
 117933935.980 7  91896659.058 6  22442082.513    22442102.776        3175.656  
      2474.250          44.000          41.000  
 127329549.615 6  99217908.977 6  24230009.324    24230027.406       -3093.324  
     -2410.438          36.000          40.000  
 24  1 10  3 14 26.2000000  0  6G24G10G18G23G32G15
 129721642.165 6 101081890.684 6  24685207.596    24685229.300         612.117  
       476.855          39.000          39.000  
 109139202.353 7  85043602.374 6  20768500.842    20768516.794         393.133  
       306.238          45.000          41.000  
 113903837.374 7  88756301.888 7  21675180.708    21675196.263       -1499.273  
     -1168.441          45.000          45.000  
 110576775.042 7  86163779.055 7  21042061.032    21042076.669       -1545.148  
     -1204.215          43.000          42.000  
 117933618.449 7  91896411.632 7  22442022.448    22442042.493        3175.418  
      2474.285          44.000          42.000  
 127329859.005 6  99218150.011 6  24230068.293    24230086.183       -3093.473  
     -2410.426          36.000          40.000  
 24  1 10  3 14 26.3000000  0  6G24G10G18G23G32G15
 129721580.992 6 101081843.034 6  24685195.955    24685217.664         611.926  
       476.543          39.000          39.000  
 109139163.059 7  85043571.762 6  20768493.364    20768509.318         393.016  
       306.094          45.000          41.000  
 113903987.302 7  88756418.725 7  21675209.239    21675224.796       -1499.371  
     -1168.492          45.000          45.000  
 110576929.554 7  86163899.471 7  21042090.434    21042106.076       -1545.270  
     -1204.203          43.000          42.000  
 117933300.949 7  91896164.231 7  22441962.030    22441982.075        3175.219  
      2474.070          44.000          42.000  
 127330168.338 5  99218391.096 6  24230127.157    24230145.059       -3093.453  
     -2410.664          35.000          40.000  
 24  1 10  3 14 26.4000000  0  6G24G10G18G23G32G15
 129721519.807 6 101081795.391 6  24685184.164    24685206.708         611.898  
       476.684          39.000          39.000  
 109139123.791 7  85043541.171 6  20768485.845    20768502.027         392.914  
       306.098          45.000          41.000  
 113904137.265 7  88756535.571 7  21675237.893    21675253.432       -1499.512  
     -1168.570          46.000          45.000  
 110577084.102 7  86164019.886 7  21042119.992    21042135.287       -1545.508  
     -1204.320          43.000          42.000  
 117932983.447 7  91895916.821 6  22441901.728    22441921.546        3175.066  
      2474.035          44.000          41.000  
 127330477.731 5  99218632.163 6  24230185.751    24230204.242       -3093.699  
     -2410.512          35.000          40.000  
 24  1 10  3 14 26.5000000  0  6G24G10G18G23G32G15
 129721458.666 6 101081747.726 6  24685172.529    24685195.068         611.629  
       476.391          39.000          39.000  
 109139084.543 7  85043510.576 6  20768478.376    20768494.556         392.625  
       305.824          45.000          41.000  
 113904287.270 7  88756652.450 7  21675266.438    21675281.975       -1499.750  
     -1168.731          46.000          45.000  
 110577238.688 7  86164140.344 7  21042149.409    21042164.705       -1545.551  
     -1204.457          43.000          42.000  
 117932665.990 7  91895669.455 6  22441841.318    22441861.136        3174.914  
      2473.777          44.000          41.000  
 127330787.111 5  99218873.256 6  24230244.624    24230263.120       -3093.707  
     -2411.016          35.000          40.000  
 24  1 10  3 14 26.6000000  0  6G24G10G18G23G32G15
 129721397.518 6 101081700.074 6  24685160.815    24685183.361         611.562  
       476.656          39.000          38.000  
 109139045.291 7  85043479.979 6  20768470.759    20768487.068         392.531  
       305.734          45.000          41.000  
 113904437.266 7  88756769.331 7  21675295.278    21675310.472       -1499.906  
     -1168.883          46.000          45.000  
 110577393.281 7  86164260.796 7  21042178.905    21042194.112       -1545.895  
     -1204.578          43.000          42.000  
 117932348.498 7  91895422.063 6  22441780.839    22441800.541        3174.754  
      2473.570          44.000          41.000  
 127331096.544 5  99219114.355 6  24230303.445    24230321.968       -3094.109  
     -2410.926          34.000          40.000  
 24  1 10  3 14 26.7000000  0  6G24G10G18G23G32G15
 129721336.432 6 101081652.470 6  24685149.191    24685171.735         611.109  
       475.934          39.000          38.000  
 109139006.102 7  85043449.466 6  20768463.301    20768479.616         392.203  
       305.277          45.000          41.000  
 113904587.305 7  88756886.265 7  21675323.829    21675339.028       -1500.195  
     -1169.141          46.000          45.000  
 110577547.910 7  86164381.290 7  21042208.330    21042223.538       -1546.059  
     -1204.941          43.000          42.000  
 117932031.083 7  91895174.733 7  22441720.437    22441740.141        3174.410  
      2473.355          44.000          42.000  
 127331406.015 5  99219355.477 6  24230362.335    24230380.852       -3094.477  
     -2411.141          34.000          40.000  
 24  1 10  3 14 26.8000000  0  6G24G10G18G23G32G15
 129721275.358 6 101081604.888 6  24685137.787    24685159.889         611.004  
       475.938          40.000          38.000  
 109138966.905 7  85043418.902 6  20768455.733    20768472.191         392.043  
       305.613          45.000          41.000  
 113904737.340 7  88757003.158 7  21675352.044    21675367.278       -1500.285  
     -1169.191          46.000          45.000  
 110577702.523 7  86164501.764 7  21042237.736    21042252.779       -1546.141  
     -1204.773          43.000          42.000  
 117931713.640 7  91894927.379 7  22441659.803    22441679.804        3174.332  
      2473.348          44.000          42.000  
 127331715.487 5  99219596.645 6  24230421.155    24230439.833       -3094.391  
     -2411.668          35.000          40.000  
 24  1 10  3 14 26.9000000  0  6G24G10G18G23G32G15
 129721214.242 6 101081557.258 6  24685126.157    24685148.257         611.027  
       476.281          40.000          38.000  
 109138927.718 7  85043388.366 6  20768448.276    20768464.734         392.039  
       305.328          45.000          41.000  
 113904887.409 7  88757120.106 7  21675380.601    21675395.838       -1500.309  
     -1169.188          46.000          45.000  
 110577857.168 7  86164622.276 7  21042267.164    21042282.210       -1546.156  
     -1204.805          43.000          42.000  
 117931396.219 7  91894680.017 7  22441599.400    22441619.396        3174.324  
      2473.434          44.000          42.000  
 127332024.932 5  99219837.746 6  24230480.041    24230498.713       -3094.434  
     -2411.098          34.000          40.000  
 24  1 10  3 14 27.0000000  0  6G24G10G18G23G32G15
 129721153.211 6 101081509.655 6  24685114.653    24685136.648         610.688  
       475.895          40.000          38.000  
 109138888.548 7  85043357.857 6  20768441.134    20768457.307         391.793  
       305.223          45.000          41.000  
 113905037.478 7  88757237.048 7  21675408.869    21675424.310       -1500.617  
     -1169.453          46.000          45.000  
 110578011.800 7  86164742.757 7  21042296.902    21042311.437       -1546.383  
     -1205.047          43.000          42.000  
 117931078.852 7  91894432.744 6  22441538.952    22441558.838        3174.062  
      2473.141          44.000          41.000  
 127332334.386 5  99220078.914 6  24230538.756    24230557.749       -3094.641  
     -2411.625          35.000          40.000  
 24  1 10  3 14 27.1000000  0  6G24G10G18G23G32G15
 129721092.154 6 101081462.101 6  24685103.034    24685125.034         610.613  
       475.703          40.000          38.000  
 109138849.397 7  85043327.350 6  20768433.684    20768449.857         391.699  
       304.973          45.000          41.000  
 113905187.553 7  88757353.971 7  21675437.428    21675452.864       -1500.703  
     -1169.457          46.000          45.000  
 110578166.467 7  86164863.279 7  21042326.335    21042340.870       -1546.559  
     -1205.250          43.000          42.000  
 117930761.486 7  91894185.425 6  22441478.559    22441498.440        3173.910  
      2473.098          44.000          41.000  
 127332643.943 6  99220320.066 6  24230597.663    24230616.641       -3094.910  
     -2411.484          36.000          40.000  
 24  1 10  3 14 27.2000000  0  6G24G10G18G23G32G15
 129721031.136 6 101081414.541 6  24685091.415    24685113.279         610.395  
       475.418          40.000          38.000  
 109138810.252 7  85043296.827 6  20768426.501    20768442.473         391.508  
       305.102          45.000          41.000  
 113905337.639 7  88757470.926 7  21675466.230    21675481.699       -1500.793  
     -1169.531          46.000          45.000  
 110578321.159 7  86164983.821 7  21042355.810    21042369.878       -1546.606  
     -1205.312          43.000          42.000  
 117930444.097 7  91893938.116 6  22441418.240    22441438.466        3173.848  
      2473.031          43.000          41.000  
 127332953.415 6  99220561.235 6  24230656.538    24230675.443       -3094.836  
     -2411.715          36.000          40.000  
 24  1 10  3 14 27.3000000  0  6G24G10G18G23G32G15
 129720970.083 6 101081366.971 6  24685079.797    24685101.662         610.531  
       475.648          40.000          38.000  
 109138771.120 7  85043266.353 6  20768419.054    20768435.031         391.398  
       304.816          45.000          41.000  
 113905487.759 7  88757587.905 7  21675494.797    21675510.267       -1500.977  
     -1169.637          46.000          45.000  
 110578475.815 7  86165104.342 7  21042385.241    21042399.310       -1546.703  
     -1205.270          43.000          42.000  
 117930126.740 7  91893690.826 7  22441357.849    22441378.075        3173.742  
      2472.945          43.000          42.000  
 127333262.902 6  99220802.409 6  24230715.431    24230734.340       -3094.895  
     -2411.695          36.000          40.000  
 24  1 10  3 14 27.4000000  0  6G24G10G18G23G32G15
 129720909.073 6 101081319.467 6  24685068.031    24685089.772         610.293  
       475.152          41.000          38.000  
 109138732.002 7  85043235.879 6  20768411.556    20768427.901         391.254  
       304.918          45.000          41.000  
 113905637.868 7  88757704.875 7  21675523.424    21675538.730       -1501.117  
     -1169.793          46.000          45.000  
 110578630.546 7  86165224.876 7  21042414.802    21042429.043       -1546.969  
     -1205.531          43.000          42.000  
 117929809.418 7  91893443.563 6  22441297.645    22441317.699        3173.402  
      2472.777          44.000          41.000  
 127333572.427 6  99221043.609 6  24230774.511    24230792.619       -3095.016  
     -2411.855          37.000          40.000  
 24  1 10  3 14 27.5000000  0  6G24G10G18G23G32G15
 129720848.089 6 101081271.956 6  24685056.426    24685078.170         610.066  
       475.156          41.000          38.000  
 109138692.916 7  85043205.419 6  20768404.118    20768420.463         391.094  
       304.527          45.000          41.000  
 113905788.014 7  88757821.873 7  21675551.996    21675567.302       -1501.223  
     -1170.016          46.000          45.000  
 110578785.260 7  86165345.476 7  21042444.243    21042458.494       -1546.992  
     -1205.664          43.000          42.000  
 117929492.080 7  91893196.295 6  22441237.257    22441257.314        3173.398  
      2472.688          43.000          41.000  
 127333881.937 6  99221284.808 6  24230833.409    24230851.522       -3095.023  
     -2412.102          36.000          40.000  
 24  1 10  3 14 27.6000000  0  6G24G10G18G23G32G15
 129720787.130 6 101081224.447 6  24685044.990    24685066.435         609.836  
       474.969          41.000          38.000  
 109138653.840 7  85043174.962 6  20768396.471    20768413.080         390.820  
       304.426          45.000          41.000  
 113905938.188 7  88757938.903 7  21675580.785    21675595.960       -1501.547  
     -1170.137          46.000          45.000  
 110578940.002 7  86165466.042 7  21042473.565    21042487.875       -1547.359  
     -1205.809          43.000          42.000  
 117929174.773 7  91892949.038 6  22441177.188    22441196.830        3173.129  
      2472.355          44.000          41.000  
 127334191.551 6  99221526.026 6  24230892.811    24230910.118       -3095.645  
     -2412.184          36.000          40.000  
 24  1 10  3 14 27.7000000  0  6G24G10G18G23G32G15
 129720726.176 6 101081176.923 6  24685033.391    24685054.829         609.551  
       474.949          41.000          38.000  
 109138614.802 7  85043144.542 6  20768389.042    20768405.651         390.598  
       304.156          45.000          41.000  
 113906088.365 7  88758055.898 7  21675609.362    21675624.532       -1501.731  
     -1170.211          46.000          45.000  
 110579094.766 7  86165586.642 7  21042503.015    21042517.327       -1547.445  
     -1205.875          43.000          42.000  
 117928857.513 7  91892701.828 6  22441116.816    22441136.458        3172.891  
      2472.184          44.000          41.000  
 127334501.113 5  99221767.273 6  24230951.719    24230969.033       -3095.602  
     -2412.406          35.000          40.000  
 24  1 10  3 14 27.8000000  0  6G24G10G18G23G32G15
 129720665.260 6 101081129.493 6  24685022.268    24685043.011         609.379  
       474.547          41.000          38.000  
 109138575.764 7  85043114.126 6  20768381.746    20768398.082         390.477  
       304.195          45.000          41.000  
 113906238.579 7  88758172.968 7  21675637.939    21675652.817       -1501.898  
     -1170.547          46.000          45.000  
 110579249.534 7  86165707.225 7  21042532.279    21042546.759       -1547.711  
     -1205.965          43.000          42.000  
 117928540.270 7  91892454.615 6  22441055.978    22441075.883        3172.668  
      2472.172          44.000          41.000  
 127334810.727 5  99222008.521 6  24231010.472    24231028.174       -3095.930  
     -2412.527          35.000          40.000  
 24  1 10  3 14 27.9000000  0  6G24G10G18G23G32G15
 129720604.352 6 101081082.013 6  24685010.677    24685031.416         609.223  
       474.723          41.000          38.000  
 109138536.741 7  85043083.717 6  20768374.321    20768390.656         390.367  
       304.008          45.000          41.000  
 113906388.790 7  88758290.013 7  21675666.523    21675681.400       -1502.035  
     -1170.566          46.000          45.000  
 110579404.344 7  86165827.852 7  21042561.738    21042576.218       -1547.797  
     -1206.277          43.000          42.000  
 117928223.005 7  91892207.390 6  22440995.604    22441015.508        3172.602  
      2472.016          44.000          41.000  
 127335120.319 5  99222249.791 6  24231069.386    24231087.095       -3095.875  
     -2412.727          34.000          40.000  
 24  1 10  3 14 28.0000000  0  6G24G10G18G23G32G15
 129720543.479 6 101081034.557 6  24684999.023    24685020.163         608.941  
       474.402          41.000          38.000  
 109138497.775 7  85043053.369 6  20768366.773    20768383.315         390.016  
       303.672          45.000          41.000  
 113906539.048 7  88758407.092 7  21675695.218    21675710.406       -1502.324  
     -1170.746          46.000          45.000  
 110579559.155 7  86165948.492 7  21042591.065    21042605.671       -1548.031  
     -1206.324          43.000          42.000  
 117927905.787 7  91891960.229 6  22440935.286    22440954.579        3172.324  
      2471.680          44.000          41.000  
 127335429.998 5  99222491.058 6  24231128.144    24231146.163       -3096.422  
     -2412.785          34.000          40.000  
 24  1 10  3 14 28.1000000  0  6G24G10G18G23G32G15
 129720482.607 6 101080987.155 6  24684987.440    24685008.587         608.809  
       474.230          41.000          38.000  
 109138458.788 7  85043022.963 6  20768359.354    20768375.890         389.867  
       303.723          45.000          41.000  
 113906689.283 7  88758524.155 7  21675723.807    21675738.994       -1502.430  
     -1170.844          46.000          45.000  
 110579713.992 7  86166069.138 7  21042620.530    21042635.134       -1548.160  
     -1206.555          43.000          42.000  
 117927588.573 7  91891713.015 6  22440874.923    22440894.207        3172.074  
      2471.691          44.000          41.000  
 127335739.663 5  99222732.377 6  24231187.071    24231205.096       -3096.406  
     -2413.070          34.000          40.000  
 24  1 10  3 14 28.2000000  0  6G24G10G18G23G32G15
 129720421.740 6 101080939.715 6  24684976.154    24684997.439         608.844  
       474.371          41.000          38.000  
 109138419.813 7  85042992.587 6  20768351.812    20768368.643         389.801  
       303.699          45.000          41.000  
 113906839.561 7  88758641.254 7  21675752.076    21675767.279       -1502.547  
     -1170.898          45.000          45.000  
 110579868.805 7  86166189.770 7  21042650.068    21042664.500       -1548.160  
     -1206.375          43.000          42.000  
 117927271.396 7  91891465.902 6  22440814.433    22440834.015        3172.094  
      2471.570          44.000          41.000  
 127336049.279 5  99222973.648 6  24231245.856    24231263.978       -3096.297  
     -2412.789          35.000          40.000  
 24  1 10  3 14 28.3000000  0  6G24G10G18G23G32G15
 129720360.913 6 101080892.329 6  24684964.579    24684985.867         608.480  
       474.059          41.000          38.000  
 109138380.880 7  85042962.274 6  20768344.403    20768361.241         389.617  
       303.418          45.000          41.000  
 113906989.859 7  88758758.380 7  21675780.676    21675795.882       -1502.746  
     -1171.184          45.000          45.000  
 110580023.648 7  86166310.422 7  21042679.533    21042693.964       -1548.426  
     -1206.773          43.000          42.000  
 117926954.219 7  91891218.732 6  22440754.076    22440773.654        3171.910  
      2471.699          44.000          41.000  
 127336358.955 5  99223214.954 6  24231304.786    24231322.907       -3096.562  
     -2413.152          35.000          40.000  
 24  1 10  3 14 28.4000000  0  6G24G10G18G23G32G15
 129720300.086 6 101080844.901 6  24684952.762    24684974.253         608.387  
       474.109          41.000          38.000  
 109138341.936 7  85042931.928 6  20768336.930    20768353.900         389.473  
       303.445          45.000          41.000  
 113907140.153 7  88758875.486 7  21675809.261    21675824.488       -1502.879  
     -1171.012          45.000          45.000  
 110580178.536 7  86166431.139 7  21042709.141    21042723.609       -1548.602  
     -1206.695          43.000          42.000  
 117926637.068 7  91890971.601 6  22440694.084    22440713.200        3171.711  
      2471.312          44.000          41.000  
 127336668.647 6  99223456.284 6  24231363.851    24231381.920       -3096.742  
     -2413.203          36.000          40.000  
 24  1 10  3 14 28.5000000  0  6G24G10G18G23G32G15
 129720239.266 6 101080797.539 6  24684941.188    24684962.687         608.293  
       473.797          41.000          39.000  
 109138303.015 7  85042901.604 6  20768329.524    20768346.495         389.363  
       303.207          45.000          41.000  
 113907290.467 7  88758992.614 7  21675837.865    21675853.092       -1502.996  
     -1171.273          45.000          45.000  
 110580333.412 7  86166551.795 7  21042738.612    21042753.074       -1548.727  
     -1206.770          43.000          42.000  
 117926319.913 7  91890724.464 6  22440633.731    22440652.847        3171.672  
      2471.430          44.000          41.000  
 127336978.375 6  99223697.581 6  24231422.790    24231440.847       -3096.922  
     -2413.133          36.000          40.000  
 24  1 10  3 14 28.6000000  0  6G24G10G18G23G32G15
 129720178.490 6 101080750.188 6  24684929.287    24684951.451         608.020  
       473.477          41.000          39.000  
 109138264.127 7  85042871.287 6  20768322.303    20768338.950         389.094  
       303.176          45.000          41.000  
 113907440.808 7  88759109.767 7  21675866.442    21675882.030       -1503.207  
     -1171.434          45.000          45.000  
 110580488.310 7  86166672.522 7  21042767.940    21042782.612       -1548.805  
     -1207.156          43.000          42.000  
 117926002.802 7  91890477.381 6  22440573.332    22440592.218        3171.398  
      2471.043          44.000          41.000  
 127337288.057 6  99223938.933 6  24231481.971    24231500.077       -3096.973  
     -2413.477          36.000          40.000  
 24  1 10  3 14 28.7000000  0  6G24G10G18G23G32G15
 129720117.715 6 101080702.824 6  24684917.722    24684939.885         607.840  
       473.547          40.000          38.000  
 109138225.236 7  85042841.004 6  20768314.903    20768331.555         388.992  
       303.035          45.000          41.000  
 113907591.146 7  88759226.898 7  21675895.051    21675910.635       -1503.352  
     -1171.516          45.000          45.000  
 110580643.210 7  86166793.212 7  21042797.416    21042812.085       -1548.984  
     -1206.996          43.000          42.000  
 117925685.651 7  91890230.238 7  22440512.980    22440531.863        3171.242  
      2471.094          44.000          42.000  
 127337597.812 6  99224180.286 6  24231540.915    24231559.018       -3097.230  
     -2413.480          36.000          40.000  
 24  1 10  3 14 28.8000000  0  6G24G10G18G23G32G15
 129720056.948 6 101080655.491 6  24684906.104    24684928.341         607.727  
       473.387          40.000          38.000  
 109138186.354 7  85042810.694 6  20768307.535    20768324.020         388.918  
       302.984          45.000          41.000  
 113907741.499 7  88759344.064 7  21675923.474    21675938.967       -1503.402  
     -1171.582          45.000          45.000  
 110580798.129 7  86166913.918 7  21042826.858    21042841.462       -1549.008  
     -1207.062          43.000          42.000  
 117925368.549 7  91889983.145 7  22440452.700    22440472.122        3171.242  
      2470.961          44.000          42.000  
 127337907.515 5  99224421.638 6  24231599.717    24231618.193       -3097.223  
     -2413.586          35.000          40.000  
 24  1 10  3 14 28.9000000  0  6G24G10G18G23G32G15
 129719996.223 6 101080608.162 6  24684894.548    24684916.783         607.590  
       473.469          39.000          38.000  
 109138147.493 7  85042780.419 6  20768300.140    20768316.627         388.758  
       302.824          45.000          41.000  
 113907891.874 7  88759461.227 7  21675952.090    21675967.579       -1503.617  
     -1171.680          45.000          45.000  
 110580953.059 7  86167034.658 7  21042856.340    21042870.947       -1549.207  
     -1207.301          43.000          42.000  
 117925051.459 7  91889736.069 7  22440392.360    22440411.783        3170.992  
      2470.680          44.000          42.000  
 127338217.322 5  99224663.008 6  24231658.671    24231677.138       -3097.527  
     -2413.473          35.000          40.000  
 24  1 10  3 14 29.0000000  0  6G24G10G18G23G32G15
 129719935.444 6 101080560.826 6  24684882.935    24684904.739         607.617  
       473.383          39.000          38.000  
 109138108.626 7  85042750.126 6  20768292.564    20768308.963         388.602  
       302.840          45.000          41.000  
 113908042.229 7  88759578.395 7  21675981.178    21675996.529       -1503.606  
     -1171.691          45.000          45.000  
 110581107.993 7  86167155.365 7  21042885.627    21042900.058       -1549.356  
     -1207.363          43.000          42.000  
 117924734.375 7  91889488.993 7  22440331.794    22440351.547        3170.988  
      2470.918          44.000          42.000  
 127338527.113 5  99224904.362 6  24231717.771    24231735.431       -3097.609  
     -2413.562          35.000          40.000  
 24  1 10  3 14 29.1000000  0  6G24G10G18G23G32G15
 129719874.716 6 101080513.482 6  24684871.379    24684893.177         607.359  
       473.141          39.000          38.000  
 109138069.789 7  85042719.866 6  20768285.173    20768301.573         388.582  
       302.793          45.000          41.000  
 113908192.630 7  88759695.604 7  21676009.798    21676025.152       -1503.785  
     -1171.891          46.000          45.000  
 110581262.944 7  86167276.122 7  21042915.114    21042929.548       -1549.270  
     -1207.309          43.000          42.000  
 117924417.307 7  91889241.933 7  22440271.459    22440291.212        3170.816  
      2470.637          44.000          42.000  
 127338836.834 5  99225145.728 6  24231776.709    24231794.375       -3097.496  
     -2413.883          34.000          40.000  
 24  1 10  3 14 29.2000000  0  6G24G10G18G23G32G15
 129719814.048 6 101080466.198 6  24684859.959    24684881.614         607.016  
       473.016          39.000          39.000  
 109138030.973 7  85042689.612 6  20768278.053    20768294.318         388.328  
       302.461          45.000          41.000  
 113908343.036 7  88759812.784 7  21676038.256    21676053.331       -1503.914  
     -1172.004          46.000          45.000  
 110581417.916 7  86167396.889 7  21042944.830    21042959.252       -1549.523  
     -1207.590          43.000          42.000  
 117924100.242 7  91888994.873 7  22440210.834    22440230.815        3170.688  
      2470.637          44.000          42.000  
 127339146.580 5  99225387.125 6  24231835.511    24231853.342       -3097.566  
     -2413.949          35.000          40.000  
 24  1 10  3 14 29.3000000  0  6G24G10G18G23G32G15
 129719753.352 6 101080418.919 6  24684848.409    24684870.068         607.070  
       472.867          39.000          39.000  
 109137992.168 7  85042659.393 6  20768270.668    20768286.938         388.172  
       302.316          45.000          41.000  
 113908493.460 7  88759930.015 7  21676066.880    21676081.960       -1504.176  
     -1172.199          46.000          45.000  
 110581572.897 7  86167517.645 7  21042974.322    21042988.742       -1549.668  
     -1207.695          43.000          42.000  
 117923783.234 7  91888747.847 7  22440150.509    22440170.489        3170.398  
      2470.281          44.000          42.000  
 127339456.450 5  99225628.546 6  24231894.477    24231912.299       -3097.938  
     -2414.102          34.000          40.000  
 24  1 10  3 14 29.4000000  0  6G24G10G18G23G32G15
 129719692.686 6 101080371.619 6  24684836.685    24684858.400         606.859  
       472.922          39.000          39.000  
 109137953.373 7  85042629.145 6  20768263.153    20768279.543         388.078  
       302.383          45.000          41.000  
 113908643.887 7  88760047.228 7  21676095.365    21676110.491       -1504.113  
     -1172.211          46.000          45.000  
 110581727.882 7  86167638.403 7  21043004.065    21043018.013       -1549.863  
     -1207.516          43.000          42.000  
 117923466.208 7  91888500.812 7  22440090.423    22440110.387        3170.309  
      2470.367          44.000          42.000  
 127339766.286 5  99225869.921 6  24231953.359    24231971.589       -3098.238  
     -2413.801          34.000          40.000  
 24  1 10  3 14 29.5000000  0  6G24G10G18G23G32G15
 129719632.009 6 101080324.335 6  24684825.139    24684846.852         606.777  
       473.012          39.000          39.000  
 109137914.596 7  85042598.928 6  20768255.774    20768272.164         387.832  
       302.137          45.000          41.000  
 113908794.346 7  88760164.467 7  21676123.996    21676139.122       -1504.387  
     -1172.266          46.000          45.000  
 110581882.910 7  86167759.202 7  21043033.566    21043047.513       -1549.981  
     -1207.926          43.000          42.000  
 117923149.204 7  91888253.790 6  22440030.100    22440050.061        3170.234  
      2470.156          43.000          41.000  
 127340076.100 5  99226111.364 6  24232012.314    24232030.552       -3098.262  
     -2414.434          35.000          40.000  
 24  1 10  3 14 29.6000000  0  6G24G10G18G23G32G15
 129719571.357 6 101080277.076 6  24684813.238    24684835.389         606.633  
       472.645          39.000          39.000  
 109137875.829 7  85042568.723 6  20768248.241    20768264.866         387.828  
       302.039          45.000          41.000  
 113908944.817 7  88760281.698 7  21676152.279    21676167.806       -1504.625  
     -1172.527          46.000          45.000  
 110582037.902 7  86167879.980 7  21043062.739    21043077.360       -1550.070  
     -1208.051          43.000          42.000  
 117922832.198 7  91888006.788 7  22439969.830    22439990.100        3170.078  
      2470.133          43.000          42.000  
 127340385.916 5  99226352.778 6  24232071.442    24232090.008       -3098.172  
     -2414.105          35.000          40.000  
 24  1 10  3 14 29.7000000  0  6G24G10G18G23G32G15
 129719510.729 6 101080229.847 6  24684801.700    24684823.855         606.418  
       472.270          40.000          39.000  
 109137837.112 7  85042538.550 6  20768240.873    20768257.497         387.434  
       301.801          45.000          41.000  
 113909095.311 7  88760398.987 7  21676180.917    21676196.449       -1504.742  
     -1172.660          45.000          45.000  
 110582192.953 7  86168000.801 7  21043092.245    21043106.866       -1550.332  
     -1208.250          43.000          42.000  
 117922515.224 7  91887759.782 6  22439909.512    22439929.779        3169.875  
      2469.859          43.000          41.000  
 127340695.775 6  99226594.243 6  24232130.407    24232148.976       -3098.348  
     -2414.738          36.000          40.000  
 24  1 10  3 14 29.8000000  0  6G24G10G18G23G32G15
 129719450.129 6 101080182.600 6  24684790.419    24684812.489         606.203  
       472.520          40.000          39.000  
 109137798.361 7  85042508.359 6  20768233.413    20768249.984         387.402  
       301.789          45.000          41.000  
 113909245.808 7  88760516.252 7  21676209.532    21676224.875       -1504.938  
     -1172.731          45.000          45.000  
 110582347.999 7  86168121.637 7  21043121.468    21043136.250       -1550.395  
     -1208.203          43.000          42.000  
 117922198.284 7  91887512.820 6  22439849.224    22439869.586        3169.668  
      2469.777          44.000          41.000  
 127341005.630 6  99226835.710 6  24232189.073    24232207.703       -3098.516  
     -2414.539          36.000          40.000  
 24  1 10  3 14 29.9000000  0  6G24G10G18G23G32G15
 129719389.498 6 101080135.363 6  24684778.881    24684800.953         606.176  
       472.113          40.000          39.000  
 109137759.639 7  85042478.179 6  20768226.045    20768242.614         387.363  
       301.840          45.000          41.000  
 113909396.294 7  88760633.515 7  21676238.168    21676253.512       -1504.891  
     -1172.762          45.000          45.000  
 110582503.064 7  86168242.438 7  21043150.976    21043165.751       -1550.488  
     -1208.141          43.000          42.000  
 117921881.299 7  91887265.810 6  22439788.903    22439809.263        3169.633  
      2470.039          44.000          41.000  
 127341315.466 5  99227077.161 6  24232248.033    24232266.668       -3098.297  
     -2414.621          35.000          40.000  
 24  1 10  3 14 30.0000000  0  6G24G10G18G23G32G15
 129719328.906 6 101080088.207 6  24684767.515    24684789.265         606.148  
       472.164          40.000          38.000  
 109137720.936 7  85042448.036 6  20768218.719    20768235.346         387.199  
       301.570          45.000          41.000  
 113909546.817 7  88760750.811 7  21676267.265    21676282.704       -1505.098  
     -1172.852          46.000          45.000  
 110582658.127 7  86168363.283 7  21043180.553    21043194.857       -1550.551  
     -1208.277          43.000          42.000  
 117921564.388 7  91887018.876 7  22439728.613    22439748.342        3169.500  
      2469.422          44.000          42.000  
 127341625.410 5  99227318.651 6  24232306.990    24232325.595       -3099.055  
     -2414.816          35.000          39.000  
 24  1 10  3 14 30.1000000  0  6G24G10G18G23G32G15
 129719268.326 6 101080040.965 6  24684755.987    24684777.729         605.934  
       472.078          40.000          38.000  
 109137682.241 7  85042417.874 6  20768211.355    20768227.980         387.059  
       301.520          46.000          41.000  
 113909697.360 7  88760868.102 7  21676295.912    21676311.348       -1505.270  
     -1173.129          46.000          45.000  
 110582813.216 7  86168484.132 7  21043210.066    21043224.369       -1550.777  
     -1208.527          43.000          42.000  
 117921247.465 7  91886771.931 7  22439668.305    22439688.036        3169.293  
      2469.473          44.000          42.000  
 127341935.318 5  99227560.145 6  24232365.964    24232384.570       -3098.934  
     -2414.934          35.000          39.000  
 24  1 10  3 14 30.2000000  0  6G24G10G18G23G32G15
 129719207.784 6 101079993.841 6  24684744.294    24684766.431         605.641  
       471.469          40.000          38.000  
 109137643.561 7  85042387.730 6  20768204.159    20768220.752         386.895  
       301.352          45.000          41.000  
 113909847.916 7  88760985.446 7  21676324.781    21676340.184       -1505.469  
     -1173.254          46.000          45.000  
 110582968.321 7  86168604.983 7  21043239.683    21043253.906       -1550.930  
     -1208.582          43.000          42.000  
 117920930.574 7  91886525.005 7  22439608.088    22439627.835        3169.090  
      2469.184          44.000          42.000  
 127342245.246 6  99227801.637 6  24232424.839    24232443.264       -3099.227  
     -2414.754          36.000          40.000  
 24  1 10  3 14 30.3000000  0  6G24G10G18G23G32G15
 129719147.240 6 101079946.605 6  24684732.773    24684754.896         605.562  
       472.031          40.000          38.000  
 109137604.911 7  85042357.599 6  20768196.804    20768213.393         386.715  
       301.293          45.000          41.000  
 113909998.507 7  88761102.765 7  21676353.437    21676368.834       -1505.543  
     -1173.094          46.000          45.000  
 110583123.411 7  86168725.829 7  21043269.196    21043283.417       -1550.973  
     -1208.551          44.000          42.000  
 117920613.689 7  91886278.080 7  22439547.787    22439567.534        3168.938  
      2469.207          44.000          42.000  
 127342555.196 6  99228043.122 6  24232483.821    24232502.237       -3099.352  
     -2414.926          36.000          40.000  
 24  1 10  3 14 30.4000000  0  6G24G10G18G23G32G15
 129719086.745 6 101079899.470 6  24684721.097    24684743.713         605.262  
       471.395          40.000          38.000  
 109137566.276 7  85042327.492 6  20768189.671    20768205.978         386.434  
       300.871          45.000          41.000  
 113910149.072 7  88761220.084 7  21676382.019    21676397.227       -1505.777  
     -1173.539          46.000          45.000  
 110583278.568 7  86168846.724 7  21043299.112    21043313.160       -1551.281  
     -1208.820          44.000          42.000  
 117920296.808 7  91886031.156 6  22439487.588    22439507.404        3168.715  
      2468.902          44.000          41.000  
 127342865.142 6  99228284.646 6  24232543.044    24232561.407       -3099.461  
     -2415.195          36.000          40.000  
 24  1 10  3 14 30.5000000  0  6G24G10G18G23G32G15
 129719026.203 6 101079852.302 6  24684709.576    24684732.194         605.328  
       471.633          39.000          38.000  
 109137527.639 7  85042297.410 6  20768182.318    20768198.632         386.441  
       300.750          45.000          41.000  
 113910299.685 7  88761337.463 7  21676410.679    21676425.892       -1505.859  
     -1173.566          46.000          45.000  
 110583433.725 7  86168967.628 7  21043328.637    21043342.686       -1551.363  
     -1208.883          44.000          42.000  
 117919979.913 7  91885784.263 6  22439427.285    22439447.110        3168.953  
      2469.156          43.000          41.000  
 127343175.062 6  99228526.150 6  24232602.020    24232620.385       -3099.363  
     -2415.125          37.000          40.000  
 24  1 10  3 14 30.6000000  0  6G24G10G18G23G32G15
 129718965.732 6 101079805.162 6  24684698.085    24684720.706         604.969  
       471.547          40.000          39.000  
 109137489.013 7  85042267.322 6  20768174.749    20768190.823         386.348  
       300.988          46.000          41.000  
 113910450.260 7  88761454.783 7  21676439.005    21676454.301       -1505.953  
     -1173.492          45.000          45.000  
 110583588.850 7  86169088.527 7  21043358.086    21043371.875       -1551.270  
     -1209.129          44.000          42.000  
 117919663.075 7  91885537.341 6  22439366.696    22439386.630        3168.672  
      2469.133          43.000          41.000  
 127343485.013 6  99228767.693 6  24232660.993    24232679.857       -3099.477  
     -2415.328          36.000          40.000  
 24  1 10  3 14 30.7000000  0  6G24G10G18G23G32G15
 129718905.226 6 101079758.031 6  24684686.571    24684709.196         605.016  
       471.332          40.000          39.000  
 109137450.396 7  85042237.225 6  20768167.401    20768183.473         386.336  
       301.148          46.000          41.000  
 113910600.890 7  88761572.167 7  21676467.669    21676482.967       -1506.055  
     -1173.590          46.000          45.000  
 110583744.013 7  86169209.430 7  21043387.613    21043401.401       -1551.402  
     -1208.871          44.000          42.000  
 117919346.226 7  91885290.431 6  22439306.401    22439326.332        3168.465  
      2469.047          43.000          41.000  
 127343794.960 6  99229009.220 6  24232719.974    24232738.840       -3099.551  
     -2415.410          36.000          40.000  
 24  1 10  3 14 30.8000000  0  6G24G10G18G23G32G15
 129718844.757 6 101079710.921 6  24684675.048    24684697.792         604.934  
       471.410          40.000          39.000  
 109137411.810 7  85042207.143 6  20768159.902    20768176.549         386.066  
       300.879          45.000          41.000  
 113910751.532 7  88761689.537 7  21676496.374    21676511.755       -1506.156  
     -1173.742          46.000          45.000  
 110583899.164 7  86169330.320 7  21043417.223    21043431.150       -1551.586  
     -1209.008          44.000          42.000  
 117919029.424 7  91885043.577 6  22439245.897    22439265.712        3168.316  
      2468.609          43.000          41.000  
 127344104.993 5  99229250.793 6  24232778.948    24232798.006       -3099.859  
     -2415.547          35.000          40.000  
 24  1 10  3 14 30.9000000  0  6G24G10G18G23G32G15
 129718784.310 6 101079663.795 6  24684663.546    24684686.284         604.598  
       471.051          40.000          39.000  
 109137373.263 7  85042177.108 6  20768152.567    20768169.214         385.742  
       300.316          45.000          41.000  
 113910902.182 7  88761806.943 7  21676525.042    21676540.427       -1506.453  
     -1174.012          46.000          45.000  
 110584054.365 7  86169451.257 7  21043446.757    21043460.684       -1551.844  
     -1209.457          44.000          42.000  
 117918712.646 7  91884796.726 6  22439185.616    22439205.428        3167.965  
      2468.422          44.000          41.000  
 127344415.051 5  99229492.334 6  24232837.950    24232856.993       -3100.219  
     -2415.543          35.000          40.000  
 24  1 10  3 14 31.0000000  0  6G24G10G18G23G32G15
 129718723.907 6 101079616.713 6  24684652.294    24684674.747         604.301  
       470.859          41.000          38.000  
 109137334.729 7  85042147.081 6  20768145.382    20768161.678         385.488  
       300.211          45.000          41.000  
 113911052.881 7  88761924.340 7  21676553.875    21676568.698       -1506.676  
     -1174.074          46.000          45.000  
 110584209.596 7  86169572.205 7  21043476.319    21043490.197       -1552.188  
     -1209.617          43.000          42.000  
 117918395.864 7  91884549.885 6  22439125.280    22439145.749        3167.898  
      2468.230          43.000          41.000  
 127344725.063 6  99229733.951 6  24232896.991    24232915.819       -3100.195  
     -2416.020          36.000          40.000  
 24  1 10  3 14 31.1000000  0  6G24G10G18G23G32G15
 129718663.491 6 101079569.656 6  24684640.797    24684663.255         604.266  
       470.742          41.000          38.000  
 109137296.172 7  85042117.036 6  20768138.045    20768154.340         385.500  
       300.266          45.000          41.000  
 113911203.578 7  88762041.767 7  21676582.552    21676597.375       -1506.895  
     -1174.281          46.000          45.000  
 110584364.836 7  86169693.188 7  21043505.861    21043519.742       -1552.109  
     -1209.543          43.000          42.000  
 117918079.096 7  91884303.093 6  22439065.001    22439085.480        3167.777  
      2468.121          43.000          41.000  
 127345035.099 6  99229975.561 6  24232955.988    24232974.822       -3100.410  
     -2416.148          36.000          40.000  
 24  1 10  3 14 31.2000000  0  6G24G10G18G23G32G15
 129718603.108 6 101079522.596 6  24684629.338    24684651.434         603.961  
       470.633          41.000          38.000  
 109137257.652 7  85042087.037 6  20768130.621    20768146.960         385.387  
       300.098          45.000          41.000  
 113911354.299 7  88762159.231 7  21676611.131    21676626.170       -1506.969  
     -1174.465          46.000          45.000  
 110584520.102 7  86169814.158 7  21043535.149    21043549.589       -1552.402  
     -1209.738          43.000          42.000  
 117917762.341 7  91884056.259 6  22439004.490    22439025.091        3167.527  
      2468.246          43.000          41.000  
 127345345.152 6  99230217.133 6  24233015.201    24233033.410       -3100.340  
     -2415.820          36.000          40.000  
 24  1 10  3 14 31.3000000  0  6G24G10G18G23G32G15
 129718542.735 6 101079475.534 6  24684617.849    24684639.941         603.883  
       470.477          40.000          38.000  
 109137219.150 7  85042057.030 6  20768123.294    20768139.632         385.125  
       300.156          45.000          41.000  
 113911504.992 7  88762276.657 7  21676639.807    21676654.847       -1507.098  
     -1174.344          46.000          45.000  
 110584675.300 7  86169935.097 7  21043564.682    21043579.124       -1552.344  
     -1209.719          43.000          42.000  
 117917445.617 7  91883809.454 6  22438944.220    22438964.819        3167.535  
      2468.195          43.000          41.000  
 127345655.188 6  99230458.765 6  24233074.199    24233092.419       -3100.406  
     -2416.168          36.000          40.000  
 24  1 10  3 14 31.4000000  0  6G24G10G18G23G32G15
 129718482.375 6 101079428.541 6  24684606.246    24684627.848         603.758  
       470.027          40.000          38.000  
 109137180.668 7  85042027.044 6  20768115.909    20768132.410         384.980  
       299.949          45.000          41.000  
 113911655.721 7  88762394.096 7  21676668.310    21676683.519       -1507.152  
     -1174.516          46.000          45.000  
 110584830.590 7  86170056.095 7  21043594.319    21043608.610       -1552.688  
     -1209.688          43.000          42.000  
 117917128.871 7  91883562.633 6  22438883.922    22438904.105        3167.398  
      2467.820          43.000          41.000  
 127345965.354 6  99230700.370 6  24233133.385    24233151.609       -3100.988  
     -2416.133          36.000          40.000  
 24  1 10  3 14 31.5000000  0  6G24G10G18G23G32G15
 129718422.001 6 101079381.499 6  24684594.757    24684616.360         603.707  
       470.191          40.000          38.000  
 109137142.177 7  85041997.047 6  20768108.584    20768125.085         384.934  
       299.746          45.000          41.000  
 113911806.467 7  88762511.570 7  21676696.996    21676712.207       -1507.395  
     -1174.664          46.000          45.000  
 110584985.883 7  86170177.079 7  21043623.870    21043638.156       -1552.734  
     -1209.953          43.000          42.000  
 117916812.194 7  91883315.889 6  22438823.660    22438843.847        3167.164  
      2467.730          43.000          41.000  
 127346275.384 6  99230942.020 6  24233192.382    24233210.623       -3100.516  
     -2416.500          37.000          40.000  
 24  1 10  3 14 31.6000000  0  6G24G10G18G23G32G15
 129718361.692 6 101079334.478 6  24684583.445    24684604.713         603.387  
       470.324          40.000          37.000  
 109137103.708 7  85041967.085 6  20768101.303    20768117.760         384.812  
       299.734          45.000          41.000  
 113911957.232 7  88762629.060 7  21676725.624    21676741.243       -1507.363  
     -1174.688          46.000          45.000  
 110585141.162 7  86170298.117 7  21043653.379    21043667.910       -1552.723  
     -1210.160          43.000          42.000  
 117916495.489 7  91883069.087 6  22438763.573    22438783.388        3167.035  
      2467.781          43.000          41.000  
 127346585.435 6  99231183.638 6  24233251.195    24233269.769       -3100.582  
     -2416.246          37.000          40.000  
 24  1 10  3 14 31.7000000  0  6G24G10G18G23G32G15
 129718301.377 6 101079287.509 6  24684571.967    24684593.243         603.227  
       469.707          39.000          38.000  
 109137065.272 7  85041937.145 6  20768093.989    20768110.448         384.551  
       299.344          45.000          41.000  
 113912108.017 7  88762746.535 7  21676754.317    21676769.932       -1507.812  
     -1175.125          46.000          45.000  
 110585296.460 7  86170419.147 7  21043682.932    21043697.466       -1552.941  
     -1210.266          43.000          42.000  
 117916178.814 7  91882822.342 6  22438703.311    22438723.131        3166.906  
      2467.496          43.000          41.000  
 127346895.615 6  99231425.299 6  24233310.220    24233328.785       -3101.336  
     -2416.641          36.000          40.000  
 24  1 10  3 14 31.8000000  0  6G24G10G18G23G32G15
 129718241.078 6 101079240.508 6  24684560.664    24684581.718         603.129  
       470.055          39.000          38.000  
 109137026.838 7  85041907.190 6  20768086.441    20768103.086         384.469  
       299.609          46.000          41.000  
 113912258.802 7  88762864.033 7  21676783.229    21676798.321       -1507.824  
     -1174.977          46.000          45.000  
 110585451.786 7  86170540.165 7  21043712.474    21043727.200       -1553.090  
     -1210.242          43.000          42.000  
 117915862.142 7  91882575.594 6  22438643.277    22438663.435        3166.895  
      2467.445          43.000          41.000  
 127347205.803 6  99231666.960 6  24233369.458    24233387.629       -3101.434  
     -2416.668          36.000          40.000  
 24  1 10  3 14 31.9000000  0  6G24G10G18G23G32G15
 129718180.784 6 101079193.528 6  24684549.191    24684570.245         603.016  
       469.812          40.000          38.000  
 109136988.443 7  85041877.259 6  20768079.135    20768095.777         384.184  
       299.301          46.000          41.000  
 113912409.644 7  88762981.586 7  21676811.933    21676827.029       -1508.004  
     -1175.320          46.000          45.000  
 110585607.142 7  86170661.210 7  21043742.037    21043756.760       -1553.356  
     -1210.512          43.000          42.000  
 117915545.517 7  91882328.880 6  22438583.026    22438603.185        3166.508  
      2467.297          43.000          41.000  
 127347515.923 5  99231908.640 6  24233428.472    24233446.650       -3101.500  
     -2416.816          35.000          40.000  
 24  1 10  3 14 32.0000000  0  6G24G10G18G23G32G15
 129718120.524 6 101079146.571 6  24684537.974    24684559.527         602.824  
       469.547          40.000          39.000  
 109136950.059 7  85041847.354 6  20768071.893    20768088.567         383.984  
       299.000          46.000          41.000  
 113912560.474 7  88763099.110 7  21676840.651    21676855.854       -1508.258  
     -1175.305          45.000          45.000  
 110585762.493 7  86170782.264 7  21043771.357    21043786.206       -1553.574  
     -1210.676          43.000          42.000  
 117915228.915 7  91882082.138 6  22438522.591    22438543.061        3166.172  
      2467.074          43.000          41.000  
 127347826.129 6  99232150.354 6  24233487.448    24233505.413       -3101.594  
     -2417.078          36.000          40.000  
 24  1 10  3 14 32.1000000  0  6G24G10G18G23G32G15
 129718060.277 6 101079099.642 6  24684526.509    24684548.067         602.648  
       469.348          40.000          39.000  
 109136911.704 7  85041817.473 6  20768064.594    20768081.270         383.742  
       298.961          46.000          41.000  
 113912711.333 7  88763216.647 7  21676869.359    21676884.558       -1508.551  
     -1175.488          45.000          45.000  
 110585917.898 7  86170903.338 7  21043800.930    21043815.773       -1553.773  
     -1210.844          43.000          42.000  
 117914912.307 7  91881835.481 6  22438462.342    22438482.825        3166.207  
      2466.895          43.000          41.000  
 127348136.331 5  99232392.078 6  24233546.477    24233564.445       -3101.840  
     -2417.277          35.000          40.000  
 24  1 10  3 14 32.2000000  0  6G24G10G18G23G32G15
 129718000.041 6 101079052.688 6  24684514.984    24684536.670         602.391  
       469.309          40.000          39.000  
 109136873.360 7  85041787.558 6  20768057.141    20768074.121         383.574  
       298.820          46.000          41.000  
 113912862.212 7  88763334.219 7  21676898.304    21676913.153       -1508.516  
     -1175.633          45.000          45.000  
 110586073.309 7  86171024.461 7  21043830.261    21043845.103       -1553.797  
     -1210.844          43.000          42.000  
 117914595.724 7  91881588.763 6  22438402.302    22438422.527        3165.891  
      2466.883          43.000          41.000  
 127348446.555 5  99232633.776 6  24233605.792    24233623.970       -3102.000  
     -2417.148          35.000          40.000  
 24  1 10  3 14 32.3000000  0  6G24G10G18G23G32G15
 129717939.835 6 101079005.798 6  24684503.527    24684525.219         602.277  
       469.211          40.000          39.000  
 109136835.030 7  85041757.712 6  20768049.847    20768066.832         383.512  
       298.617          46.000          40.000  
 113913013.080 7  88763451.800 7  21676927.014    21676941.868       -1508.742  
     -1175.801          45.000          45.000  
 110586228.703 7  86171145.545 7  21043859.832    21043874.673       -1554.000  
     -1210.988          43.000          42.000  
 117914279.145 7  91881342.087 6  22438342.058    22438362.286        3165.906  
      2466.895          43.000          41.000  
 127348756.670 5  99232875.524 6  24233664.805    24233683.007       -3101.684  
     -2417.289          35.000          40.000  
 24  1 10  3 14 32.4000000  0  6G24G10G18G23G32G15
 129717879.667 6 101078958.902 6  24684491.906    24684513.853         602.004  
       468.879          40.000          39.000  
 109136796.711 7  85041727.816 6  20768042.766    20768059.008         383.254  
       298.812          46.000          40.000  
 113913164.000 7  88763569.379 7  21676955.459    21676970.613       -1508.941  
     -1175.809          45.000          45.000  
 110586384.122 7  86171266.652 7  21043889.524    21043904.295       -1554.098  
     -1210.992          43.000          42.000  
 117913962.623 7  91881095.446 6  22438282.022    22438301.936        3165.621  
      2466.547          43.000          41.000  
 127349066.991 5  99233117.264 6  24233723.756    24233742.168       -3102.445  
     -2417.371          35.000          40.000  
 24  1 10  3 14 32.5000000  0  6G24G10G18G23G32G15
 129717819.483 6 101078912.004 6  24684480.453    24684502.400         601.855  
       469.086          40.000          39.000  
 109136758.395 7  85041697.985 6  20768035.475    20768051.723         383.270  
       298.461          46.000          40.000  
 113913314.913 7  88763686.972 7  21676984.177    21676999.330       -1509.008  
     -1175.984          45.000          45.000  
 110586539.570 7  86171387.757 7  21043919.105    21043933.870       -1554.383  
     -1211.231          43.000          42.000  
 117913646.036 7  91880848.742 6  22438221.777    22438241.689        3165.547  
      2466.508          43.000          41.000  
 127349377.260 6  99233359.015 6  24233782.798    24233801.206       -3102.395  
     -2417.539          36.000          40.000  
 24  1 10  3 14 32.6000000  0  6G24G10G18G23G32G15
 129717759.341 6 101078865.145 6  24684469.001    24684491.269         601.664  
       468.602          39.000          39.000  
 109136720.115 7  85041668.154 6  20768028.323    20768044.485         382.984  
       298.199          46.000          40.000  
 113913465.844 7  88763804.599 7  21677012.851    21677027.892       -1509.145  
     -1176.141          45.000          45.000  
 110586695.029 7  86171508.901 7  21043948.930    21043963.431       -1554.402  
     -1211.406          43.000          42.000  
 117913329.554 7  91880602.170 6  22438161.318    22438181.231        3165.312  
      2466.215          43.000          41.000  
 127349687.533 6  99233600.784 6  24233841.684    24233860.256       -3102.711  
     -2417.723          37.000          40.000  
 24  1 10  3 14 32.7000000  0  6G24G10G18G23G32G15
 129717699.227 6 101078818.284 6  24684457.561    24684479.825         601.422  
       468.539          39.000          39.000  
 109136681.851 7  85041638.346 6  20768021.042    20768037.205         382.836  
       298.223          45.000          40.000  
 113913616.790 7  88763922.222 7  21677041.575    21677056.617       -1509.359  
     -1176.324          45.000          45.000  
 110586850.492 7  86171630.041 7  21043978.514    21043993.015       -1554.465  
     -1211.184          43.000          42.000  
 117913013.067 7  91880355.533 6  22438101.093    22438121.000        3165.074  
      2466.266          43.000          41.000  
 127349997.786 6  99233842.555 6  24233900.724    24233919.299       -3102.586  
     -2417.695          37.000          40.000  
 24  1 10  3 14 32.8000000  0  6G24G10G18G23G32G15
 129717639.129 6 101078771.460 6  24684446.063    24684468.085         601.266  
       468.301          38.000          39.000  
 109136643.615 7  85041608.551 6  20768013.836    20768030.413         382.602  
       297.973          45.000          41.000  
 113913767.785 7  88764039.881 7  21677070.309    21677085.343       -1509.609  
     -1176.375          45.000          45.000  
 110587006.001 7  86171751.224 7  21044008.364    21044022.453       -1554.801  
     -1211.688          43.000          42.000  
 117912696.580 7  91880108.904 6  22438041.016    22438060.927        3164.832  
      2466.223          43.000          41.000  
 127350308.139 6  99234084.363 6  24233959.735    24233978.445       -3103.141  
     -2418.043          36.000          40.000  
 24  1 10  3 14 32.9000000  0  6G24G10G18G23G32G15
 129717579.019 6 101078724.627 6  24684434.624    24684456.648         601.105  
       468.094          38.000          38.000  
 109136605.370 7  85041578.778 6  20768006.558    20768023.142         382.516  
       297.941          45.000          41.000  
 113913918.779 7  88764157.517 7  21677099.042    21677114.070       -1509.863  
     -1176.656          45.000          45.000  
 110587161.499 7  86171872.386 7  21044037.954    21044052.042       -1554.961  
     -1211.738          43.000          42.000  
 117912380.106 7  91879862.336 6  22437980.793    22438000.712        3164.914  
      2465.613          43.000          41.000  
 127350618.414 6  99234326.167 6  24234018.778    24234037.496       -3102.848  
     -2418.059          36.000          40.000  
 24  1 10  3 14 33.0000000  0  6G24G10G18G23G32G15
 129717518.951 6 101078677.830 6  24684423.115    24684445.064         600.789  
       468.012          38.000          38.000  
 109136567.162 7  85041548.979 6  20767999.335    20768015.709         382.168  
       297.668          45.000          41.000  
 113914069.761 7  88764275.181 7  21677127.664    21677143.118       -1509.867  
     -1176.699          45.000          45.000  
 110587317.018 7  86171993.588 7  21044067.478    21044081.695       -1555.102  
     -1211.965          43.000          42.000  
 117912063.666 7  91879615.719 6  22437920.443    22437940.494        3164.477  
      2465.941          43.000          41.000  
 127350928.697 5  99234567.983 6  24234077.730    24234096.222       -3102.934  
     -2418.297          35.000          41.000  
 24  1 10  3 14 33.1000000  0  6G24G10G18G23G32G15
 129717458.888 6 101078631.013 6  24684411.686    24684433.630         600.797  
       468.121          39.000          38.000  
 109136528.944 7  85041519.191 6  20767992.062    20768008.434         382.160  
       297.824          45.000          41.000  
 113914220.766 7  88764392.853 7  21677156.399    21677171.854       -1509.977  
     -1176.582          45.000          45.000  
 110587472.533 7  86172114.748 7  21044097.072    21044111.284       -1555.184  
     -1211.949          44.000          42.000  
 117911747.219 7  91879369.168 6  22437860.226    22437880.284        3164.582  
      2465.750          43.000          41.000  
 127351239.082 5  99234809.815 6  24234136.794    24234155.279       -3103.387  
     -2418.215          35.000          40.000  
 24  1 10  3 14 33.2000000  0  6G24G10G18G23G32G15
 129717398.793 6 101078584.203 6  24684399.992    24684422.090         600.902  
       468.039          39.000          38.000  
 109136490.736 7  85041489.436 6  20767984.721    20768001.191         382.184  
       297.641          45.000          41.000  
 113914371.798 7  88764510.517 7  21677185.171    21677200.808       -1510.121  
     -1176.664          45.000          45.000  
 110587628.045 7  86172235.941 7  21044126.618    21044140.591       -1555.129  
     -1211.812          44.000          42.000  
 117911430.799 7  91879122.586 6  22437800.177    22437819.956        3164.375  
      2465.855          43.000          41.000  
 127351549.446 5  99235051.618 6  24234195.971    24234213.971       -3103.406  
     -2418.043          35.000          40.000  
 24  1 10  3 14 33.3000000  0  6G24G10G18G23G32G15
 129717338.759 6 101078537.443 6  24684388.568    24684410.670         600.617  
       467.793          40.000          38.000  
 109136452.560 7  85041459.675 6  20767977.456    20767993.923         381.828  
       297.445          45.000          41.000  
 113914522.853 7  88764628.221 7  21677213.915    21677229.552       -1510.395  
     -1177.035          45.000          45.000  
 110587783.622 7  86172357.174 7  21044156.223    21044170.198       -1555.418  
     -1212.227          44.000          42.000  
 117911114.360 7  91878876.025 6  22437739.961    22437759.744        3164.277  
      2465.500          42.000          41.000  
 127351859.792 5  99235293.487 6  24234255.028    24234273.038       -3103.488  
     -2418.512          35.000          40.000  
 24  1 10  3 14 33.4000000  0  6G24G10G18G23G32G15
 129717278.739 6 101078490.680 6  24684377.201    24684399.235         600.473  
       467.855          41.000          38.000  
 109136414.397 7  85041429.948 6  20767970.624    20767986.773         381.801  
       297.367          45.000          41.000  
 113914673.895 7  88764745.923 7  21677242.619    21677258.007       -1510.410  
     -1177.031          45.000          45.000  
 110587939.194 7  86172478.379 7  21044185.788    21044199.571       -1555.566  
     -1212.250          44.000          42.000  
 117910797.981 7  91878629.497 6  22437679.865    22437699.492        3164.059  
      2465.375          42.000          41.000  
 127352170.136 5  99235535.323 6  24234314.030    24234331.925       -3103.488  
     -2418.523          35.000          40.000  
 24  1 10  3 14 33.5000000  0  6G24G10G18G23G32G15
 129717218.725 7 101078443.885 6  24684365.781    24684387.807         600.258  
       467.602          42.000          39.000  
 109136376.266 7  85041400.243 6  20767963.368    20767979.519         381.496  
       297.094          45.000          41.000  
 113914824.992 7  88764863.673 7  21677271.371    21677286.763       -1510.727  
     -1177.328          45.000          45.000  
 110588094.792 7  86172599.627 7  21044215.398    21044229.181       -1555.883  
     -1212.457          44.000          42.000  
 117910481.601 7  91878382.961 6  22437619.660    22437639.285        3163.715  
      2465.012          43.000          41.000  
 127352480.616 5  99235777.201 6  24234373.112    24234390.994       -3104.156  
     -2418.777          35.000          40.000  
 24  1 10  3 14 33.6000000  0  6G24G10G18G23G32G15
 129717158.733 7 101078397.163 6  24684354.685    24684376.334         600.012  
       467.305          42.000          39.000  
 109136338.169 7  85041370.555 6  20767955.884    20767972.386         381.328  
       296.957          45.000          41.000  
 113914976.098 7  88764981.394 7  21677300.603    21677315.551       -1510.953  
     -1177.555          45.000          45.000  
 110588250.402 7  86172720.881 7  21044244.830    21044258.902       -1555.938  
     -1212.586          44.000          42.000  
 117910165.269 7  91878136.481 6  22437559.339    22437579.139        3163.566  
      2464.996          43.000          41.000  
 127352791.031 5  99236019.091 6  24234432.346    24234449.933       -3104.031  
     -2418.781          35.000          40.000  
 24  1 10  3 14 33.7000000  0  6G24G10G18G23G32G15
 129717098.757 7 101078350.445 6  24684343.272    24684364.925         599.992  
       467.371          42.000          39.000  
 109136300.046 7  85041340.847 6  20767948.629    20767965.131         381.176  
       296.922          45.000          41.000  
 113915127.204 7  88765099.177 7  21677329.357    21677344.315       -1510.973  
     -1177.484          45.000          45.000  
 110588406.020 7  86172842.160 7  21044274.443    21044288.519       -1556.055  
     -1212.789          43.000          42.000  
 117909848.892 7  91877889.935 6  22437499.134    22437518.930        3163.582  
      2465.125          43.000          41.000  
 127353101.407 5  99236260.964 6  24234491.409    24234509.001       -3103.953  
     -2418.875          34.000          40.000  
 24  1 10  3 14 33.8000000  0  6G24G10G18G23G32G15
 129717038.810 7 101078303.718 6  24684332.115    24684353.733         599.531  
       467.062          42.000          40.000  
 109136261.964 7  85041311.173 6  20767941.140    20767957.790         380.891  
       296.723          45.000          41.000  
 113915278.343 7  88765216.919 7  21677358.001    21677373.115       -1511.262  
     -1177.648          45.000          45.000  
 110588561.681 7  86172963.466 7  21044304.494    21044318.385       -1556.375  
     -1212.816          43.000          42.000  
 117909532.615 7  91877643.509 6  22437438.683    22437458.680        3163.355  
      2464.699          43.000          41.000  
 127353411.896 5  99236502.903 6  24234550.454    24234568.116       -3104.582  
     -2419.488          35.000          40.000  
 24  1 10  3 14 33.9000000  0  6G24G10G18G23G32G15
 129716978.856 7 101078256.996 6  24684320.706    24684342.323         599.570  
       467.199          42.000          40.000  
 109136223.901 7  85041281.494 6  20767933.897    20767950.543         380.805  
       296.656          45.000          41.000  
 113915429.502 7  88765334.701 7  21677386.765    21677401.879       -1511.453  
     -1177.727          45.000          45.000  
 110588717.325 7  86173084.698 7  21044334.112    21044347.992       -1556.434  
     -1212.566          43.000          42.000  
 117909216.324 7  91877397.026 6  22437378.495    22437398.487        3163.129  
      2464.652          43.000          41.000  
 127353722.359 5  99236744.828 6  24234609.533    24234627.197       -3104.465  
     -2419.117          35.000          40.000  
 24  1 10  3 14 34.0000000  0  6G24G10G18G23G32G15
 129716918.905 6 101078210.284 6  24684309.298    24684331.408         599.617  
       467.055          41.000          40.000  
 109136185.841 7  85041251.855 6  20767926.647    20767943.234         380.766  
       296.539          45.000          41.000  
 113915580.651 7  88765452.486 7  21677415.614    21677430.682       -1511.410  
     -1177.766          45.000          45.000  
 110588872.977 7  86173206.032 7  21044363.169    21044377.927       -1556.465  
     -1213.238          43.000          42.000  
 117908900.034 7  91877150.583 6  22437318.284    22437338.443        3162.930  
      2464.723          43.000          41.000  
 127354032.812 6  99236986.729 6  24234668.563    24234686.513       -3104.691  
     -2418.957          36.000          40.000  
 24  1 10  3 14 34.1000000  0  6G24G10G18G23G32G15
 129716859.014 6 101078163.664 6  24684297.901    24684320.022         599.312  
       466.762          41.000          40.000  
 109136147.779 7  85041222.196 6  20767919.404    20767935.991         380.629  
       296.477          45.000          41.000  
 113915731.809 7  88765570.265 7  21677444.378    21677459.445       -1511.539  
     -1177.918          45.000          45.000  
 110589028.657 7  86173327.343 7  21044392.794    21044407.553       -1556.551  
     -1212.906          43.000          42.000  
 117908583.724 7  91876904.083 6  22437258.092    22437278.245        3163.129  
      2464.672          43.000          41.000  
 127354343.290 5  99237228.649 6  24234727.646    24234745.593       -3104.543  
     -2419.258          35.000          40.000  
 24  1 10  3 14 34.2000000  0  6G24G10G18G23G32G15
 129716799.102 6 101078116.939 6  24684286.414    24684308.526         599.016  
       466.762          40.000          40.000  
 109136109.739 7  85041192.550 6  20767912.173    20767928.814         380.566  
       296.332          45.000          41.000  
 113915882.988 7  88765688.085 7  21677472.975    21677487.976       -1511.770  
     -1178.188          45.000          45.000  
 110589184.320 7  86173448.604 7  21044422.423    21044437.236       -1556.742  
     -1213.066          43.000          42.000  
 117908267.446 7  91876657.667 6  22437198.313    22437218.131        3162.875  
      2464.457          43.000          41.000  
 127354653.782 5  99237470.612 6  24234786.527    24234804.534       -3104.887  
     -2419.520          35.000          40.000  
 24  1 10  3 14 34.3000000  0  6G24G10G18G23G32G15
 129716739.247 6 101078070.300 6  24684275.024    24684297.136         598.918  
       466.508          39.000          40.000  
 109136071.709 7  85041162.921 6  20767904.936    20767921.578         380.363  
       296.258          45.000          41.000  
 113916034.187 7  88765805.887 7  21677501.747    21677516.744       -1511.777  
     -1177.965          45.000          45.000  
 110589340.007 7  86173569.941 7  21044452.049    21044466.868       -1556.758  
     -1213.078          43.000          42.000  
 117907951.216 7  91876411.224 6  22437138.136    22437157.947        3162.547  
      2464.262          43.000          41.000  
 127354964.324 5  99237712.554 6  24234845.621    24234863.619       -3105.133  
     -2419.414          35.000          40.000  
 24  1 10  3 14 34.4000000  0  6G24G10G18G23G32G15
 129716679.398 6 101078023.651 6  24684263.455    24684285.572         598.625  
       466.527          38.000          40.000  
 109136033.712 7  85041133.323 6  20767897.596    20767914.217         380.242  
       296.176          45.000          41.000  
 113916185.383 7  88765923.718 7  21677530.706    21677545.082       -1511.930  
     -1178.402          45.000          45.000  
 110589495.736 7  86173691.271 7  21044481.981    21044496.552       -1557.055  
     -1213.387          43.000          42.000  
 117907634.945 7  91876164.790 6  22437078.100    22437097.593        3162.461  
      2464.230          43.000          41.000  
 127355274.822 5  99237954.499 6  24234904.652    24234922.806       -3105.066  
     -2419.457          35.000          40.000  
 24  1 10  3 14 34.5000000  0  6G24G10G18G23G32G15
 129716619.568 6 101077976.995 6  24684252.070    24684274.178         598.395  
       466.527          38.000          40.000  
 109135995.716 7  85041103.685 6  20767890.366    20767906.979         380.043  
       296.109          45.000          41.000  
 113916336.620 7  88766041.552 7  21677559.486    21677573.858       -1512.141  
     -1178.348          45.000          45.000  
 110589651.446 7  86173812.596 7  21044511.611    21044526.181       -1557.117  
     -1213.449          43.000          42.000  
 117907318.740 7  91875918.420 6  22437017.928    22437037.427        3162.512  
      2464.195          43.000          41.000  
 127355585.342 5  99238196.451 6  24234963.742    24234981.893       -3105.125  
     -2419.473          35.000          40.000  
 24  1 10  3 14 34.6000000  0  6G24G10G18G23G32G15
 129716559.744 6 101077930.359 6  24684240.498    24684262.867         598.371  
       466.266          37.000          39.000  
 109135957.732 7  85041074.131 6  20767883.091    20767900.090         379.949  
       295.809          45.000          41.000  
 113916487.847 7  88766159.399 7  21677588.177    21677602.825       -1512.156  
     -1178.328          45.000          45.000  
 110589807.188 7  86173933.975 7  21044541.045    21044555.854       -1557.152  
     -1213.531          43.000          42.000  
 117907002.510 7  91875671.983 6  22436957.720    22436977.260        3162.277  
      2464.008          43.000          41.000  
 127355895.849 5  99238438.436 6  24235022.970    24235041.113       -3105.141  
     -2419.809          35.000          40.000  
 24  1 10  3 14 34.7000000  0  6G24G10G18G23G32G15
 129716499.923 6 101077883.763 6  24684229.115    24684251.488         598.340  
       466.020          37.000          39.000  
 109135919.773 7  85041044.529 6  20767875.867    20767892.861         379.738  
       295.906          45.000          41.000  
 113916639.104 7  88766277.245 7  21677616.960    21677631.605       -1512.438  
     -1178.695          45.000          45.000  
 110589962.945 7  86174055.314 7  21044570.684    21044585.487       -1557.559  
     -1213.719          43.000          42.000  
 117906686.347 7  91875425.639 6  22436897.557    22436917.101        3161.906  
      2463.715          43.000          41.000  
 127356206.426 5  99238680.432 6  24235082.071    24235100.211       -3105.539  
     -2420.004          35.000          40.000  
 24  1 10  3 14 34.8000000  0  6G24G10G18G23G32G15
 129716440.118 6 101077837.176 6  24684217.687    24684239.900         598.117  
       465.938          38.000          39.000  
 109135881.824 7  85041014.964 6  20767868.490    20767885.266         379.570  
       295.758          45.000          41.000  
 113916790.381 7  88766395.128 7  21677645.669    21677660.807       -1512.648  
     -1178.785          46.000          45.000  
 110590118.697 7  86174176.691 7  21044600.503    21044615.160       -1557.566  
     -1213.727          43.000          42.000  
 117906370.117 7  91875179.192 6  22436837.138    22436857.267        3161.875  
      2463.879          43.000          41.000  
 127356516.971 5  99238922.443 6  24235140.893    24235159.680       -3105.375  
     -2420.129          35.000          40.000  
 24  1 10  3 14 34.9000000  0  6G24G10G18G23G32G15
 129716380.349 6 101077790.580 6  24684206.314    24684228.521         597.934  
       465.828          39.000          39.000  
 109135843.896 7  85040985.407 6  20767861.272    20767878.048         379.434  
       295.461          45.000          41.000  
 113916941.667 7  88766513.017 7  21677674.458    21677689.597       -1512.707  
     -1178.895          46.000          45.000  
 110590274.498 7  86174298.081 7  21044630.151    21044644.804       -1557.633  
     -1213.863          43.000          42.000  
 117906053.979 7  91874932.889 6  22436776.979    22436797.118        3161.910  
      2463.578          43.000          41.000  
 127356827.565 5  99239164.444 6  24235199.997    24235218.779       -3105.699  
     -2419.988          35.000          40.000  
 24  1 10  3 14 35.0000000  0  6G24G10G18G23G32G15
 129716320.596 6 101077744.016 6  24684195.170    24684217.345         597.770  
       465.660          39.000          39.000  
 109135805.994 7  85040955.865 6  20767853.825    20767870.513         379.234  
       295.371          45.000          41.000  
 113917092.957 7  88766630.915 7  21677703.435    21677718.428       -1512.844  
     -1178.941          46.000          45.000  
 110590430.285 7  86174419.496 7  21044659.702    21044674.361       -1557.840  
     -1214.180          43.000          42.000  
 117905737.842 7  91874686.534 6  22436716.710    22436737.182        3161.555  
      2463.527          43.000          41.000  
 127357138.165 5  99239406.475 6  24235259.071    24235277.948       -3105.895  
     -2420.324          35.000          40.000  
 24  1 10  3 14 35.1000000  0  6G24G10G18G23G32G15
 129716260.821 6 101077697.467 6  24684183.795    24684205.977         597.730  
       465.488          40.000          39.000  
 109135768.103 7  85040926.345 6  20767846.615    20767863.304         379.016  
       295.152          45.000          41.000  
 113917244.293 7  88766748.823 7  21677732.233    21677747.222       -1513.156  
     -1179.066          46.000          45.000  
 110590586.088 7  86174540.902 7  21044689.350    21044704.010       -1557.988  
     -1214.164          43.000          42.000  
 117905421.700 7  91874440.189 6  22436656.551    22436677.022        3161.332  
      2463.211          43.000          41.000  
 127357448.802 5  99239648.529 6  24235318.183    24235337.060       -3106.004  
     -2420.656          35.000          40.000  
 24  1 10  3 14 35.2000000  0  6G24G10G18G23G32G15
 129716201.080 6 101077650.924 6  24684172.419    24684194.611         597.547  
       465.488          40.000          39.000  
 109135730.220 7  85040896.836 6  20767839.421    20767856.316         378.965  
       295.113          45.000          41.000  
 113917395.622 7  88766866.733 7  21677761.038    21677775.751       -1513.250  
     -1179.344          46.000          45.000  
 110590741.914 7  86174662.318 7  21044719.003    21044733.575       -1558.160  
     -1214.137          43.000          42.000  
 117905105.615 7  91874193.911 6  22436596.441    22436616.683        3161.246  
      2463.086          43.000          41.000  
 127357759.390 5  99239890.585 6  24235377.075    24235396.352       -3106.047  
     -2420.488          35.000          40.000  
 24  1 10  3 14 35.3000000  0  6G24G10G18G23G32G15
 129716141.357 6 101077604.400 6  24684161.054    24684183.249         597.465  
       465.285          41.000          39.000  
 109135692.366 7  85040867.328 6  20767832.218    20767849.110         378.652  
       295.070          45.000          41.000  
 113917546.992 7  88766984.706 7  21677789.843    21677804.561       -1513.414  
     -1179.477          46.000          45.000  
 110590897.773 7  86174783.785 7  21044748.662    21044763.238       -1558.219  
     -1214.555          43.000          42.000  
 117904789.496 7  91873947.561 6  22436536.285    22436556.522        3161.047  
      2463.184          43.000          41.000  
 127358070.076 6  99240132.645 6  24235436.197    24235455.466       -3106.445  
     -2420.555          36.000          40.000  
 24  1 10  3 14 35.4000000  0  6G24G10G18G23G32G15
 129716081.649 6 101077557.869 6  24684149.551    24684171.816         597.250  
       465.363          41.000          39.000  
 109135654.520 7  85040837.830 6  20767825.172    20767841.984         378.582  
       294.754          45.000          41.000  
 113917698.348 7  88767102.635 7  21677818.598    21677833.548       -1513.594  
     -1179.352          46.000          45.000  
 110591053.631 7  86174905.233 7  21044778.384    21044792.960       -1558.457  
     -1214.461          43.000          42.000  
 117904473.432 7  91873701.292 6  22436476.187    22436496.248        3160.938  
      2462.906          43.000          41.000  
 127358380.715 6  99240374.719 6  24235495.137    24235514.372       -3106.434  
     -2420.754          36.000          40.000  
 24  1 10  3 14 35.5000000  0  6G24G10G18G23G32G15
 129716021.975 6 101077511.353 6  24684138.195    24684160.456         596.883  
       465.137          40.000          39.000  
 109135616.694 7  85040808.375 6  20767817.974    20767834.791         378.465  
       294.867          45.000          41.000  
 113917849.722 7  88767220.589 7  21677847.404    21677862.354       -1513.664  
     -1179.582          46.000          45.000  
 110591209.477 7  86175026.650 7  21044808.040    21044822.611       -1558.629  
     -1214.395          43.000          42.000  
 117904157.348 7  91873454.982 6  22436416.038    22436436.096        3160.875  
      2463.055          43.000          41.000  
 127358691.409 5  99240616.795 6  24235554.260    24235573.489       -3106.668  
     -2420.668          35.000          40.000  
 24  1 10  3 14 35.6000000  0  6G24G10G18G23G32G15
 129715962.322 6 101077464.851 6  24684126.844    24684148.756         596.797  
       464.984          40.000          39.000  
 109135578.880 7  85040778.883 6  20767810.896    20767827.691         378.273  
       294.805          45.000          41.000  
 113918001.135 7  88767338.572 7  21677875.795    21677891.307       -1513.820  
     -1179.801          46.000          45.000  
 110591365.372 7  86175148.125 7  21044837.948    21044852.331       -1558.676  
     -1214.727          43.000          42.000  
 117903841.304 7  91873208.717 6  22436355.975    22436375.940        3160.656  
      2462.398          43.000          41.000  
 127359002.121 5  99240858.901 6  24235613.231    24235632.364       -3106.934  
     -2421.070          35.000          40.000  
 24  1 10  3 14 35.7000000  0  6G24G10G18G23G32G15
 129715902.646 6 101077418.342 6  24684115.488    24684137.398         596.574  
       464.805          40.000          39.000  
 109135541.076 7  85040749.422 6  20767803.702    20767820.496         378.086  
       294.465          45.000          41.000  
 113918152.531 7  88767456.541 7  21677904.605    21677920.116       -1514.043  
     -1179.828          46.000          45.000  
 110591521.272 7  86175269.633 7  21044867.615    21044882.005       -1558.754  
     -1214.793          43.000          42.000  
 117903525.254 7  91872962.451 6  22436295.833    22436315.799        3160.527  
      2462.797          43.000          41.000  
 127359312.820 5  99241100.985 6  24235672.355    24235691.483       -3106.879  
     -2420.836          35.000          40.000  
